     2.11           OBSERVATION DATA    G (GPS)             RINEX VERSION / TYPE
teqc  2019Feb25     Martin Truffer      20190308 01:04:54UTCPGM / RUN BY / DATE
Linux 2.6.32-573.12.1.x86_64|x86_64|gcc|Linux 64|=+         COMMENT
BIT 2 OF LLI FLAGS DATA COLLECTED UNDER A/S CONDITION       COMMENT
51890642                                                    MARKER NAME
5189                                                        MARKER NUMBER
-Unknown-           -Unknown-                               OBSERVER / AGENCY
0220315189          TRIMBLE 5700        2.30                REC # / TYPE / VERS
-Unknown-           TRM41249.00     NONE                    ANT # / TYPE
 -1794775.6749 -3484167.9967  5017740.5671                  APPROX POSITION XYZ
        0.0530        0.0000        0.0000                  ANTENNA: DELTA H/E/N
     1     1                                                WAVELENGTH FACT L1/2
     7    L1    L2    C1    P1    P2    S1    S2            # / TYPES OF OBSERV
    18                                                      LEAP SECONDS
 SNR is mapped to RINEX snr flag value [0-9]                COMMENT
  L1 & L2: min(max(int(snr_dBHz/6), 0), 9)                  COMMENT
  2019     3     5    19     7   55.0000000     GPS         TIME OF FIRST OBS
                                                            END OF HEADER
 19  3  5 19  7 55.0000000  0  6G07G09G16G23G26G27
   -138585.92257    -59664.97755  21384185.2894                   21384180.6764
        46.5004         31.0004
   -100108.69157    -35161.03156  20122644.9614                   20122641.9574
        47.0004         37.0004
    -31577.35957    -14946.08655  21378992.3134                   21378987.3794
        46.5004         33.7504
    -31537.77357    -15305.86755  21147611.3054                   21147605.3244
        46.7504         32.2504
     18472.60557      7713.45354  23616879.5634                   23616878.1454
        42.7504         29.0004
   -152095.50857    -88551.55555  23315729.6484                   23315727.7894
        42.5004         30.0004
 19  3  5 19  8  0.0000000  0  6G07G09G16G23G26G27
   -162202.65247    -78067.62545  21379691.5084                   21379686.3634
        47.2504         30.5004
   -114044.91447    -46020.43746  20119992.8594                   20119990.2424
        47.0004         37.2504
    -35868.34847    -18289.72345  21378176.0554                   21378170.6564
        46.5004         33.7504
    -36138.72347    -18891.05545  21146735.6724                   21146729.1804
        46.5004         31.5004
     20763.12947      9498.26644  23617315.2974                   23617314.1094
        42.5004         28.2504
   -178892.91047   -109432.65644  23310630.3984                   23310628.6254
        42.5004         29.5004
 19  3  5 19  8  5.0000000  0  6G07G09G16G23G26G27
   -185801.69147    -96456.51645  21375200.5084                   21375196.1174
        46.2504         30.2504
   -127956.69547    -56860.78145  20117345.3834                   20117342.9414
        45.7504         34.0004
    -40134.10547    -21613.68445  21377363.7274                   21377358.8364
        46.5004         34.0004
    -40717.73047    -22459.08245  21145865.1414                   21145858.0004
        47.2504         31.5004
     23070.39147     11296.13344  23617754.1804                   23617753.2304
        43.0004         28.0004
   -205668.87947   -130297.02744  23305535.0394                   23305533.7504
        42.0004         29.7504
 19  3  5 19  8 10.0000000  0  6G07G09G16G23G26G27
   -209375.78547   -114825.93444  21370714.0314                   21370709.8524
        46.2504         27.7504
   -141836.80947    -67676.45745  20114704.1024                   20114701.2624
        45.5004         33.5004
    -44367.48847    -24912.42645  21376558.7734                   21376553.4384
        46.5004         33.7504
    -45267.62547    -26004.43445  21144999.1644                   21144991.9224
        47.0004         31.5004
     25401.60247     13112.66444  23618197.5864                   23618197.0904
        42.2504         27.0004
   -232416.19146   -151139.09444  23300444.8674                   23300443.5594
        41.5004         28.7504
 19  3  5 19  8 15.0000000  0  6G07G09G16G23G26G27
   -232918.80947   -133171.15245  21366234.0164                   21366229.7074
        47.0004         30.0004
   -155679.15647    -78462.68045  20112069.7034                   20112067.8094
        45.0004         32.7504
    -48562.37947    -28181.16445  21375760.3204                   21375755.1564
        47.2504         34.7504
    -49782.19947    -29522.31645  21144139.3524                   21144133.1024
        46.5004         32.0004
     27762.85947     14952.57844  23618647.0084                   23618646.2074
        42.5004         28.2504
   -259128.73046   -171954.05544  23295361.6254                   23295360.2774
        41.2504         27.7504
 19  3  5 19  8 20.0000000  0  6G07G09G16G23G26G27
   -256426.64547   -151488.90244  21361761.3674                   21361756.1884
        45.2504         24.5004
   -169479.55947    -89216.27046  20109443.7894                   20109441.2544
        47.2504         36.7504
    -52714.62547    -31416.69145  21374970.0084                   21374964.5594
        46.7504         34.0004
    -54257.39147    -33009.49645  21143288.1884                   21143281.6484
        46.7504         31.7504
     30158.26247     16819.12544  23619103.8444                   23619102.0084
        43.0004         28.0004
   -285802.35246   -192738.68044  23290285.5784                   23290283.7854
        40.7504         26.7504
 19  3  5 19  8 25.0000000  0  6G07G09G16G23G26G27
   -279896.68747   -169777.26645  21357294.9694                   21357289.8754
        47.0004         30.7504
   -183235.50047    -99935.18446  20106826.0004                   20106823.3984
        47.0004         36.7504
    -56821.64547    -34616.96545  21374188.2274                   21374183.3714
        46.7504         34.0004
    -58690.64147    -36463.97745  21142444.5234                   21142437.5824
        47.0004         32.0004
     32590.39547     18714.28944  23619565.5474                   23619564.6954
        43.0004         28.5004
   -312434.44146   -213490.94144  23285218.2974                   23285216.2074
        41.2504         26.5004
 19  3  5 19  8 30.0000000  0  6G07G09G16G23G26G27
   -303325.69147   -188033.62545  21352836.2504                   21352831.3484
        47.0004         31.0004
   -196943.67247   -110616.87946  20104217.6174                   20104214.6564
        47.0004         36.7504
    -60880.21947    -37779.48445  21373416.4454                   21373410.9144
        46.7504         33.5004
    -63078.67647    -39883.23045  21141609.5314                   21141602.7734
        47.0004         31.7504
     35062.55547     20640.64144  23620036.0084                   23620034.8014
        42.7504         27.7504
   -339021.73446   -234208.30944  23280158.7974                   23280157.1764
        41.2504         27.2504
 19  3  5 19  8 35.0000000  0  6G07G09G16G23G26G27
   -326711.17247   -206256.09445  21348386.5084                   21348381.4224
        47.7504         31.0004
   -210601.60947   -121259.43046  20101618.4064                   20101615.7854
        46.5004         36.2504
    -64887.87147    -40902.34045  21372653.7344                   21372648.1414
        46.7504         34.2504
    -67418.98447    -43265.29345  21140783.7424                   21140777.1884
        46.7504         32.0004
     37577.15647     22600.06644  23620515.2114                   23620513.5124
        43.0004         28.0004
   -365561.73846   -254888.83644  23275108.2584                   23275106.4304
        41.5004         26.7504
 19  3  5 19  8 40.0000000  0  6G07G09G16G23G26G27
   -350051.44547   -224443.30545  21343944.7504                   21343940.0904
        47.0004         30.7504
   -224207.60247   -131861.50046  20099029.5474                   20099026.4454
        47.0004         36.7504
    -68842.93447    -43984.20345  21371901.0704                   21371896.0084
        46.7504         34.0004
    -71709.92247    -46608.88345  21139967.0004                   21139959.8754
        46.7504         31.7504
     40135.91847     24593.89844  23621001.8914                   23621000.3594
        43.0004         27.5004
   -392052.69147   -275531.14544  23270067.1024                   23270065.7504
        42.0004         27.0004
 19  3  5 19  8 45.0000000  0  6G07G09G16G23G26G27
   -373345.30546   -242594.32443  21339512.2974                   21339507.6294
        37.5004         22.5004
   -237760.52347   -142422.21945  20096450.4774                   20096447.8054
        46.2504         35.0004
    -72744.24247    -47024.18445  21371158.6804                   21371153.2814
        46.7504         34.0004
    -75950.28947    -49913.07445  21139159.5164                   21139153.1414
        46.2504         31.5004
     42739.90647     26622.96544  23621496.8914                   23621495.9614
        43.0004         27.2504
   -418493.50047   -296134.38744  23265035.6094                   23265034.0084
        42.5004         28.0004
 19  3  5 19  8 50.0000000  0  6G07G09G16G23G26G27
   -396592.14546   -260708.77743  21335088.6564                   21335083.5634
        37.7504         20.5004
   -251259.60947   -152940.98445  20093881.4844                   20093878.9804
        45.5004         33.7504
    -76591.06247    -50021.71545  21370426.7034                   21370421.5084
        47.0004         34.0004
    -80139.43447    -53177.34845  21138362.4534                   21138356.0164
        46.5004         32.0004
     45389.93847     28687.93044  23622001.1024                   23622000.4804
        43.2504         27.5004
   -444883.41047   -316697.96144  23260013.6254                   23260012.0314
        42.7504         29.0004
 19  3  5 19  8 55.0000000  0  6G07G09G16G23G26G27
   -419791.19946   -278785.93043  21330673.4534                   21330669.1844
        38.0004         18.5004
   -264704.24247   -163417.33245  20091323.3674                   20091320.4384
        45.5004         33.2504
    -80382.84847    -52976.35245  21369704.9384                   21369699.8554
        46.7504         33.7504
    -84276.69147    -56401.20345  21137575.1334                   21137568.6884
        46.5004         32.0004
     48086.53947     30789.16844  23622513.7664                   23622513.6254
        43.0004         27.5004
   -471221.75847   -337221.34844  23255001.9924                   23255000.3134
        42.2504         29.2504
 19  3  5 19  9  0.0000000  0  6G07G09G16G23G26G27
   -442941.89546   -296825.43742  21326268.4534                   21326263.4924
        38.0004         17.2504
   -278093.83247   -173850.78145  20088775.4534                   20088772.3874
        45.7504         33.7504
    -84119.05147    -55887.68045  21368993.9534                   21368988.9694
        46.7504         33.7504
    -88361.49647    -59584.16445  21136797.4924                   21136791.4454
        46.0004         32.0004
     50830.32847     32927.18044  23623036.3754                   23623035.6024
        43.0004         28.0004
   -497507.97746   -357704.11344  23250000.0394                   23249998.0274
        41.5004         28.2504
 19  3  5 19  9  5.0000000  0  6G07G09G16G23G26G27
   -466043.62547   -314826.82443  21321872.0474                   21321867.2504
        43.5004         21.7504
   -291427.72747   -184240.84046  20086238.0474                   20086235.1724
        47.7504         37.5004
    -87798.96547    -58755.14545  21368293.6954                   21368288.3524
        46.5004         34.0004
    -92393.22347    -62725.75845  21136030.8444                   21136024.0394
        46.7504         31.7504
     53621.94147     35102.46944  23623568.0394                   23623566.7234
        42.5004         27.0004
   -523741.38346   -378145.72744  23245008.1094                   23245006.2504
        41.2504         29.2504
 19  3  5 19  9 10.0000000  0  6G07G09G16G23G26G27
   -489095.51646   -332789.32843  21317485.0474                   21317481.0124
        41.5004         23.7504
   -304704.94547   -194586.73446  20083711.4304                   20083708.7154
        47.7504         38.0004
    -91421.62147    -61577.98845  21367604.5784                   21367599.4384
        46.5004         34.0004
    -96370.80947    -65825.16845  21135273.8054                   21135267.9494
        46.5004         31.7504
     56462.34047     37315.74644  23624108.5704                   23624107.6024
        42.5004         28.2504
   -549920.96946   -398545.38344  23240025.8754                   23240024.4104
        41.7504         29.0004
 19  3  5 19  9 15.0000000  0  6G07G09G16G23G26G27
   -512097.93747   -350713.27744  21313108.0474                   21313103.7624
        43.5004         26.7504
   -317925.95747   -204888.81246  20081195.5474                   20081192.6374
        47.5004         37.7504
    -94987.51647    -64356.60545  21366925.8984                   21366920.6214
        46.5004         33.0004
   -100294.77747    -68882.83245  21134527.5784                   21134521.1054
        46.5004         31.5004
     59351.05547     39566.70344  23624658.2584                   23624657.0164
        43.0004         28.5004
   -576047.21947   -418903.47744  23235054.1024                   23235052.7934
        42.0004         28.5004
 19  3  5 19  9 20.0000000  0  6G07G09G16G23G26G27
   -535050.76246   -368598.58643  21308740.7274                   21308735.6374
        38.7504         22.5004
   -331090.82047   -215147.15646  20078690.5554                   20078687.5234
        47.0004         37.2504
    -98496.73847    -67091.07045  21366257.8754                   21366252.9024
        46.2504         33.7504
   -104165.18747    -71898.73845  21133790.8754                   21133784.0354
        46.0004         31.5004
     62288.04347     41855.23044  23625216.6484                   23625215.7114
        42.5004         28.0004
   -602120.14147   -439220.03544  23230092.5004                   23230090.7584
        42.0004         28.5004
 19  3  5 19  9 25.0000000  0  6G07G09G16G23G26G27
   -557954.29347   -386445.51643  21304381.9304                   21304377.3484
        46.2504         22.7504
   -344199.41047   -225361.63346  20076195.7814                   20076193.0744
        47.2504         37.0004
   -101949.18747    -69781.28545  21365601.3444                   21365595.9804
        46.2504         33.5004
   -107981.92247    -74872.82045  21133064.9844                   21133057.9774
        46.7504         32.0004
     65273.32847     44181.45744  23625785.1484                   23625783.9574
        42.5004         27.5004
   -628139.60547   -459494.94944  23225141.2734                   23225139.8714
        42.2504         28.2504
 19  3  5 19  9 30.0000000  0  6G07G09G16G23G26G27
   -580807.75047   -404253.40645  21300033.1564                   21300028.5864
        47.5004         31.0004
   -357251.31647   -235531.94546  20073712.0704                   20073709.2664
        46.7504         36.7504
   -105344.44147    -72426.94945  21364954.8054                   21364949.4734
        46.5004         33.7504
   -111744.58647    -77804.76245  21132348.3674                   21132342.0664
        46.5004         31.7504
     68307.35547     46545.59044  23626363.2194                   23626361.3054
        42.5004         26.5004
   -654105.25047   -479727.93044  23220200.1564                   23220198.6914
        42.0004         27.5004
 19  3  5 19  9 35.0000000  0  6G07G09G16G23G26G27
   -603611.74247   -422022.74645  21295693.7734                   21295688.5434
        47.2504         30.2504
   -370247.05947   -245658.50446  20071239.3594                   20071236.4804
        46.5004         36.7504
   -108683.01647    -75028.43445  21364319.8364                   21364314.2114
        46.7504         34.0004
   -115453.66447    -80694.94945  21131643.1094                   21131636.2584
        46.5004         31.7504
     71389.62547     48947.33644  23626948.5004                   23626948.1884
        42.5004         28.0004
   -680017.48447   -499919.30144  23215269.6724                   23215266.8794
        42.5004         28.0004
 19  3  5 19  9 40.0000000  0  6G07G09G16G23G26G27
   -626366.43447   -439753.68445  21291364.1024                   21291358.5394
        47.0004         30.2504
   -383186.78947   -255741.41846  20068776.8594                   20068774.1724
        46.7504         36.7504
   -111965.05947    -77585.84445  21363695.3594                   21363689.7774
        46.5004         33.5004
   -119109.36347    -83543.55945  21130947.1954                   21130940.2774
        46.7504         31.7504
     74519.91847     51386.56344  23627544.4144                   23627543.6804
        42.2504         27.7504
   -705876.52347   -520069.19944  23210348.5084                   23210346.8204
        42.2504         29.0004
 19  3  5 19  9 45.0000000  0  6G07G09G16G23G26G27
   -649071.49647   -457445.94545  21287042.9534                   21287037.9344
        47.0004         30.5004
   -396070.13347   -265780.37946  20066325.0944                   20066322.1564
        47.0004         36.7504
   -115190.30547    -80099.05145  21363081.3204                   21363076.1174
        45.5004         33.5004
   -122711.37147    -86350.32445  21130261.2894                   21130254.6914
        46.5004         31.7504
     77698.59447     53863.43844  23628149.6564                   23628148.7114
        42.0004         28.5004
   -731681.98446   -540177.33644  23205438.1254                   23205436.3284
        41.7504         28.5004
 19  3  5 19  9 50.0000000  0  6G07G09G16G23G26G27
   -671726.97347   -475099.56645  21282731.7504                   21282727.3244
        46.7504         30.2504
   -408897.18047   -275775.48446  20063884.0704                   20063881.3324
        46.7504         36.7504
   -118358.75447    -82567.96145  21362477.9774                   21362473.0634
        46.0004         33.7504
   -126259.70747    -89115.27745  21129586.3914                   21129579.7034
        46.2504         31.2504
     80925.57047     56377.98044  23628763.5164                   23628762.8794
        42.0004         26.7504
   -757433.94146   -560243.75844  23200537.2344                   23200536.2894
        41.7504         29.2504
 19  3  5 19  9 55.0000000  0  6G07G09G16G23G26G27
   -694334.37947   -492715.71145  21278429.9774                   21278425.0704
        46.7504         30.7504
   -421669.44147   -285727.89546  20061453.5164                   20061451.0824
        46.5004         36.5004
   -121471.96147    -84993.83245  21361885.9454                   21361880.7154
        46.2504         33.2504
   -129755.89147    -91839.57045  21128920.8674                   21128914.5164
        46.2504         31.0004
     84199.31347     58928.95744  23629386.3364                   23629385.5864
        43.0004         27.5004
   -783133.80147   -580269.62144  23195647.2584                   23195645.4844
        42.5004         29.0004
 19  3  5 19 10  0.0000000  0  6G07G09G16G23G26G27
   -716893.30547   -510294.09844  21274137.0234                   21274132.1484
        46.7504         29.7504
   -434386.50447   -295637.30546  20059033.9384                   20059031.0634
        46.2504         36.2504
   -124529.52047    -87376.35245  21361303.6334                   21361298.7624
        46.2504         33.5004
   -133199.53547    -94522.93745  21128265.7664                   21128258.9964
        46.2504         30.7504
     87520.23847     61516.67644  23630018.5084                   23630017.8714
        42.5004         27.2504
   -808781.23847   -600254.65244  23190766.7894                   23190765.0124
        42.5004         29.0004
 19  3  5 19 10  5.0000000  0  6G07G09G16G23G26G27
   -739404.54747   -527835.33244  21269853.1724                   21269848.4264
        46.5004         29.5004
   -447049.19947   -305504.35246  20056624.3444                   20056621.7424
        46.5004         36.5004
   -127532.26647    -89716.17645  21360732.6724                   21360727.4384
        46.0004         33.2504
   -136591.43747    -97165.99245  21127619.9384                   21127613.6994
        46.0004         31.5004
     90887.49647     64140.49644  23630659.4774                   23630658.2664
        42.2504         27.2504
   -834377.06646   -620199.47344  23185895.8754                   23185893.9804
        41.7504         27.7504
 19  3  5 19 10 10.0000000  0  6G07G09G16G23G26G27
   -761868.85547   -545339.98845  21265578.7194                   21265573.4494
        47.0004         30.7504
   -459658.27347   -315329.58646  20054224.6884                   20054221.8364
        46.5004         36.5004
   -130480.97747    -92013.87145  21360171.4304                   21360166.5904
        46.0004         33.5004
   -139932.38747    -99769.32045  21126984.7424                   21126977.9614
        46.2504         31.0004
     94300.37547     66799.85244  23631308.7894                   23631307.6454
        42.7504         27.5004
   -859921.96546   -640104.57444  23181034.5704                   23181033.2274
        41.5004         27.7504
 19  3  5 19 10 15.0000000  0  6G07G09G16G23G26G27
   -784286.43047   -562808.22345  21261312.3524                   21261308.0554
        46.7504         31.0004
   -472213.85947   -325113.17246  20051835.5084                   20051832.9264
        46.5004         37.0004
   -133375.81247    -94269.59845  21359620.6094                   21359615.5204
        46.0004         33.5004
   -143222.52047   -102333.07445  21126358.5164                   21126351.8834
        46.2504         31.5004
     97758.60547     69494.57844  23631966.6254                   23631966.0204
        42.5004         27.0004
   -885416.12147   -659970.14844  23176183.3834                   23176182.0704
        42.2504         28.7504
 19  3  5 19 10 20.0000000  0  6G07G09G16G23G26G27
   -806657.48847   -580240.22745  21257055.5864                   21257050.6914
        46.5004         31.0004
   -484716.29347   -334855.32446  20049456.1484                   20049453.6764
        46.5004         36.7504
   -136217.09847    -96483.57845  21359080.0704                   21359075.1564
        46.0004         33.5004
   -146462.14547   -104857.45745  21125741.9224                   21125734.9734
        46.2504         31.2504
    101261.92647     72224.44144  23632633.6564                   23632632.7704
        42.5004         27.2504
   -910859.80546   -679796.39544  23171341.0944                   23171340.0824
        41.7504         28.5004
 19  3  5 19 10 25.0000000  0  6G07G09G16G23G26G27
   -828982.40247   -597636.25845  21252807.4774                   21252802.4964
        46.7504         31.0004
   -497165.84047   -344556.27746  20047087.0864                   20047084.3324
        46.5004         36.7504
   -139005.17647    -98656.10945  21358549.4064                   21358544.3754
        46.0004         33.5004
   -149651.58247   -107342.74245  21125134.9224                   21125128.2504
        46.2504         31.7504
    104810.04347     74989.20344  23633308.9614                   23633307.7114
        42.5004         28.0004
   -936253.32046   -699583.53944  23166509.3914                   23166507.8094
        41.7504         29.2504
 19  3  5 19 10 30.0000000  0  6G07G09G16G23G26G27
   -851261.20747   -614996.36345  21248567.5634                   21248562.6054
        46.5004         30.7504
   -509562.56647   -354216.06246  20044728.1644                   20044725.2974
        46.2504         36.5004
   -141740.03147   -100787.17645  21358028.7664                   21358023.9144
        46.0004         33.0004
   -152790.87947   -109788.94945  21124537.8284                   21124530.9734
        46.2504         31.2504
    108402.85947     77788.78544  23633992.8984                   23633991.7464
        42.7504         27.2504
   -961596.67647   -719331.60244  23161686.8914                   23161685.0704
        42.0004         28.7504
 19  3  5 19 10 35.0000000  0  6G07G09G16G23G26G27
   -873495.26647   -632321.60545  21244336.7734                   21244332.1294
        46.5004         30.5004
   -521907.80147   -363835.73046  20042378.7734                   20042376.3324
        46.0004         36.7504
   -144423.09447   -102877.87545  21357518.3754                   21357513.5944
        45.7504         33.5004
   -155881.41847   -112197.16045  21123949.0314                   21123942.6564
        45.7504         31.2504
    112039.01646     80622.12944  23634684.5084                   23634683.6484
        41.7504         27.2504
   -986891.23846   -739041.64844  23156872.7584                   23156871.5664
        41.2504         26.7504
 19  3  5 19 10 40.0000000  0  6G07G09G16G23G26G27
   -895684.47347   -649611.89845  21240114.3754                   21240109.2934
        46.5004         30.5004
   -534201.47747   -373415.21746  20040039.3524                   20040037.0664
        46.2504         36.5004
   -147054.26647   -104928.13345  21357017.8674                   21357012.4104
        45.7504         32.5004
   -158923.08247   -114567.29745  21123370.6174                   21123364.0554
        46.0004         31.0004
    115718.62547     83489.39544  23635384.3754                   23635383.6054
        42.5004         27.7504
  -1012136.91446   -758713.60944  23152069.1334                   23152067.2934
        41.0004         27.2504
 19  3  5 19 10 45.0000000  0  6G07G09G16G23G26G27
   -917829.16847   -666867.50045  21235899.9614                   21235895.5394
        46.5004         30.5004
   -546443.95747   -382954.81646  20037709.9224                   20037707.5554
        46.2504         36.5004
   -149633.89847   -106938.24645  21356526.7974                   21356521.8594
        45.7504         33.0004
   -161916.23847   -116899.63345  21122800.7664                   21122794.3244
        45.7504         31.0004
    119441.29747     86390.14544  23636093.4384                   23636092.4344
        42.2504         26.7504
  -1037333.97746   -778347.69144  23147274.3594                   23147272.7114
        41.5004         28.5004
 19  3  5 19 10 50.0000000  0  6G07G09G16G23G26G27
   -939929.55147   -684088.58245  21231694.3754                   21231689.6254
        46.2504         30.2504
   -558635.39147   -392454.63746  20035389.6254                   20035387.1954
        46.2504         36.5004
   -152162.21147   -108908.36345  21356045.8914                   21356040.4494
        45.7504         32.7504
   -164861.06647   -119194.30945  21122240.5634                   21122234.0594
        45.7504         31.5004
    123206.60947     89324.14844  23636809.6334                   23636808.7814
        42.2504         28.0004
  -1062482.62546   -797944.02744  23142489.0314                   23142487.0864
        41.5004         29.2504
 19  3  5 19 10 55.0000000  0  6G07G09G16G23G26G27
   -961986.42247   -701275.75845  21227497.2894                   21227492.6484
        46.5004         30.5004
   -570776.63747   -401915.34846  20033079.4534                   20033076.7814
        46.2504         36.5004
   -154640.08247   -110839.17645  21355574.0554                   21355569.2194
        45.7504         33.0004
   -167758.42647   -121451.99645  21121689.3204                   21121683.3094
        46.0004         31.0004
    127014.14847     92291.05944  23637534.2894                   23637533.0784
        42.5004         28.0004
  -1087583.72746   -817503.30944  23137712.0314                   23137710.2504
        41.7504         28.7504
 19  3  5 19 11  0.0000000  0  6G07G09G16G23G26G27
   -983999.95747   -718429.16045  21223308.2734                   21223303.3134
        46.5004         30.0004
   -582867.81247   -411337.04346  20030778.5474                   20030776.0434
        46.2504         36.0004
   -157067.60947   -112730.75445  21355112.2504                   21355106.9304
        45.7504         32.7504
   -170608.45347   -123672.80145  21121147.1724                   21121140.5554
        46.0004         31.0004
    130863.56347     95290.59844  23638267.3134                   23638265.5354
        42.2504         27.2504
  -1112637.39846   -837025.64544  23132944.4924                   23132942.6954
        41.2504         28.0004
 19  3  5 19 11  5.0000000  0  6G07G09G16G23G26G27
  -1005970.85547   -735549.33245  21219127.4144                   21219122.7304
        46.5004         30.7504
   -594909.65647   -420720.30946  20028487.0234                   20028484.5354
        46.2504         36.7504
   -159445.53147   -114583.68745  21354659.7194                   21354654.5124
        45.7504         32.7504
   -173411.90647   -125857.31245  21120613.4614                   21120607.0004
        46.0004         31.0004
    134754.12947     98322.19944  23639007.0004                   23639006.0824
        42.5004         27.0004
  -1137644.28546   -856511.55544  23128186.3054                   23128183.5984
        41.7504         26.5004
 19  3  5 19 11 10.0000000  0  6G07G09G16G23G26G27
  -1027899.37547   -752636.49245  21214954.2194                   21214949.7854
        46.7504         31.2504
   -606902.42247   -430065.32046  20026204.9144                   20026202.3054
        46.2504         36.7504
   -161774.12147   -116398.17245  21354216.6564                   21354211.7974
        45.5004         33.0004
   -176168.95747   -128005.66845  21120088.9774                   21120082.3954
        46.0004         31.0004
    138685.54347    101385.64144  23639754.7194                   23639754.0944
        42.5004         27.2504
  -1162604.68746   -875961.22344  23123436.1724                   23123434.4804
        41.5004         28.2504
 19  3  5 19 11 15.0000000  0  6G07G09G16G23G26G27
  -1049785.90647   -769690.92645  21210789.5784                   21210784.6214
        46.5004         30.5004
   -618846.44147   -439372.34446  20023932.2734                   20023929.8134
        46.2504         36.5004
   -164053.76247   -118174.51645  21353782.9384                   21353777.9264
        45.7504         32.5004
   -178880.07447   -130118.23045  21119573.3984                   21119566.0274
        46.0004         30.7504
    142657.44947    104480.62144  23640510.9844                   23640510.3364
        42.2504         26.7504
  -1187518.97746   -895374.93444  23118695.1724                   23118693.3094
        41.5004         28.2504
 19  3  5 19 11 20.0000000  0  6G07G09G16G23G26G27
  -1071630.72747   -786712.85945  21206632.7114                   21206627.8984
        46.5004         30.7504
   -630742.10947   -448641.70746  20021668.6644                   20021665.8914
        46.2504         36.2504
   -166284.78547   -119912.98845  21353358.1564                   21353353.3364
        45.7504         32.7504
   -181545.51647   -132195.20345  21119066.0394                   21119059.3674
        46.0004         31.0004
    146669.48047    107606.87144  23641274.1414                   23641273.7464
        42.2504         27.2504
  -1212387.39546   -914752.89844  23113962.8594                   23113960.7734
        41.5004         28.2504
 19  3  5 19 11 25.0000000  0  6G07G09G16G23G26G27
  -1093434.15647   -803702.55145  21202483.9534                   21202479.0474
        46.7504         30.5004
   -642589.63747   -457873.54746  20019413.8524                   20019411.0904
        46.2504         36.2504
   -168467.46947   -121613.78545  21352942.9064                   21352938.1724
        45.7504         32.7504
   -184165.60547   -134236.82845  21118567.3834                   21118560.7034
        45.7504         31.0004
    150721.35547    110764.16844  23642045.6174                   23642044.5744
        42.5004         26.5004
  -1237210.27046   -934095.40244  23109239.0634                   23109236.8984
        41.5004         27.7504
 19  3  5 19 11 30.0000000  0  6G07G09G16G23G26G27
  -1115196.70747   -820660.37945  21198342.7034                   21198337.9104
        46.7504         30.7504
   -654389.57847   -467068.30946  20017168.6414                   20017166.3754
        46.2504         36.5004
   -170602.36747   -123277.34045  21352536.4304                   21352531.5704
        45.7504         33.0004
   -186740.85947   -136243.53545  21118077.2344                   21118071.0704
        46.0004         31.0004
    154812.54747    113952.10544  23642824.1564                   23642823.1724
        42.5004         26.7504
  -1261988.09846   -953402.80544  23104524.0784                   23104522.1174
        41.5004         28.5004
 19  3  5 19 11 35.0000000  0  6G07G09G16G23G26G27
  -1136919.09847   -837586.92645  21194208.6804                   21194203.8794
        46.5004         30.7504
   -666142.68747   -476226.57446  20014932.6174                   20014929.3054
        46.2504         36.5004
   -172690.24247   -124904.26645  21352139.2814                   21352134.2734
        45.7504         33.0004
   -189272.05147   -138215.89145  21117595.3284                   21117588.6564
        45.7504         31.2504
    158942.32047    117170.11344  23643609.7504                   23643608.9844
        42.5004         26.2504
  -1286721.59446   -972675.66044  23099817.8204                   23099815.8134
        41.5004         27.7504
 19  3  5 19 11 40.0000000  0  6G07G09G16G23G26G27
  -1158601.26647   -854482.11745  21190083.0474                   21190078.1604
        46.5004         31.0004
   -677848.86347   -485348.26646  20012704.3054                   20012701.7544
        46.0004         36.0004
   -174731.05547   -126494.51245  21351751.3364                   21351745.8954
        45.5004         32.5004
   -191759.07847   -140153.83645  21117121.4694                   21117115.6024
        45.5004         31.0004
    163110.68847    120418.18044  23644403.0864                   23644402.2934
        42.0004         26.2504
  -1311410.69146   -991913.91444  23095119.3674                   23095117.1604
        41.5004         28.0004
 19  3  5 19 11 45.0000000  0  6G07G09G16G23G26G27
  -1180244.10547   -871346.66845  21185964.3674                   21185959.3054
        46.7504         31.0004
   -689509.06247   -494434.14546  20010485.4844                   20010483.1484
        46.0004         36.2504
   -176725.73047   -128048.80545  21351371.3984                   21351366.1804
        45.7504         33.2504
   -194202.91847   -142058.12945  21116656.9144                   21116651.0124
        45.7504         31.0004
    167316.73447    123695.60944  23645203.5784                   23645202.7584
        42.2504         27.0004
  -1336056.31646  -1011118.29344  23090429.4774                   23090427.1374
        41.5004         28.2504
 19  3  5 19 11 50.0000000  0  6G07G09G16G23G26G27
  -1201847.94947   -888180.82445  21181853.7274                   21181848.5474
        46.5004         30.7504
   -701123.53547   -503484.37946  20008275.0084                   20008272.7114
        46.2504         36.5004
   -178674.60947   -129567.41445  21351000.5784                   21350995.4264
        45.5004         32.5004
   -196603.82047   -143928.96545  21116200.0944                   21116193.7854
        45.5004         30.2504
    171560.14847    127002.16444  23646010.8834                   23646010.0234
        42.2504         26.7504
  -1360658.72346  -1030288.98044  23085747.6564                   23085746.0784
        41.5004         28.5004
 19  3  5 19 11 55.0000000  0  6G07G09G16G23G26G27
  -1223413.08247   -904984.82845  21177749.3914                   21177744.3984
        46.2504         30.7504
   -712692.62947   -512499.25846  20006073.7424                   20006070.8874
        45.7504         36.2504
   -180577.96147   -131050.55145  21350638.5554                   21350633.5234
        45.7504         32.7504
   -198962.12947   -145766.61745  21115750.8594                   21115744.7934
        45.5004         30.7504
    175840.62547    130337.59844  23646824.7504                   23646824.7074
        42.0004         26.7504
  -1385218.20346  -1049426.24244  23081073.7584                   23081072.3914
        41.7504         27.5004
 19  3  5 19 12  0.0000000  0  6G07G09G16G23G26G27
  -1244940.05147   -921759.09045  21173652.7974                   21173648.6804
        46.5004         30.5004
   -724216.85547   -521479.18446  20003881.1884                   20003877.9264
        46.0004         36.5004
   -182436.31647   -132498.61745  21350284.6954                   21350279.6724
        45.5004         32.5004
   -201278.34447   -147571.46145  21115310.5234                   21115304.1884
        45.5004         31.2504
    180157.60947    133701.47344  23647646.6564                   23647646.3754
        42.2504         27.0004
  -1409735.31246  -1068530.49244  23076408.4774                   23076406.2114
        41.5004         27.7504
 19  3  5 19 12  5.0000000  0  6G07G09G16G23G26G27
  -1266428.90247   -938503.65645  21169563.7974                   21169558.9734
        46.2504         30.5004
   -735696.28147   -530424.19146  20001696.4304                   20001693.8244
        46.0004         36.5004
   -184249.80947   -133911.73045  21349939.5784                   21349934.4774
        45.7504         32.5004
   -203552.52747   -149343.56245  21114877.8444                   21114871.5354
        45.5004         31.0004
    184511.04347    137093.75444  23648475.1414                   23648474.4104
        42.2504         26.5004
  -1434210.03946  -1087601.69544  23071750.9064                   23071749.3794
        41.2504         27.5004
 19  3  5 19 12 10.0000000  0  6G07G09G16G23G26G27
  -1287879.90247   -955218.71545  21165481.4614                   21165477.2384
        46.5004         30.5004
   -747131.13347   -539334.46146  19999520.2194                   19999518.1334
        46.0004         36.2504
   -186018.62547   -135290.03545  21349603.0084                   21349597.7894
        45.5004         32.7504
   -205785.01247   -151083.16445  21114453.3284                   21114446.9614
        45.7504         31.2504
    188900.61347    140514.19544  23649310.7504                   23649309.9774
        42.5004         27.0004
  -1458642.67646  -1106640.08644  23067101.4454                   23067100.0124
        41.5004         28.2504
 19  3  5 19 12 15.0000000  0  6G07G09G16G23G26G27
  -1309293.88747   -971904.93745  21161406.5164                   21161402.0824
        46.5004         30.5004
   -758522.25447   -548210.66446  19997352.8524                   19997350.5204
        46.0004         36.0004
   -187743.61347   -136634.18745  21349275.0554                   21349269.6684
        45.5004         32.5004
   -207976.57447   -152790.87545  21114036.0784                   21114029.8674
        45.7504         31.0004
    193325.55147    143962.19144  23650153.2814                   23650152.0594
        42.7504         27.0004
  -1483034.00847  -1125646.34044  23062459.8674                   23062458.5434
        42.0004         28.5004
 19  3  5 19 12 20.0000000  0  6G07G09G16G23G26G27
  -1330670.55547   -988562.07045  21157339.1484                   21157334.7894
        46.5004         31.0004
   -769869.35547   -557052.56646  19995193.3674                   19995191.3054
        46.0004         36.5004
   -189424.58247   -137944.03945  21348954.6334                   21348949.9224
        45.7504         32.5004
   -210126.95347   -154466.50445  21113626.8594                   21113620.7424
        45.7504         31.0004
    197786.08247    147437.91844  23651001.8674                   23651000.8484
        42.2504         27.0004
  -1507383.74246  -1144620.16044  23057826.3834                   23057824.7114
        41.0004         27.0004
 19  3  5 19 12 25.0000000  0  6G07G09G16G23G26G27
  -1352010.80147  -1005190.83645  21153278.2504                   21153273.2194
        46.7504         31.0004
   -781173.35947   -565860.87946  19993042.4454                   19993039.9924
        46.2504         36.5004
   -191062.41047   -139220.27045  21348643.3754                   21348637.9734
        45.7504         32.7504
   -212237.01647   -156110.69945  21113225.2424                   21113219.1884
        45.7504         31.0004
    202281.29747    150940.68844  23651856.4614                   23651855.8954
        42.5004         27.2504
  -1531692.78946  -1163562.24644  23053200.8444                   23053199.0434
        41.2504         28.5004
 19  3  5 19 12 30.0000000  0  6G07G09G16G23G26G27
  -1373314.82047  -1021791.37145  21149224.1254                   21149219.7274
        46.5004         30.5004
   -792434.42647   -574635.74246  19990899.1094                   19990897.1914
        46.0004         36.5004
   -192657.28947   -140463.04345  21348339.8674                   21348334.9384
        45.7504         33.0004
   -214306.99247   -157723.68445  21112831.3284                   21112825.2234
        45.7504         31.2504
    206810.98047    154470.30544  23652719.1414                   23652718.1454
        42.0004         26.5004
  -1555961.30946  -1182472.77744  23048582.8054                   23048580.8914
        41.7504         28.5004
 19  3  5 19 12 35.0000000  0  6G07G09G16G23G26G27
  -1394582.96147  -1038363.96145  21145176.6254                   21145172.1294
        46.0004         30.5004
   -803652.75447   -583377.28946  19988764.4924                   19988762.0664
        45.5004         36.0004
   -194209.50447   -141672.56245  21348044.1564                   21348039.3404
        46.0004         33.5004
   -216336.71547   -159305.28945  21112445.0084                   21112438.7814
        45.5004         31.2504
    211374.69146    158026.44544  23653586.6724                   23653586.5554
        41.7504         26.7504
  -1580189.13747  -1201351.62544  23043971.8204                   23043970.2814
        42.5004         29.5004
 19  3  5 19 12 40.0000000  0  6G07G09G16G23G26G27
  -1415815.88347  -1054909.08645  21141136.2734                   21141131.7034
        46.0004         30.2504
   -814829.38747   -592086.36346  19986637.5864                   19986635.2384
        45.5004         36.0004
   -195719.89847   -142849.49245  21347756.6724                   21347751.9024
        46.0004         33.7504
   -218327.94547   -160856.90245  21112066.3204                   21112059.8754
        45.7504         31.5004
    215971.92247    161608.69144  23654462.2424                   23654461.7934
        42.0004         26.5004
  -1604377.98046  -1220200.05144  23039368.7664                   23039367.5634
        41.5004         29.0004
 19  3  5 19 12 45.0000000  0  6G07G09G16G23G26G27
  -1437013.84847  -1071426.98445  21137102.6094                   21137097.6684
        46.2504         30.5004
   -825964.32447   -600762.93046  19984518.6804                   19984516.1024
        45.5004         36.5004
   -197188.64147   -143993.97745  21347477.7034                   21347472.5944
        46.0004         34.0004
   -220280.36747   -162378.27345  21111694.7504                   21111688.4844
        45.7504         31.5004
    220602.34447    165216.80544  23655343.4224                   23655342.6214
        42.2504         26.7504
  -1628527.47347  -1239017.83644  23034773.4924                   23034771.7664
        42.5004         29.2504
 19  3  5 19 12 50.0000000  0  6G07G09G16G23G26G27
  -1458176.46547  -1087917.33245  21133075.2894                   21133070.7384
        46.2504         30.7504
   -837057.27347   -609406.79346  19982407.8914                   19982405.5514
        45.7504         36.5004
   -198615.40647   -145105.73445  21347205.9694                   21347200.8204
        46.0004         33.7504
   -222193.66047   -163869.15245  21111330.6804                   21111324.1334
        45.5004         31.2504
    225266.28947    168851.04344  23656230.6414                   23656230.1764
        42.2504         26.7504
  -1652637.34447  -1257804.75844  23030185.4694                   23030183.8164
        42.5004         29.2504
 19  3  5 19 12 55.0000000  0  6G07G09G16G23G26G27
  -1479303.79747  -1104380.19545  21129054.6804                   21129050.2774
        46.2504         30.5004
   -848108.24647   -618017.93746  19980304.7974                   19980302.3204
        45.5004         36.0004
   -200000.29347   -146184.88345  21346942.3594                   21346937.6564
        46.0004         34.0004
   -224067.84447   -165329.55545  21110973.8364                   21110967.7544
        45.7504         31.2504
    229963.68847    172511.35544  23657124.2504                   23657124.2544
        42.5004         26.5004
  -1676707.59847  -1276560.78144  23025605.0394                   23025603.3714
        42.2504         29.5004
 19  3  5 19 13  0.0000000  0  6G07G09G16G23G26G27
  -1500396.21947  -1120815.84445  21125041.3284                   21125036.4344
        46.2504         30.7504
   -859117.64547   -626596.69145  19978209.8444                   19978207.1174
        45.5004         35.7504
   -201343.61747   -147231.62545  21346686.9844                   21346681.7624
        45.7504         33.5004
   -225903.27747   -166759.77045  21110624.9384                   21110618.3164
        45.5004         31.2504
    234694.15647    176197.43844  23658024.2034                   23658024.6484
        42.0004         27.2504
  -1700738.54747  -1295286.18444  23021031.9384                   23021030.5044
        42.2504         29.2504
 19  3  5 19 13  5.0000000  0  6G07G09G16G23G26G27
  -1521454.14847  -1137224.59045  21121033.9534                   21121029.3134
        46.2504         30.7504
   -870085.80547   -635143.31245  19976122.6564                   19976120.1724
        45.5004         35.7504
   -202645.81247   -148246.33245  21346439.3524                   21346434.0944
        46.0004         34.0004
   -227700.42247   -168160.14545  21110282.7194                   21110276.4964
        45.5004         31.2504
    239457.30147    179908.97344  23658930.9534                   23658930.6374
        42.2504         26.7504
  -1724730.65247  -1313981.33244  23016466.4694                   23016464.7584
        42.2504         29.5004
 19  3  5 19 13 10.0000000  0  6G07G09G16G23G26G27
  -1542477.80547  -1153606.66845  21117033.5394                   21117028.6644
        46.5004         30.5004
   -881013.03947   -643658.03545  19974043.4534                   19974040.8754
        45.5004         35.7504
   -203907.12547   -149229.17645  21346198.9924                   21346194.2974
        45.7504         33.2504
   -229459.45747   -169530.82445  21109947.9144                   21109941.6094
        45.5004         31.0004
    244252.84046    183645.75444  23659843.3984                   23659843.4884
        41.7504         26.5004
  -1748684.07847  -1332646.33644  23011908.3364                   23011906.6764
        42.5004         29.2504
 19  3  5 19 13 15.0000000  0  6G07G09G16G23G26G27
  -1563467.52347  -1169962.29345  21113039.3204                   21113034.4064
        46.2504         30.0004
   -891899.67647   -652141.14146  19971971.6564                   19971969.0274
        45.5004         36.0004
   -205127.93447   -150180.45745  21345966.3444                   21345961.6214
        45.7504         33.7504
   -231180.78547   -170872.12145  21109620.0234                   21109614.2934
        45.2504         31.7504
    249080.42647    187407.49644  23660762.1414                   23660761.9064
        42.5004         26.7504
  -1772599.19547  -1351281.50445  23007357.5234                   23007355.8984
        42.2504         30.0004
 19  3  5 19 13 20.0000000  0  6G07G09G16G23G26G27
  -1584423.70347  -1186291.78545  21109051.3524                   21109046.3634
        46.5004         30.7504
   -902746.05947   -660592.86346  19969907.7344                   19969905.1564
        45.5004         36.0004
   -206308.65647   -151100.50445  21345741.9304                   21345737.0864
        45.5004         33.2504
   -232864.79747   -172184.34845  21109299.9694                   21109293.7734
        45.5004         31.0004
    253939.65247    191193.90644  23661687.1884                   23661686.4184
        42.2504         26.2504
  -1796476.39547  -1369887.09044  23002813.7584                   23002812.0554
        42.5004         29.2504
 19  3  5 19 13 25.0000000  0  6G07G09G16G23G26G27
  -1605346.85947  -1202595.53945  21105069.8984                   21105065.1334
        46.5004         30.5004
   -913552.73447   -669013.65246  19967851.2974                   19967848.7114
        45.5004         36.0004
   -207449.76247   -151989.68045  21345524.9064                   21345519.5984
        45.7504         33.7504
   -234511.94947   -173467.84045  21108985.9614                   21108980.0234
        45.2504         31.0004
    258830.01247    195004.57444  23662617.8914                   23662616.8364
        42.5004         26.5004
  -1820316.13347  -1388463.51244  22998277.5474                   22998275.5554
        42.5004         29.5004
 19  3  5 19 13 30.0000000  0  6G07G09G16G23G26G27
  -1626237.19947  -1218873.73045  21101094.6724                   21101089.6024
        46.5004         30.7504
   -924319.94147   -677403.68446  19965802.5084                   19965800.0314
        45.5004         36.0004
   -208551.55147   -152848.21545  21345315.2974                   21345310.2464
        46.0004         33.5004
   -236122.55947   -174722.87545  21108680.4694                   21108673.5554
        45.5004         30.7504
    263751.25447    198839.30544  23663553.8674                   23663553.6134
        42.0004         27.5004
  -1844118.63347  -1407010.91044  22993748.1484                   22993746.2034
        42.5004         29.0004
 19  3  5 19 13 35.0000000  0  6G07G09G16G23G26G27
  -1647094.80547  -1235126.41445  21097125.5474                   21097120.6914
        46.5004         30.5004
   -935047.69547   -685762.97346  19963760.5084                   19963758.4574
        45.7504         36.0004
   -209614.06247   -153676.14845  21345112.6954                   21345107.8834
        46.0004         34.0004
   -237696.66447   -175949.44945  21108380.3674                   21108373.8054
        45.2504         30.7504
    268703.33647    202698.06644  23664496.9614                   23664496.1374
        42.2504         26.7504
  -1867883.92647  -1425529.32444  22989225.4144                   22989223.7464
        42.5004         29.0004
 19  3  5 19 13 40.0000000  0  6G07G09G16G23G26G27
  -1667920.29347  -1251354.06645  21093162.4844                   21093157.5704
        46.2504         30.5004
   -945736.67647   -694092.05146  19961726.9694                   19961724.3444
        45.5004         36.0004
   -210637.97347   -154474.00845  21344917.7974                   21344912.8874
        45.7504         33.5004
   -239234.90647   -177148.07845  21108087.8284                   21108081.5084
        45.5004         31.2504
    273685.60247    206580.32844  23665444.5704                   23665444.1134
        42.2504         27.2504
  -1891612.70747  -1444019.27744  22984710.1094                   22984707.6214
        42.5004         29.5004
 19  3  5 19 13 45.0000000  0  6G07G09G16G23G26G27
  -1688713.98047  -1267556.93445  21089205.4384                   21089200.9924
        46.5004         30.5004
   -956387.21147   -702391.16445  19959699.8674                   19959697.6054
        45.5004         35.7504
   -211623.61347   -155242.04345  21344730.8754                   21344725.7114
        45.7504         33.5004
   -240737.60947   -178319.03145  21107801.3284                   21107795.6484
        45.5004         31.2504
    278697.59446    210485.78144  23666398.3444                   23666397.6954
        41.5004         27.0004
  -1915305.27747  -1462481.02044  22980201.5474                   22980199.6174
        42.2504         29.5004
 19  3  5 19 13 50.0000000  0  6G07G09G16G23G26G27
  -1709476.00047  -1283735.13745  21085254.4454                   21085250.1054
        46.5004         30.5004
   -966999.41047   -710660.42246  19957680.3984                   19957678.1604
        45.7504         36.5004
   -212571.10547   -155980.35545  21344549.9774                   21344545.4104
        45.7504         33.5004
   -242204.91047   -179462.37545  21107521.8204                   21107516.2734
        45.5004         31.0004
    283739.31347    214414.38744  23667357.9304                   23667357.1054
        42.0004         26.2504
  -1938961.68447  -1480914.57444  22975699.6024                   22975697.7664
        42.2504         29.0004
 19  3  5 19 13 55.0000000  0  6G07G09G16G23G26G27
  -1730206.61747  -1299888.86745  21081309.7814                   21081305.1804
        46.5004         30.5004
   -977573.51647   -718899.98446  19955668.2734                   19955665.6094
        45.7504         36.0004
   -213480.71547   -156689.14545  21344377.0474                   21344372.1174
        45.7504         34.0004
   -243637.04347   -180578.33245  21107250.2974                   21107243.9804
        45.7504         31.0004
    288810.44546    218365.91844  23668322.6884                   23668322.1414
        41.5004         26.5004
  -1962582.20347  -1499320.18044  22971204.8284                   22971203.1884
        42.0004         29.7504
 19  3  5 19 14  0.0000000  0  6G07G09G16G23G26G27
  -1750906.31247  -1316018.49645  21077370.7664                   21077365.9184
        46.2504         30.2504
   -988110.05547   -727110.27045  19953663.3834                   19953661.0904
        45.7504         35.7504
   -214352.96547   -157368.82045  21344211.4774                   21344205.8674
        45.7504         33.5004
   -245034.55147   -181667.30145  21106984.4454                   21106977.8914
        45.7504         31.0004
    293910.46947    222339.94944  23669293.3754                   23669292.2114
        42.0004         26.5004
  -1986167.38747  -1517698.23044  22966716.5554                   22966714.6524
        42.2504         29.2504
 19  3  5 19 14  5.0000000  0  6G07G09G16G23G26G27
  -1771575.56647  -1332124.40645  21073437.6804                   21073432.8914
        46.2504         31.0004
   -998609.47347   -735291.63746  19951665.6094                   19951662.8834
        45.7504         36.2504
   -215188.30947   -158019.73845  21344052.0234                   21344047.6484
        45.7504         33.5004
   -246397.89147   -182729.64545  21106724.7974                   21106718.6374
        45.7504         31.7504
    299038.93447    226336.15644  23670269.5784                   23670268.4454
        42.0004         27.5004
  -2009717.56247  -1536049.02344  22962235.4454                   22962233.2664
        42.5004         29.2504
 19  3  5 19 14 10.0000000  0  6G07G09G16G23G26G27
  -1792214.29747  -1348206.53545  21069509.7664                   21069505.3674
        46.2504         30.5004
  -1009071.71547   -743444.03946  19949674.6484                   19949672.1454
        45.7504         36.0004
   -215986.75447   -158641.91045  21343900.2664                   21343895.3014
        45.7504         33.2504
   -247726.98847   -183765.31245  21106471.9924                   21106465.3594
        45.5004         30.5004
    304195.86347    230354.53544  23671250.7114                   23671249.9414
        42.0004         26.5004
  -2033232.72747  -1554372.51644  22957760.7194                   22957758.4384
        42.0004         29.5004
 19  3  5 19 14 15.0000000  0  6G07G09G16G23G26G27
   -237398.34447   -136661.64145  21365381.6724                   21365376.8484
        46.2504         30.5004
    555925.38747    476034.22346  20247483.6884                   20247481.2704
        45.7504         36.0004
   1358671.91447   1068364.84445  21643547.9384                   21643543.0634
        45.7504         34.0004
   1326398.42247   1042825.91445  21406017.5864                   21406011.0204
        45.5004         31.5004
   1884800.25846   1461994.32444  23972029.5634                   23972029.0664
        41.2504         27.0004
   -481288.13347   -345065.03944  23253085.5944                   23253083.9104
        42.2504         29.2504
 19  3  5 19 14 20.0000000  0  6G07G09G16G23G26G27
   -257976.54347   -152696.59845  21361465.8284                   21361460.9184
        46.2504         30.2504
    545537.02347    467939.39845  20245506.5864                   20245504.2934
        45.7504         35.7504
   1357946.88747   1067799.87945  21643410.0164                   21643404.6564
        45.7504         33.7504
   1325137.23447   1041843.17245  21405777.7344                   21405771.3984
        45.7504         31.0004
   1890013.60546   1466056.66444  23973021.7664                   23973020.9184
        41.2504         26.7504
   -504733.77747   -363334.36744  23248624.1024                   23248622.3754
        42.5004         28.5004
 19  3  5 19 14 25.0000000  0  6G07G09G16G23G26G27
   -278524.98447   -168708.36745  21357555.5394                   21357550.8984
        46.2504         30.7504
    535185.07047    459872.93846  20243536.9224                   20243534.4344
        45.7504         36.0004
   1357258.02047   1067263.09845  21643278.6334                   21643273.7034
        45.7504         33.5004
   1323909.52747   1040886.51245  21405544.2664                   21405537.9494
        45.2504         31.5004
   1895254.61346   1470140.56344  23974019.2734                   23974018.1484
        41.7504         26.5004
   -528145.07047   -381576.93444  23244169.0234                   23244167.4964
        43.0004         29.5004
 19  3  5 19 14 30.0000000  0  6G07G09G16G23G26G27
   -299043.67247   -184696.96145  21353650.8364                   21353646.0274
        46.2504         30.5004
    524869.49647    451834.82845  20241573.6884                   20241571.4384
        45.7504         35.7504
   1356605.18847   1066754.39845  21643154.6414                   21643149.5984
        45.7504         33.7504
   1322715.22347   1039955.88745  21405316.3754                   21405310.5824
        45.5004         31.0004
   1900523.24246   1474245.98844  23975021.4454                   23975021.2274
        41.2504         27.2504
   -551522.12947   -399792.81644  23239720.5004                   23239718.9064
        42.7504         28.5004
 19  3  5 19 14 35.0000000  0  6G07G09G16G23G26G27
   -319532.78547   -200662.50045  21349751.9614                   21349747.1884
        46.5004         30.5004
    514590.24247    443825.01646  20239617.7894                   20239615.3914
        45.7504         36.2504
   1355988.32847   1066273.72745  21643037.1414                   21643032.0234
        45.7504         33.5004
   1321554.25047   1039051.21545  21405096.1804                   21405089.7034
        45.5004         31.2504
   1905819.42646   1478372.87544  23976028.9924                   23976028.8754
        41.2504         26.0004
   -574864.98447   -417982.05944  23235278.7194                   23235276.7154
        42.7504         29.2504
 19  3  5 19 14 40.0000000  0  6G07G09G16G23G26G27
   -339992.76247   -216605.33645  21345858.4694                   21345853.8054
        46.2504         30.7504
    504346.75047    435843.07445  20237668.4064                   20237666.0944
        45.5004         35.7504
   1355406.87947   1065820.64145  21642926.4924                   21642921.4264
        45.7504         33.7504
   1320426.04347   1038172.09445  21404881.4224                   21404875.2384
        45.5004         30.5004
   1911142.54746   1482520.76644  23977041.8834                   23977041.6214
        41.2504         26.7504
   -598174.17247   -436145.04744  23230842.9774                   23230841.2424
        42.5004         29.2504
 19  3  5 19 14 45.0000000  0  6G07G09G16G23G26G27
   -360423.82047   -232525.64145  21341970.9384                   21341965.8524
        46.2504         30.7504
    494138.81347    427888.83645  20235725.8444                   20235723.2274
        45.7504         35.5004
   1354860.62147   1065394.98045  21642822.7974                   21642817.7424
        45.7504         33.7504
   1319330.36747   1037318.32045  21404672.9384                   21404666.7424
        45.5004         31.0004
   1916492.45346   1486689.52044  23978060.1804                   23978059.6884
        41.5004         26.2504
   -621449.87947   -454281.96544  23226413.6174                   23226412.2734
        42.2504         29.0004
 19  3  5 19 14 50.0000000  0  6G07G09G16G23G26G27
   -380826.35547   -248423.72345  21338088.7274                   21338083.0744
        46.5004         30.2504
    483966.08247    419962.03146  20233790.4064                   20233788.0744
        45.7504         36.0004
   1354349.20747   1064996.47345  21642725.1954                   21642720.1484
        45.7504         33.7504
   1318266.92247   1036489.65245  21404470.2424                   21404464.0984
        45.2504         30.7504
   1921868.75846   1490878.83644  23979083.2584                   23979082.3444
        41.2504         25.7504
   -644692.44947   -472393.05944  23221991.2114                   23221988.8404
        42.5004         29.2504
 19  3  5 19 14 55.0000000  0  6G07G09G16G23G26G27
   -401200.64547   -264299.79345  21334211.0004                   21334206.3594
        46.2504         31.0004
    473828.24247    412062.41046  20231861.3134                   20231858.4574
        45.7504         36.0004
   1353872.29347   1064624.84845  21642634.3364                   21642629.4844
        45.7504         33.5004
   1317235.33647   1035685.82445  21404274.0234                   21404267.5234
        45.5004         31.0004
   1927271.10246   1495088.45744  23980111.2584                   23980111.0274
        41.5004         27.0004
   -667902.15647   -490478.55144  23217574.0474                   23217572.4654
        42.7504         29.5004
 19  3  5 19 15  0.0000000  0  6G07G09G16G23G26G27
   -421546.56247   -280153.76245  21330339.3444                   21330334.5554
        46.2504         30.7504
    463725.42247    404190.08645  20229938.4304                   20229936.0204
        45.7504         35.5004
   1353430.03147   1064280.23045  21642550.4614                   21642545.6524
        45.7504         34.0004
   1316235.77747   1034906.93445  21404084.0314                   21404077.7544
        45.5004         31.0004
   1932699.66846   1499318.50444  23981144.3204                   23981143.6564
        41.2504         26.7504
   -691078.91847   -508538.34444  23213164.0554                   23213161.5864
        42.7504         28.7504
 19  3  5 19 15  5.0000000  0  6G07G09G16G23G26G27
   -441864.24647   -295985.71545  21326473.4144                   21326468.5394
        46.5004         30.5004
    453657.50847    396344.94945  20228022.8594                   20228020.2344
        45.7504         35.7504
   1353022.25447   1063962.47745  21642472.6724                   21642467.7934
        45.7504         33.5004
   1315268.05547   1034152.87145  21403899.9304                   21403893.5354
        45.5004         30.7504
   1938154.24246   1503568.81344  23982182.5004                   23982181.8714
        41.2504         26.5004
   -714222.83247   -526572.58244  23208759.9064                   23208758.0984
        43.0004         29.7504
 19  3  5 19 15 10.0000000  0  6G07G09G16G23G26G27
   -462153.82447   -311795.78545  21322612.2194                   21322607.5004
        46.2504         31.0004
    443624.30547    388526.87145  20226113.2274                   20226110.9694
        45.7504         35.7504
   1352648.80147   1063671.46945  21642401.7814                   21642396.6214
        45.7504         33.2504
   1314332.03947   1033423.50045  21403721.5864                   21403715.2304
        45.5004         31.0004
   1943634.68846   1507839.28544  23983224.8914                   23983224.5664
        41.5004         26.7504
   -737334.02747   -544581.28544  23204361.5554                   23204360.5394
        43.0004         29.0004
 19  3  5 19 15 15.0000000  0  6G07G09G16G23G26G27
   -482415.33247   -327583.96945  21318756.4694                   21318751.8134
        46.5004         31.0004
    433625.81647    380735.84446  20224210.8134                   20224208.0204
        46.0004         36.0004
   1352309.61747   1063407.17245  21642337.0164                   21642331.9304
        46.0004         34.0004
   1313427.68047   1032718.79745  21403549.8054                   21403543.5084
        45.5004         31.2504
   1949140.96946   1512129.89144  23984273.1024                   23984272.4804
        41.2504         26.7504
   -760412.52747   -562564.53545  23199969.6094                   23199968.0204
        43.0004         30.0004
 19  3  5 19 15 20.0000000  0  6G07G09G16G23G26G27
   -502649.41047   -343350.78545  21314905.7894                   21314901.1564
        46.2504         30.5004
    423661.44547    372971.39546  20222314.6024                   20222312.0704
        45.7504         36.0004
   1352004.11747   1063169.10945  21642279.1484                   21642274.1134
        45.7504         33.5004
   1312554.42247   1032038.34045  21403383.9064                   21403377.3164
        45.5004         30.7504
   1954672.44946   1516440.12144  23985326.0314                   23985324.8794
        41.7504         26.0004
   -783458.93447   -580522.77044  23195583.9144                   23195582.5004
        42.7504         29.7504
 19  3  5 19 15 25.0000000  0  6G07G09G16G23G26G27
   -522855.90647   -359096.09845  21311061.0084                   21311055.9844
        46.2504         31.0004
    413731.29747    365233.61746  20220424.8674                   20220422.3594
        45.7504         36.0004
   1351732.39147   1062957.37945  21642227.4064                   21642222.5204
        45.7504         34.0004
   1311712.33647   1031382.16045  21403222.7974                   21403216.8324
        45.2504         31.0004
   1960229.25846   1520770.11344  23986383.6644                   23986382.6914
        41.7504         24.7504
   -806473.07447   -598455.87144  23191204.7894                   23191203.2424
        42.7504         29.5004
 19  3  5 19 15 30.0000000  0  6G07G09G16G23G26G27
   -543035.16447   -374820.20745  21307220.7814                   21307216.2424
        46.2504         31.5004
    403834.99247    357522.20746  20218541.5084                   20218539.0164
        45.7504         36.0004
   1351494.06347   1062771.66045  21642182.0164                   21642176.8244
        45.7504         33.7504
   1310900.98847   1030749.93845  21403068.9924                   21403062.6214
        45.5004         30.7504
   1965811.02046   1525119.53144  23987445.5474                   23987444.4144
        41.5004         26.0004
   -829455.34447   -616364.13344  23186831.9454                   23186830.2734
        42.5004         29.7504
 19  3  5 19 15 35.0000000  0  6G07G09G16G23G26G27
   -563187.53947   -390523.34845  21303386.5314                   21303381.7034
        46.5004         31.5004
    393972.24247    349836.94946  20216664.8674                   20216662.2934
        45.7504         36.0004
   1351288.91047   1062611.80145  21642142.9924                   21642138.0164
        46.0004         33.7504
   1310120.21947   1030141.54345  21402920.4224                   21402913.7034
        45.5004         31.2504
   1971417.41046   1529488.14544  23988512.6564                   23988511.5554
        41.5004         26.0004
   -852406.01247   -634247.75844  23182464.5234                   23182462.3984
        43.0004         29.7504
 19  3  5 19 15 40.0000000  0  6G07G09G16G23G26G27
   -583313.05547   -406205.57045  21299556.0314                   21299551.5904
        46.2504         30.7504
    384143.05147    342177.83645  20214794.5234                   20214791.8914
        45.7504         35.5004
   1351116.74247   1062477.63745  21642109.8524                   21642105.1174
        45.7504         33.5004
   1309369.87547   1029556.86345  21402777.0234                   21402770.9224
        45.5004         30.7504
   1977048.37946   1533875.90644  23989584.2664                   23989583.2424
        41.5004         25.7504
   -875325.10547   -652106.80544  23178102.2344                   23178101.2344
        42.5004         29.7504
 19  3  5 19 15 45.0000000  0  6G07G09G16G23G26G27
   -603411.72747   -421866.87945  21295731.4844                   21295726.5944
        46.2504         31.0004
    374347.34847    334544.82046  20212930.4844                   20212927.7704
        45.7504         36.0004
   1350977.55547   1062369.18445  21642083.5164                   21642078.7774
        45.7504         33.5004
   1308649.98047   1028995.89845  21402640.8134                   21402634.0164
        45.5004         31.0004
   1982703.88346   1538282.78544  23990660.6334                   23990659.3014
        41.5004         25.5004
   -898212.62947   -669941.22344  23173747.5084                   23173745.6564
        42.5004         29.5004
 19  3  5 19 15 50.0000000  0  6G07G09G16G23G26G27
   -623483.56647   -437507.27345  21291912.1334                   21291907.3754
        46.2504         31.0004
    364585.07847    326937.85245  20211072.9144                   20211070.4064
        45.5004         35.7504
   1350871.30547   1062286.38745  21642063.3134                   21642058.4304
        45.5004         33.5004
   1307960.56647   1028458.69145  21402509.0004                   21402502.7854
        45.2504         30.5004
   1988383.87946   1542708.75044  23991741.1024                   23991739.9344
        41.5004         26.7504
   -921068.63747   -687751.10544  23169398.1484                   23169396.4574
        42.5004         29.2504
 19  3  5 19 15 55.0000000  0  6G07G09G16G23G26G27
   -643528.27347   -453126.52345  21288097.3364                   21288093.1254
        46.2504         30.7504
    354856.62547    319357.24645  20209221.2664                   20209218.7584
        45.5004         35.5004
   1350798.27347   1062229.47745  21642049.3524                   21642044.4024
        45.5004         33.5004
   1307301.85947   1027945.41845  21402383.9304                   21402377.5664
        45.5004         30.7504
   1994088.71546   1547154.07444  23992826.1564                   23992825.5744
        41.5004         25.5004
   -943892.74647   -705536.11344  23165054.7274                   23165053.0704
        42.5004         28.7504
 19  3  5 19 16  0.0000000  0  6G07G09G16G23G26G27
   -663546.37147   -468725.03545  21284288.8054                   21284283.7624
        46.2504         30.5004
    345161.38747    311802.51246  20207376.4534                   20207374.2584
        45.5004         36.0004
   1350757.93847   1062198.03545  21642042.0554                   21642037.2734
        45.7504         33.5004
   1306673.30147   1027455.62145  21402264.5944                   21402258.0904
        45.2504         31.2504
   1999817.75446   1551618.26644  23993916.8594                   23993915.4494
        41.0004         26.0004
   -966685.55547   -723296.75044  23160717.3594                   23160715.4414
        42.5004         29.0004
 19  3  5 19 16  5.0000000  0  6G07G09G16G23G26G27
   -683538.43047   -484303.26245  21280483.8984                   21280479.0784
        46.2504         30.7504
    335498.78947    304273.21146  20205538.1414                   20205535.4344
        45.5004         36.0004
   1350749.64547   1062191.56645  21642039.9694                   21642035.8244
        45.7504         33.5004
   1306074.24247   1026988.81645  21402149.7664                   21402144.2384
        45.2504         31.0004
   2005570.42646   1556100.86344  23995011.2974                   23995010.5084
        41.2504         26.7504
   -989447.62947   -741033.42245  23156386.0634                   23156384.6564
        42.5004         30.0004
 19  3  5 19 16 10.0000000  0  6G07G09G16G23G26G27
   -703504.26247   -499861.05945  21276684.6804                   21276680.0044
        46.2504         30.7504
    325869.07447    296769.53145  20203705.2814                   20203703.0984
        45.5004         35.7504
   1350773.66447   1062210.28945  21642045.0864                   21642039.6334
        45.5004         33.5004
   1305504.93447   1026545.20345  21402041.6564                   21402035.6954
        45.2504         30.7504
   2011346.94546   1560602.04344  23996110.4144                   23996109.8284
        41.2504         27.0004
  -1012178.67647   -758745.92644  23152060.4454                   23152058.5474
        42.2504         29.2504
 19  3  5 19 16 15.0000000  0  6G07G09G16G23G26G27
   -723444.27047   -515398.72345  21272890.2974                   21272885.5084
        46.2504         31.0004
    316271.80947    289291.14545  20201878.7584                   20201876.4454
        45.5004         35.5004
   1350829.55947   1062253.84445  21642055.7814                   21642050.7154
        45.5004         33.5004
   1304964.96947   1026124.44145  21401939.5554                   21401933.0474
        45.5004         30.5004
   2017146.89146   1565121.48044  23997213.2974                   23997213.1604
        41.2504         25.7504
  -1034879.14147   -776434.59844  23147740.8754                   23147739.4884
        42.7504         29.5004
 19  3  5 19 16 20.0000000  0  6G07G09G16G23G26G27
   -743358.80147   -530916.54745  21269100.2814                   21269095.8444
        46.2504         30.2504
    306706.67247    281837.79345  20200059.1024                   20200056.2624
        45.5004         35.5004
   1350916.98847   1062321.95745  21642072.0084                   21642067.3404
        45.7504         33.7504
   1304454.01247   1025726.29345  21401842.2114                   21401836.3094
        45.2504         31.0004
   2022969.91046   1569658.88744  23998321.9534                   23998321.4454
        41.0004         26.0004
  -1057549.37147   -794099.70344  23143426.9774                   23143425.1024
        42.2504         29.7504
 19  3  5 19 16 25.0000000  0  6G07G09G16G23G26G27
   -763247.88747   -546414.53145  21265315.7584                   21265311.3324
        46.2504         30.7504
    297173.57847    274409.40246  20198244.9144                   20198242.0944
        45.7504         36.0004
   1351035.85547   1062414.58245  21642095.0784                   21642090.0784
        45.7504         33.5004
   1303971.95347   1025350.65645  21401750.0164                   21401743.8554
        45.2504         31.2504
   2028815.94546   1574214.24244  23999434.8524                   23999434.1214
        41.0004         27.0004
  -1080189.35547   -811741.25844  23139118.5704                   23139116.6804
        42.5004         29.7504
 19  3  5 19 16 30.0000000  0  6G07G09G16G23G26G27
   -783111.80147   -561892.91045  21261535.8524                   21261531.4264
        46.2504         30.7504
    287672.32047    267005.82846  20196436.7664                   20196434.0904
        45.5004         36.0004
   1351185.91847   1062531.50845  21642123.1884                   21642118.3204
        45.7504         33.7504
   1303518.57847   1024997.37545  21401664.0634                   21401657.8674
        45.0004         30.7504
   2034684.71146   1578787.28544  24000552.0634                   24000550.9304
        41.2504         25.0004
  -1102799.35547   -829359.43444  23134816.2894                   23134814.6334
        42.5004         29.2504
 19  3  5 19 16 35.0000000  0  6G07G09G16G23G26G27
   -802950.41047   -577351.55945  21257761.0164                   21257755.8014
        46.2504         31.2504
    278202.97747    259627.11346  20194634.7504                   20194632.3594
        45.5004         36.0004
   1351367.25047   1062672.80545  21642157.8204                   21642153.0274
        46.0004         33.2504
   1303094.01247   1024666.53945  21401582.9534                   21401577.1334
        45.0004         30.7504
   2040576.34846   1583378.17644  24001672.8364                   24001671.9774
        41.2504         25.5004
  -1125379.27347   -846954.18044  23130518.7814                   23130517.4024
        42.0004         29.0004
 19  3  5 19 16 40.0000000  0  6G07G09G16G23G26G27
   -822763.57447   -592790.39145  21253990.3524                   21253985.5944
        46.2504         30.7504
    268765.71547    252273.39845  20192838.7814                   20192836.4264
        45.7504         35.5004
   1351580.02347   1062838.59845  21642198.1094                   21642193.2894
        45.7504         33.5004
   1302698.41047   1024358.27345  21401508.0704                   21401501.7544
        45.2504         31.0004
   2046490.91846   1587986.92644  24002798.5234                   24002797.3634
        41.2504         25.5004
  -1147928.91447   -864525.30944  23126228.3834                   23126226.5354
        42.5004         29.7504
 19  3  5 19 16 45.0000000  0  6G07G09G16G23G26G27
   -842551.74647   -608209.75045  21250225.1024                   21250220.2304
        46.2504         31.0004
    259360.02347    244944.29345  20191049.0554                   20191046.5904
        45.5004         35.7504
   1351823.74647   1063028.51245  21642244.7194                   21642239.7734
        45.7504         33.7504
   1302331.24647   1024072.16845  21401437.3134                   21401431.7774
        45.0004         30.7504
   2052427.98846   1592613.20744  24003927.8834                   24003927.2194
        41.2504         26.0004
  -1170448.77347   -882073.26644  23121942.4614                   23121941.2074
        42.2504         29.7504
 19  3  5 19 16 50.0000000  0  6G07G09G16G23G26G27
   -862314.93047   -623609.62945  21246464.0554                   21246459.1954
        46.2504         30.7504
    249985.91847    237639.79745  20189265.1484                   20189262.7234
        45.5004         35.7504
   1352098.35547   1063242.49245  21642297.5784                   21642292.2304
        45.7504         33.5004
   1301992.52047   1023808.21945  21401373.8054                   21401367.8164
        45.0004         30.5004
   2058387.48046   1597256.96144  24005062.3524                   24005061.3834
        41.2504         25.5004
  -1192938.83247   -899597.96944  23117663.1414                   23117661.2384
        42.5004         29.7504
 19  3  5 19 16 55.0000000  0  6G07G09G16G23G26G27
   -882053.56647   -638990.39145  21242707.7814                   21242703.0664
        46.2504         30.7504
    240642.98847    230359.59045  20187487.2424                   20187484.9734
        45.5004         35.5004
   1352403.41447   1063480.19545  21642354.8364                   21642349.9734
        45.7504         33.2504
   1301681.82447   1023566.11345  21401314.3134                   21401308.3244
        45.0004         31.2504
   2064369.04746   1601917.92244  24006200.8594                   24006199.3094
        41.2504         26.0004
  -1215399.50847   -917099.80144  23113388.5474                   23113387.0984
        43.0004         29.7504
 19  3  5 19 17  0.0000000  0  6G07G09G16G23G26G27
   -901767.84447   -654352.16845  21238956.2664                   21238951.5274
        46.2504         30.5004
    231331.02347    223103.50845  20185715.1094                   20185712.8634
        45.7504         35.5004
   1352738.75047   1063741.49645  21642419.0784                   21642413.9614
        45.7504         33.5004
   1301398.98447   1023345.71545  21401261.1644                   21401254.5784
        45.5004         31.0004
   2070372.45746   1606595.91044  24007342.8754                   24007341.8524
        41.2504         26.0004
  -1237830.93047   -934578.82044  23109120.2274                   23109118.9574
        42.5004         29.2504
 19  3  5 19 17  5.0000000  0  6G07G09G16G23G26G27
   -921457.43047   -669694.65644  21235209.7424                   21235204.6644
        42.2504         24.0004
    222050.19547    215871.68445  20183949.3754                   20183946.9694
        45.5004         35.0004
   1353104.51647   1064026.50445  21642488.5314                   21642483.1914
        46.2504         33.5004
   1301144.13747   1023147.12145  21401212.6254                   21401206.0824
        45.2504         31.0004
   2076397.87146   1611291.02344  24008490.1414                   24008488.4304
        41.2504         25.7504
  -1260232.95347   -952034.94944  23104857.5004                   23104855.7974
        42.5004         29.5004
 19  3  5 19 17 10.0000000  0  6G07G09G16G23G26G27
   -941122.83246   -685018.36343  21231467.6174                   21231462.4024
        38.2504         22.0004
    212800.48847    208664.09846  20182189.1174                   20182186.7504
        46.2504         36.5004
   1353500.60547   1064335.15245  21642563.9304                   21642558.5984
        46.2504         33.5004
   1300917.10247   1022970.22345  21401168.4304                   21401163.0784
        46.0004         31.0004
   2082445.14146   1616003.16844  24009640.3364                   24009639.3364
        40.5004         25.2504
  -1282605.68046   -969468.23444  23100599.7814                   23100598.7154
        41.5004         28.5004
 19  3  5 19 17 15.0000000  0  6G07G09G16G23G26G27
   -960764.34446   -700323.40643  21227729.7734                   21227724.7624
        37.5004         20.2504
    203581.15647    201480.22745  20180434.0474                   20180432.3984
        44.2504         33.2504
   1353926.39147   1064666.93445  21642643.9694                   21642639.9414
        44.5004         32.7504
   1300717.33247   1022814.58244  21401130.5164                   21401124.9104
        44.7504         29.7504
   2088513.62146   1620731.88344  24010794.5394                   24010794.2194
        40.7504         26.5004
  -1304949.69947   -986879.13345  23096347.9614                   23096346.7074
        43.5004         30.0004
 19  3  5 19 17 20.0000000  0  6G07G09G16G23G26G27
   -980381.87547   -715609.84843  21223996.1174                   21223991.8674
        42.5004         20.0004
    194392.55147    194320.26645  20178685.4454                   20178683.4494
        45.2504         35.0004
   1354382.06647   1065021.96945  21642731.2424                   21642726.3524
        45.0004         33.2504
   1300545.07447   1022680.31345  21401097.8984                   21401092.6414
        44.7504         30.0004
   2094603.64846   1625477.33444  24011953.5164                   24011953.1884
        40.5004         24.7504
  -1327264.72746  -1004267.49644  23092101.2504                   23092100.0634
        41.2504         29.0004
 19  3  5 19 17 25.0000000  0  6G07G09G16G23G26G27
   -999975.59446   -730877.65243  21220268.1484                   21220263.5824
        38.7504         21.2504
    185234.28147    187183.95745  20176943.1334                   20176941.1374
        46.2504         35.2504
   1354867.33247   1065400.14545  21642823.7114                   21642818.7074
        45.0004         32.7504
   1300400.04347   1022567.30145  21401070.1024                   21401064.4454
        45.7504         31.0004
   2100714.78946   1630239.27044  24013117.0944                   24013116.0004
        41.7504         27.0004
  -1349551.07047  -1021633.44944  23087860.8054                   23087859.3914
        43.2504         29.2504
 19  3  5 19 17 30.0000000  0  6G07G09G16G23G26G27
  -1019545.46946   -746126.94143  21216544.1414                   21216538.6644
        41.2504         21.2504
    176106.48047    180071.36346  20175206.5634                   20175203.7464
        47.5004         36.7504
   1355382.29747   1065801.39145  21642921.8364                   21642916.7034
        45.2504         32.5004
   1300282.18847   1022475.47745  21401048.3054                   21401041.7584
        45.2504         30.2504
   2106847.15246   1635017.72744  24014284.1954                   24014282.8714
        41.7504         25.5004
  -1371808.74246  -1038977.12144  23083624.7664                   23083623.0204
        41.5004         27.5004
 19  3  5 19 17 35.0000000  0  6G07G09G16G23G26G27
  -1039091.37547   -761357.53144  21212824.1174                   21212819.2114
        45.5004         29.0004
    167009.29347    172982.69145  20173475.2114                   20173472.5044
        44.5004         34.7504
   1355927.08247   1066225.88745  21643025.1094                   21643020.0824
        45.7504         33.7504
   1300191.78147   1022405.01244  21401031.1414                   21401024.4064
        44.2504         29.2504
   2113000.87546   1639812.82044  24015454.7114                   24015453.4574
        41.2504         26.0004
  -1394037.45346  -1056298.16044  23079395.1174                   23079393.1884
        41.5004         29.2504
 19  3  5 19 17 40.0000000  0  6G07G09G16G23G26G27
  -1058613.71147   -776569.72344  21209109.3134                   21209104.4844
        45.0004         27.5004
    157942.20747    165917.41045  20171749.4454                   20171746.8714
        44.5004         34.5004
   1356501.13747   1066673.20745  21643134.4144                   21643129.3914
        44.2504         31.5004
   1300128.27047   1022355.50844  21401018.3834                   21401012.0084
        44.2504         28.2504
   2119175.46546   1644624.21544  24016629.1484                   24016628.4454
        40.0004         25.0004
  -1416237.69146  -1073597.04744  23075170.2274                   23075168.6054
        41.7504         29.0004
 19  3  5 19 17 45.0000000  0  6G07G09G16G23G26G27
  -1078112.50846   -791763.52743  21205399.2344                   21205394.1684
        41.2504         21.2504
    148905.21947    158875.58245  20170029.8524                   20170027.5164
        46.0004         35.0004
   1357104.45747   1067143.32845  21643248.8914                   21643244.3484
        45.0004         32.0004
   1300091.65647   1022327.00045  21401011.8754                   21401005.0394
        45.0004         30.0004
   2125370.91846   1649451.83643  24017808.1334                   24017807.0904
        40.2504         23.0004
  -1438409.50047  -1090873.81244  23070951.2814                   23070949.5434
        42.0004         29.5004
 19  3  5 19 17 50.0000000  0  6G07G09G16G23G26G27
  -1097587.60946   -806938.91843  21201692.9774                   21201687.6294
        37.5004         20.0004
    139898.42247    151857.31645  20168316.1094                   20168313.5984
        45.7504         34.5004
   1357737.17247   1067636.32845  21643369.4614                   21643364.8364
        45.2504         31.7504
   1300082.06647   1022319.51245  21401009.7734                   21401003.0314
        44.7504         30.5004
   2131587.30546   1654295.73844  24018991.8284                   24018990.5664
        40.5004         25.5004
  -1460552.69946  -1108128.23444  23066737.7974                   23066735.5864
        41.5004         28.5004
 19  3  5 19 17 55.0000000  0  6G07G09G16G23G26G27
  -1117039.94946   -822096.68443  21197991.5004                   21197986.2344
        41.5004         22.5004
    130921.33247    144862.17646  20166607.8914                   20166605.4534
        46.2504         36.0004
   1358398.57047   1068151.73045  21643495.7034                   21643490.8324
        44.7504         31.2504
   1300098.87147   1022332.60544  21401013.0314                   21401006.8754
        44.5004         29.5004
   2137824.05946   1659155.57044  24020178.3524                   24020177.4454
        40.2504         24.5004
  -1482667.89847  -1125360.84044  23062529.4924                   23062527.1484
        42.0004         28.5004
 19  3  5 19 18  0.0000000  0  6G07G09G16G23G26G27
  -1136468.86747   -837236.07844  21194294.2194                   21194289.2974
        44.7504         28.2504
    121974.11747    137890.32445  20164905.3444                   20164902.2814
        45.0004         35.2504
   1359089.04747   1068689.75845  21643626.8674                   21643621.6994
        44.7504         31.5004
   1300142.30947   1022366.45344  21401021.6564                   21401015.2934
        44.5004         29.0004
   2144081.37946   1664031.41844  24021368.4454                   24021367.9694
        40.5004         27.0004
  -1504754.86347  -1142571.46944  23058326.3754                   23058324.2304
        42.2504         28.7504
 19  3  5 19 18  5.0000000  0  6G07G09G16G23G26G27
  -1155875.32847   -852357.98844  21190600.8284                   21190596.0784
        44.5004         27.0004
    113055.95347    130941.10245  20163207.9224                   20163205.3204
        45.5004         35.5004
   1359807.69547   1069249.75845  21643763.6644                   21643758.8634
        44.5004         31.7504
   1300211.62947   1022420.46544  21401034.7894                   21401028.0594
        43.2504         27.5004
   2150358.46946   1668922.65644  24022563.4304                   24022562.2504
        40.2504         24.5004
  -1526814.33647  -1159760.64844  23054128.4924                   23054126.4224
        42.0004         28.2504
 19  3  5 19 18 10.0000000  0  6G07G09G16G23G26G27
  -1175258.81247   -867462.00844  21186912.5944                   21186907.3484
        44.5004         26.5004
    104167.32047    124014.89145  20161516.5314                   20161513.9964
        45.2504         35.5004
   1360554.99647   1069832.06645  21643905.7584                   21643900.8054
        44.5004         31.0004
   1300307.19947   1022494.92644  21401052.3444                   21401045.8444
        43.2504         27.5004
   2156655.77046   1673829.62544  24023761.9304                   24023761.3324
        40.5004         25.7504
  -1548845.87946  -1176928.08244  23049936.3284                   23049934.5124
        41.5004         28.0004
 19  3  5 19 18 15.0000000  0  6G07G09G16G23G26G27
  -1194619.71547   -882548.41044  21183228.4224                   21183223.3714
        44.2504         27.2504
     95307.87547    117111.43045  20159830.5944                   20159828.2154
        44.5004         34.5004
   1361330.60547   1070436.43445  21644053.3754                   21644048.7274
        44.0004         30.5004
   1300428.75447   1022589.64844  21401075.3984                   21401069.7384
        43.7504         28.5004
   2162972.95746   1678752.10544  24024963.1724                   24024963.3754
        39.7504         24.2504
  -1570849.81247  -1194074.00844  23045748.4144                   23045746.8954
        42.0004         28.0004
 19  3  5 19 18 20.0000000  0  6G07G09G16G23G26G27
  -1213958.58247   -897617.66844  21179547.9614                   21179543.4144
        45.2504         28.5004
     86477.06647    110230.28945  20158150.4454                   20158147.7774
        44.5004         34.2504
   1362133.89547   1071062.35945  21644206.3914                   21644201.7114
        44.5004         31.5004
   1300575.62147   1022704.09844  21401103.3284                   21401097.4964
        43.7504         29.5004
   2169309.36746   1683689.52744  24026169.3444                   24026169.3484
        40.0004         24.7504
  -1592826.70747  -1211198.85244  23041566.6484                   23041565.0944
        42.0004         28.0004
 19  3  5 19 18 25.0000000  0  6G07G09G16G23G26G27
  -1233274.87947   -912669.33244  21175871.8674                   21175867.6844
        44.5004         28.0004
     77675.40647    103371.84445  20156475.4924                   20156473.0044
        45.0004         34.5004
   1362965.37547   1071710.27045  21644364.5474                   21644360.1954
        44.0004         31.0004
   1300748.45347   1022838.75444  21401136.2504                   21401130.7464
        43.5004         28.5004
   2175665.60246   1688642.43844  24027379.5784                   24027378.4694
        40.0004         24.2504
  -1614775.98447  -1228302.19144  23037389.7894                   23037387.8404
        42.0004         28.5004
 19  3  5 19 18 30.0000000  0  6G07G09G16G23G26G27
  -1252568.77047   -927703.52044  21172200.6094                   21172196.0164
        44.5004         28.7504
     68902.67247     96535.96945  20154805.8984                   20154803.5004
        44.2504         33.5004
   1363824.89847   1072380.02045  21644528.0234                   21644523.3054
        44.0004         31.0004
   1300946.91047   1022993.39144  21401174.3284                   21401168.2624
        44.5004         29.5004
   2182041.40646   1693610.61344  24028592.4454                   24028591.8594
        40.0004         24.5004
  -1636697.89146  -1245384.19144  23033217.7194                   23033216.2624
        41.0004         29.0004
 19  3  5 19 18 35.0000000  0  6G07G09G16G23G26G27
  -1271840.26647   -942720.27744  21168533.4924                   21168528.8204
        45.5004         28.2504
     60159.02047     89722.71945  20153142.1564                   20153139.7384
        45.0004         34.2504
   1364712.48047   1073071.63745  21644697.3914                   21644692.3984
        44.7504         31.5004
   1301171.16847   1023168.13345  21401217.0704                   21401210.7074
        45.0004         30.0004
   2188436.85246   1698594.05144  24029810.3834                   24029809.1884
        41.2504         25.5004
  -1658592.25447  -1262444.73444  23029052.0554                   23029050.1994
        42.2504         28.2504
 19  3  5 19 18 40.0000000  0  6G07G09G16G23G26G27
  -1291089.55547   -957719.69143  21164870.6414                   21164865.9694
        44.0004         23.5004
     51444.15647     82931.94545  20151483.9224                   20151481.3094
        45.5004         32.0004
   1365627.87947   1073784.96944  21644871.2114                   21644866.5124
        44.5004         28.2504
   1301420.96947   1023362.80144  21401265.2344                   21401258.3954
        43.7504         26.5004
   2194851.70346   1703592.68443  24031030.7274                   24031029.6954
        40.7504         23.0004
  -1680459.35947  -1279484.01244  23024891.2344                   23024888.7704
        42.5004         25.7504
 19  3  5 19 18 45.0000000  0  6G07G09G16G23G26G27
  -1310316.66047   -972701.85543  21161211.6804                   21161206.9884
        44.5004         22.7504
     42758.02747     76163.52045  20149830.8984                   20149828.2854
        45.2504         32.2504
   1366571.00047   1074519.85944  21645051.2194                   21645045.7274
        44.7504         28.7504
   1301696.22747   1023577.27744  21401317.0164                   21401310.8954
        43.7504         26.0004
   2201285.88346   1708606.31643  24032254.9384                   24032253.9024
        41.0004         22.5004
  -1702299.24647  -1296502.10944  23020734.2034                   23020732.6954
        42.2504         24.0004
 19  3  5 19 18 50.0000000  0  6G07G09G16G23G26G27
  -1329521.82047   -987666.93444  21157556.9534                   21157552.5274
        43.2504         25.2504
     34100.37947     69417.28945  20148183.1334                   20148180.7464
        45.5004         33.7504
   1367541.63347   1075276.18445  21645235.2894                   21645230.6254
        44.5004         30.5004
   1301996.69547   1023811.38744  21401373.5314                   21401368.5274
        44.0004         28.5004
   2207739.13746   1713634.79343  24033482.5634                   24033481.8794
        40.0004         22.0004
  -1724112.12547  -1313499.16444  23016583.8594                   23016582.0784
        42.0004         27.0004
 19  3  5 19 18 55.0000000  0  6G07G09G16G23G26G27
  -1348704.97347  -1002614.83644  21153906.4924                   21153902.2034
        43.7504         25.5004
     25471.30547     62693.34845  20146541.5704                   20146539.0784
        44.7504         33.0004
   1368539.88347   1076054.03545  21645425.4384                   21645420.1724
        44.5004         30.7504
   1302322.47347   1024065.23044  21401436.2344                   21401430.0594
        44.5004         28.7504
   2214211.53946   1718678.24243  24034714.6414                   24034713.8444
        40.7504         22.7504
  -1745897.91447  -1330475.09444  23012438.5634                   23012436.4104
        42.2504         27.7504
 19  3  5 19 19  0.0000000  0  6G07G09G16G23G26G27
  -1367866.27347  -1017545.72344  21150260.2814                   21150255.8714
        44.0004         26.7504
     16870.70747     55991.56645  20144904.5234                   20144902.3594
        45.0004         33.0004
   1369565.49247   1076853.19945  21645620.7034                   21645615.8674
        44.5004         31.2504
   1302673.40247   1024338.66444  21401503.4534                   21401496.9804
        44.7504         29.0004
   2220702.91446   1723736.44543  24035950.0084                   24035948.9574
        41.0004         23.5004
  -1767656.73847  -1347430.02744  23008298.0084                   23008295.6994
        42.5004         28.0004
 19  3  5 19 19  5.0000000  0  6G07G09G16G23G26G27
  -1387005.75047  -1032459.58644  21146618.0164                   21146613.4654
        44.2504         26.2504
      8298.48047     49311.92245  20143273.6484                   20143271.5164
        45.0004         32.5004
   1370618.47347   1077673.71145  21645821.1644                   21645816.2704
        45.0004         30.2504
   1303049.39147   1024631.67244  21401574.9304                   21401568.5004
        45.0004         28.0004
   2227213.26246   1728809.44944  24037188.6334                   24037188.1134
        41.0004         25.5004
  -1789388.62947  -1364363.96944  23004162.1564                   23004160.4264
        42.5004         28.0004
 19  3  5 19 19 10.0000000  0  6G07G09G16G23G26G27
  -1406123.37947  -1047356.43744  21142980.1334                   21142975.7074
        44.5004         26.7504
      -245.28547     42654.44545  20141647.6804                   20141645.2384
        45.7504         32.5004
   1371698.80947   1078515.53145  21646026.6094                   21646021.8834
        45.0004         30.2504
   1303450.51647   1024944.21144  21401650.5704                   21401645.3954
        44.2504         28.2504
   2233742.57846   1733897.23044  24038431.0004                   24038430.5004
        41.0004         24.0004
  -1811093.53547  -1381276.85944  23000032.0234                   23000030.0984
        42.0004         28.2504
 19  3  5 19 19 15.0000000  0  6G07G09G16G23G26G27
  -1425219.54747  -1062236.55944  21139346.4224                   21139341.7584
        44.2504         26.2504
     -8761.01647     36018.80545  20140026.9384                   20140025.1024
        45.5004         32.5004
   1372806.10947   1079378.35945  21646237.3524                   21646232.6054
        44.7504         30.0004
   1303876.35547   1025276.05944  21401732.1334                   21401725.8094
        43.7504         27.5004
   2240290.40246   1738999.41443  24039677.2114                   24039676.6254
        41.0004         23.7504
  -1832771.84847  -1398169.08244  22995906.0314                   22995905.2304
        42.7504         28.2504
 19  3  5 19 19 20.0000000  0  6G07G09G16G23G26G27
  -1444294.08647  -1077099.84444  21135716.5704                   21135711.9184
        44.5004         26.0004
    -17248.55947     29405.14145  20138412.0004                   20138409.6174
        45.5004         32.5004
   1373940.53147   1080262.31644  21646453.2974                   21646448.6764
        44.7504         29.5004
   1304327.05947   1025627.23444  21401817.6334                   21401811.3054
        44.0004         28.2504
   2246856.96546   1744116.21143  24040926.9844                   24040925.9804
        41.5004         22.5004
  -1854423.39147  -1415040.38744  22991786.8754                   22991784.9734
        42.2504         27.5004
 19  3  5 19 19 25.0000000  0  6G07G09G16G23G26G27
  -1463346.71947  -1091946.04744  21132090.9924                   21132086.5704
        43.7504         26.0004
    -25707.67247     22813.61345  20136801.8984                   20136799.7734
        45.0004         32.5004
   1375102.28947   1081167.59044  21646674.2664                   21646669.2034
        44.2504         29.2504
   1304802.86747   1025997.98044  21401908.6414                   21401902.2584
        44.0004         28.5004
   2253442.41046   1749247.73843  24042179.9454                   24042179.2584
        40.7504         23.0004
  -1876047.94547  -1431890.70344  22987671.5234                   22987669.4884
        42.5004         28.0004
 19  3  5 19 19 30.0000000  0  6G07G09G16G23G26G27
  -1482377.59447  -1106775.30144  21128469.3204                   21128464.9454
        44.7504         26.0004
    -34138.43447     16244.19145  20135197.9304                   20135195.5864
        46.0004         32.0004
   1376291.27347   1082094.06644  21646900.3914                   21646895.6374
        45.0004         29.2504
   1305303.69147   1026388.23844  21402003.6484                   21401997.8914
        44.7504         27.7504
   2260046.71946   1754393.93443  24043436.6334                   24043435.6884
        41.5004         23.5004
  -1897645.53147  -1448719.98444  22983562.1564                   22983559.6024
        43.0004         27.5004
 19  3  5 19 19 35.0000000  0  6G07G09G16G23G26G27
  -1501387.23047  -1121588.02744  21124852.0314                   21124847.6604
        44.0004         27.7504
    -42541.45747      9696.36745  20133598.9534                   20133596.7774
        45.0004         33.7504
   1377506.90647   1083041.30545  21647131.6884                   21647127.4734
        44.5004         31.0004
   1305828.93047   1026797.48444  21402103.0474                   21402096.9694
        44.0004         29.0004
   2266669.20746   1759554.30944  24044696.6804                   24044695.7424
        40.5004         24.5004
  -1919216.76647  -1465528.73844  22979456.4694                   22979455.1764
        42.5004         28.7504
 19  3  5 19 19 40.0000000  0  6G07G09G16G23G26G27
  -1520375.69147  -1136384.20744  21121238.8594                   21121234.4344
        44.0004         26.7504
    -50916.74647      3170.18845  20132005.2894                   20132002.8594
        44.7504         33.0004
   1378749.14547   1084009.29344  21647368.3914                   21647363.3834
        44.2504         29.5004
   1306378.46147   1027225.71944  21402207.8594                   21402201.9964
        44.0004         28.5004
   2273309.90246   1764728.87143  24045960.3754                   24045959.4104
        41.0004         22.7504
  -1940761.66446  -1482316.95744  22975357.0084                   22975354.9884
        41.7504         28.0004
 19  3  5 19 19 45.0000000  0  6G07G09G16G23G26G27
  -1539343.09447  -1151163.98844  21117629.3524                   21117625.0744
        44.0004         26.2504
    -59264.35947     -3334.46145  20130416.5394                   20130414.6804
        45.0004         32.5004
   1380017.88747   1084997.91045  21647609.5704                   21647604.6484
        44.0004         30.0004
   1306952.33247   1027672.90244  21402317.5084                   21402311.5824
        43.7504         28.5004
   2279968.68046   1769917.53143  24047227.8594                   24047227.0124
        40.5004         23.7504
  -1962280.26647  -1499084.70344  22971261.7664                   22971260.3054
        42.5004         28.5004
 19  3  5 19 19 50.0000000  0  6G07G09G16G23G26G27
  -1558289.33247  -1165927.31244  21114023.8674                   21114019.6724
        43.7504         26.0004
    -67584.28547     -9817.51645  20128833.3674                   20128831.0164
        45.0004         33.0004
   1381313.30547   1086007.33245  21647856.4844                   21647851.0944
        44.2504         30.5004
   1307550.59847   1028139.03144  21402431.4924                   21402425.3834
        44.5004         28.7504
   2286645.67146   1775120.37743  24048498.6884                   24048498.0554
        40.7504         23.7504
  -1983772.50847  -1515831.89844  22967171.9454                   22967170.6644
        42.0004         29.0004
 19  3  5 19 19 55.0000000  0  6G07G09G16G23G26G27
  -1577214.66447  -1180674.32444  21110422.7504                   21110418.3014
        44.0004         24.0004
    -75876.69147    -16279.14145  20127255.3674                   20127253.2584
        45.2504         32.7504
   1382634.99247   1087037.21944  21648107.6254                   21648102.4574
        44.7504         29.7504
   1308172.93447   1028624.00044  21402549.2974                   21402543.4774
        44.5004         28.5004
   2293340.44946   1780337.08244  24049772.0554                   24049771.5784
        40.7504         24.5004
  -2005238.62547  -1532558.74644  22963087.0164                   22963085.1684
        42.5004         27.5004
 19  3  5 19 20  0.0000000  0  6G07G09G16G23G26G27
  -1596119.03147  -1195405.00844  21106825.8984                   21106820.4384
        44.2504         25.2504
    -84141.63747    -22719.34845  20125683.0234                   20125679.9844
        45.7504         33.0004
   1383982.96147   1088087.58245  21648364.7894                   21648359.2424
        45.2504         30.7504
   1308819.45347   1029127.75044  21402673.2034                   21402666.3054
        45.5004         29.2504
   2300053.22346   1785567.80544  24051049.3594                   24051048.9614
        40.5004         24.5004
  -2026678.55547  -1549265.17644  22959007.7894                   22959005.6564
        43.2504         29.7504
 19  3  5 19 20  5.0000000  0  6G07G09G16G23G26G27
  -1615002.87547  -1210119.68444  21103232.1954                   21103227.0434
        44.2504         27.5004
    -92379.43447    -29138.41845  20124115.0084                   20124112.6454
        45.5004         33.2504
   1385356.85547   1089158.15245  21648626.0944                   21648620.1214
        45.2504         31.0004
   1309489.70747   1029650.03544  21402800.1644                   21402793.8984
        44.7504         29.5004
   2306783.49246   1790812.16843  24052330.1334                   24052329.3444
        40.7504         22.2504
  -2048092.69147  -1565951.51244  22954932.5554                   22954930.6954
        43.5004         29.7504
 19  3  5 19 20 10.0000000  0  6G07G09G16G23G26G27
  -1633866.07047  -1224818.29344  21099642.2114                   21099638.1374
        44.0004         25.2504
   -100590.03947    -35536.28545  20122552.6884                   20122550.2464
        45.5004         33.0004
   1386756.71147   1090248.94144  21648891.9844                   21648887.1764
        45.2504         29.2504
   1310183.77047   1030190.86344  21402932.1644                   21402926.0864
        45.0004         28.7504
   2313531.31346   1796070.20743  24053614.3984                   24053613.9184
        41.0004         22.7504
  -2069480.93047  -1582617.68044  22950862.3524                   22950860.5474
        42.5004         28.0004
 19  3  5 19 20 15.0000000  0  6G07G09G16G23G26G27
  -1652708.84047  -1239500.94544  21096056.7734                   21096051.7034
        45.2504         27.2504
   -108773.66847    -41913.13345  20120995.2814                   20120993.0864
        44.5004         31.7504
   1388182.31647   1091359.80944  21649163.3984                   21649158.0314
        43.7504         29.0004
   1310901.46147   1030750.10944  21403068.4774                   21403062.7774
        44.2504         27.2504
   2320296.49646   1801341.76243  24054902.0164                   24054901.3244
        40.5004         22.5004
  -2090843.52346  -1599263.85944  22946796.9384                   22946795.3204
        41.5004         27.0004
 19  3  5 19 20 20.0000000  0  6G07G09G16G23G26G27
  -1671531.21947  -1254167.73044  21092475.1414                   21092470.3204
        44.7504         28.0004
   -116930.37547    -48269.01245  20119443.3754                   20119440.8054
        44.5004         32.2504
   1389633.58247   1092490.66844  21649439.2894                   21649434.6454
        44.0004         28.7504
   1311642.65647   1031327.68444  21403210.3594                   21403203.7544
        45.2504         27.5004
   2327078.97346   1806626.79343  24056192.6254                   24056191.6294
        40.5004         22.7504
  -2112180.45347  -1615890.03544  22942736.4384                   22942734.9654
        42.0004         27.7504
 19  3  5 19 20 25.0000000  0  6G07G09G16G23G26G27
  -1690333.14147  -1268818.57844  21088896.7344                   21088892.0084
        44.7504         27.7504
   -125060.09047    -54603.85945  20117896.0634                   20117893.8484
        45.0004         31.7504
   1391110.53947   1093641.53945  21649720.2344                   21649715.2894
        44.2504         30.0004
   1312407.43847   1031923.60944  21403355.9384                   21403349.2034
        45.0004         27.5004
   2333878.77346   1811925.34043  24057486.6564                   24057485.6604
        40.7504         22.7504
  -2133491.68047  -1632496.18044  22938682.1724                   22938679.7194
        42.2504         27.7504
 19  3  5 19 20 30.0000000  0  6G07G09G16G23G26G27
  -1709114.85247  -1283453.67644  21085322.8054                   21085318.3054
        44.7504         27.0004
   -133163.05947    -60917.86345  20116354.0784                   20116351.6054
        45.2504         32.0004
   1392612.99647   1094812.28144  21650006.5474                   21650001.4804
        44.5004         29.7504
   1313195.59447   1032537.75044  21403504.9064                   21403499.0664
        44.5004         27.7504
   2340695.65646   1817237.19143  24058783.4774                   24058782.9104
        41.2504         22.5004
  -2154777.40247  -1649082.46544  22934630.5474                   22934629.1374
        42.5004         28.0004
 19  3  5 19 20 35.0000000  0  6G07G09G16G23G26G27
  -1727876.48047  -1298073.12144  21081752.7424                   21081748.0984
        44.5004         26.7504
   -141239.41847    -67211.13745  20114817.4774                   20114814.8364
        45.0004         32.5004
   1394140.74247   1096002.73045  21650297.4144                   21650291.9064
        44.5004         30.2504
   1314006.90247   1033169.93444  21403659.7424                   21403653.3364
        44.5004         28.2504
   2347529.44546   1822562.21544  24060084.5314                   24060083.5314
        41.5004         24.5004
  -2176037.78947  -1665648.98444  22930585.1254                   22930583.4694
        42.7504         28.0004
 19  3  5 19 20 40.0000000  0  6G07G09G16G23G26G27
  -1746618.11747  -1312677.00044  21078186.3834                   21078181.7664
        44.5004         27.2504
   -149289.25847    -73483.73445  20113285.6414                   20113283.1174
        45.0004         32.0004
   1395693.73847   1097212.85544  21650592.5634                   21650587.5274
        44.5004         29.7504
   1314841.34047   1033820.14544  21403818.9774                   21403812.3984
        44.7504         28.0004
   2354380.09446   1827900.37944  24061388.2194                   24061386.6884
        41.5004         24.0004
  -2197272.87147  -1682195.80944  22926544.3054                   22926542.8444
        43.0004         29.5004
 19  3  5 19 20 45.0000000  0  6G07G09G16G23G26G27
  -1765339.68047  -1327265.23444  21074623.4224                   21074618.9534
        44.7504         27.0004
   -157312.48847    -79735.59845  20111758.6484                   20111756.2424
        45.0004         31.7504
   1397272.00847   1098442.68044  21650892.8754                   21650888.1054
        44.5004         29.5004
   1315698.97347   1034488.41444  21403981.5314                   21403975.6564
        45.0004         28.0004
   2361247.64846   1833251.71544  24062694.2274                   24062694.0354
        40.7504         25.0004
  -2218482.57847  -1698722.84444  22922508.4454                   22922506.5314
        42.0004         28.0004
 19  3  5 19 20 50.0000000  0  7G07G30G09G16G23G26G27
  -1784041.48047  -1341838.07444  21071065.1254                   21071060.4264
        44.2504         27.5004
   1369020.81316                  23192306.242
        36.000
   -165309.41047    -85966.96545  20110236.8674                   20110234.6524
        44.7504         32.5004
   1398875.25847   1099691.96545  21651197.7274                   21651192.8834
        44.0004         30.0004
   1316579.47747   1035174.51644  21404149.0784                   21404143.1294
        43.7504         28.7504
   2368131.78146   1838615.96144  24064004.4924                   24064003.6294
        41.0004         24.0004
  -2239667.18747  -1715230.32844  22918477.1804                   22918475.2974
        42.5004         28.7504
 19  3  5 19 20 55.0000000  0  7G07G30G09G16G23G26G27
  -1802723.40647  -1356395.41044  21067509.5784                   21067505.2814
        44.5004         26.0004
   1343410.906 6                  23187433.641
        36.750
   -173279.98847    -92177.82045  20108719.9224                   20108717.6644
        44.5004         31.7504
   1400503.55147   1100960.75045  21651507.6334                   21651502.7384
        44.5004         30.0004
   1317482.89847   1035878.47744  21404321.1024                   21404315.2854
        44.5004         27.5004
   2375032.63346   1843993.27543  24065317.6724                   24065317.2074
        40.5004         22.7504
  -2260826.62147  -1731718.20344  22914450.5164                   22914448.7664
        42.2504         28.2504
 19  3  5 19 21  0.0000000  0  7G07G30G09G16G23G26G27
  -1821385.68747  -1370937.44144  21063958.3674                   21063953.7974
        44.5004         26.0004
   1317816.758 6                  23182563.000
        36.500
   -181224.36347    -98368.23445  20107208.7664                   20107206.0234
        44.7504         32.0004
   1402156.65247   1102248.89845  21651822.3444                   21651817.7234
        44.2504         30.0004
   1318409.03547   1036600.15244  21404497.1094                   21404491.2274
        44.5004         27.7504
   2381949.87446   1849383.31343  24066634.0234                   24066633.7234
        40.2504         23.2504
  -2281961.08247  -1748186.60544  22910428.4614                   22910426.7344
        42.2504         28.5004
 19  3  5 19 21  5.0000000  0  7G07G30G09G16G23G26G27
  -1840028.34447  -1385464.18744  21060410.7734                   21060406.2974
        44.5004         25.5004
   1292238.402 6                  23177695.422
        36.500
   -189142.55547   -104538.25845  20105701.2584                   20105699.4614
        45.0004         32.0004
   1403834.57047   1103556.36344  21652142.1954                   21652136.6804
        44.5004         29.0004
   1319357.87947   1037339.50044  21404678.3524                   21404671.6604
        45.0004         27.0004
   2388883.44946   1854786.09843  24067953.8134                   24067952.7894
        40.7504         23.0004
  -2303070.56247  -1764635.54344  22906411.4774                   22906410.0704
        42.0004         28.5004
 19  3  5 19 21 10.0000000  0  7G07G30G09G16G23G26G27
  -1858651.59047  -1399975.80544  21056866.7974                   21056862.6724
        44.5004         26.2504
   1266675.563 6                  23172830.133
        36.000
   -197034.83647   -110688.07845  20104200.1024                   20104197.6764
        45.0004         31.7504
   1405537.05147   1104882.97344  21652465.5474                   21652460.4654
        44.5004         29.2504
   1320329.20747   1038096.38344  21404862.3444                   21404856.6214
        44.7504         27.7504
   2395833.25846   1860201.52343  24069275.8204                   24069275.3554
        41.2504         22.5004
  -2324155.29347  -1781065.21144  22902399.4774                   22902397.8794
        42.5004         27.7504
 19  3  5 19 21 15.0000000  0  7G07G30G09G16G23G26G27
  -1877255.16047  -1414472.09844  21053326.7194                   21053322.5084
        44.5004         26.5004
   1241128.563 6                  23167968.844
        36.000
   -204900.91847   -116817.49245  20102702.6174                   20102700.4104
        44.5004         31.5004
   1407264.33647   1106228.90644  21652794.3984                   21652789.5944
        44.0004         29.2504
   1321323.27047   1038870.96944  21405052.0554                   21405045.6804
        44.7504         27.2504
   2402799.48846   1865629.74244  24070601.9064                   24070601.1334
        40.7504         24.5004
  -2345214.94546  -1797475.31644  22898391.4844                   22898390.0044
        41.7504         28.0004
 19  3  5 19 21 20.0000000  0  7G07G30G09G16G23G26G27
  -1895839.41847  -1428953.34044  21049790.1094                   21049785.3364
        44.7504         27.5004
   1215597.016 6                  23163110.336
        36.500
   -212741.15647   -122926.77045  20101211.1414                   20101208.6054
        45.0004         32.0004
   1409016.08647   1107593.91044  21653127.7734                   21653122.9344
        44.2504         29.7504
   1322339.72347   1039663.00844  21405245.4924                   21405239.1644
        44.5004         27.5004
   2409781.76246   1871070.46543  24071930.1174                   24071929.8094
        41.0004         23.7504
  -2366249.93047  -1813866.22344  22894389.1174                   22894387.0944
        43.0004         28.0004
 19  3  5 19 21 25.0000000  0  7G07G30G09G16G23G26G27
  -1914404.46147  -1443419.60544  21046257.5234                   21046253.1024
        44.5004         26.7504
   1190080.746 5                  23158254.648
        35.500
   -220555.64547   -129015.98445  20099723.8594                   20099721.4924
        45.0004         32.0004
   1410792.20347   1108977.89544  21653465.7664                   21653460.6644
        44.2504         29.7504
   1323378.47747   1040472.40644  21405443.2664                   21405437.0434
        43.7504         27.2504
   2416780.00046   1876523.67243  24073261.8674                   24073261.2274
        40.5004         22.7504
  -2387260.28547  -1830237.90244  22890390.9924                   22890389.0594
        42.2504         28.7504
 19  3  5 19 21 30.0000000  0  7G07G30G09G16G23G26G27
  -1932950.15247  -1457870.79344  21042728.1334                   21042724.1564
        44.2504         27.0004
   1164580.000 5                  23153402.383
        35.000
   -228344.33647   -135085.09445  20098241.7424                   20098239.2504
        44.7504         32.0004
   1412592.69547   1110380.87944  21653808.2814                   21653803.5704
        44.0004         29.5004
   1324439.54747   1041299.21944  21405644.9384                   21405638.8714
        43.5004         27.0004
   2423794.24246   1881989.30143  24074596.4144                   24074595.9774
        40.5004         22.5004
  -2408245.96146  -1846590.38344  22886397.2974                   22886395.4454
        41.5004         28.5004
 19  3  5 19 21 35.0000000  0  7G07G30G09G16G23G26G27
  -1951476.49647  -1472306.90244  21039202.8364                   21039198.6524
        44.5004         27.2504
   1139094.781 5                  23148552.578
        35.000
   -236107.11747   -141134.01645  20096764.5784                   20096761.6804
        44.7504         31.2504
   1414417.62547   1111802.89845  21654155.4924                   21654150.7774
        44.0004         30.0004
   1325523.03547   1042143.49644  21405850.8914                   21405845.1024
        43.7504         27.0004
   2430824.53146   1887467.43443  24075934.9614                   24075933.6884
        40.7504         23.0004
  -2429206.82847  -1862923.52344  22882408.3364                   22882406.6684
        42.0004         28.5004
 19  3  5 19 21 40.0000000  0  7G07G30G09G16G23G26G27
  -1969983.63347  -1486728.06244  21035681.1024                   21035676.6484
        44.0004         27.0004
   1113624.871 5                  23143706.336
        34.500
   -243844.16047   -147162.88745  20095292.0004                   20095289.7544
        44.2504         32.2504
   1416266.78947   1113243.80145  21654507.6174                   21654502.5004
        43.7504         30.0004
   1326628.75847   1043005.07444  21406061.5004                   21406055.4844
        43.7504         28.0004
   2437870.71146   1892957.94543  24077275.5164                   24077274.5514
        40.7504         22.0004
  -2450143.10546  -1879237.49644  22878424.8134                   22878422.5164
        41.7504         28.7504
 19  3  5 19 21 45.0000000  0  7G07G30G09G16G23G26G27
  -1988471.31647  -1501134.03944  21032162.7734                   21032158.5394
        44.2504         27.0004
   1088170.625 5                  23138862.438
        35.500
   -251555.27047   -153171.53945  20093824.8914                   20093822.2974
        44.7504         32.5004
   1418140.42247   1114703.78144  21654863.7344                   21654859.1294
        44.0004         29.0004
   1327756.95747   1043884.19544  21406276.2584                   21406270.4654
        43.7504         27.7504
   2444933.01646   1898461.05543  24078619.2974                   24078618.3554
        41.0004         22.7504
  -2471054.48047  -1895532.07844  22874445.2814                   22874443.6644
        42.2504         28.0004
 19  3  5 19 21 50.0000000  0  7G07G30G09G16G23G26G27
  -2006939.86747  -1515525.11344  21028648.9614                   21028644.1884
        45.0004         27.5004
   1062731.672 6                  23134020.906
        36.250
   -259240.69947   -159160.19545  20092362.5314                   20092360.0664
        45.5004         32.5004
   1420038.30547   1116182.64545  21655225.2584                   21655220.0904
        44.5004         30.0004
   1328907.32047   1044780.61344  21406495.2194                   21406489.1604
        44.7504         28.2504
   2452011.14846   1903976.44943  24079966.5394                   24079965.8524
        41.2504         22.5004
  -2491941.28147  -1911807.51244  22870470.8364                   22870469.3054
        43.5004         28.5004
 19  3  5 19 21 55.0000000  0  7G07G30G09G16G23G26G27
  -2025388.96147  -1529901.04344  21025137.9614                   21025133.5944
        45.0004         26.7504
   1037308.344 6                  23129183.133
        36.250
   -266900.18447   -165128.61745  20090904.7584                   20090902.5864
        45.5004         32.2504
   1421960.63347   1117680.56345  21655591.1804                   21655586.0234
        44.5004         30.2504
   1330080.12947   1045694.45344  21406717.8134                   21406712.5594
        44.5004         28.7504
   2459105.34846   1909504.39843  24081316.3054                   24081315.7704
        41.7504         23.2504
  -2512803.15647  -1928063.50444  22866500.7424                   22866499.2384
        42.5004         26.7504
 19  3  5 19 22  0.0000000  0  7G07G30G09G16G23G26G27
  -2043819.05147  -1544262.16844  21021630.5314                   21021626.1954
        44.0004         26.0004
   1011900.070 5                  23124349.141
        35.750
   -274534.16847   -171077.18445  20089452.1884                   20089449.7894
        44.5004         32.7504
   1423907.05947   1119197.26644  21655961.5554                   21655956.4104
        43.5004         29.7504
   1331274.93047   1046625.44144  21406945.7114                   21406939.5594
        43.2504         28.0004
   2466215.15646   1915044.50843  24082669.4774                   24082668.5984
        40.5004         22.5004
  -2533640.60247  -1944300.46944  22862535.5944                   22862533.9614
        42.0004         28.2504
 19  3  5 19 22  5.0000000  0  6G07G09G16G23G26G27
  -2062229.97346  -1558608.30143  21018127.1954                   21018122.9454
        40.5004         22.0004
   -282142.73447   -177005.94545  20088004.5084                   20088001.6684
        44.0004         31.5004
   1425877.39547   1120732.60244  21656336.0864                   21656331.1954
        45.0004         29.7504
   1332491.66447   1047573.56644  21407177.5084                   21407170.7424
        44.2504         26.5004
   2473340.55146   1920596.78144  24084025.1954                   24084023.8674
        40.0004         25.0004
  -2554453.63747  -1960518.42244  22858575.1724                   22858573.2154
        42.0004         28.7504
 19  3  5 19 22 10.0000000  0  6G07G09G16G23G26G27
  -2080622.42247  -1572940.09843  21014627.6024                   21014622.5594
        42.5004         21.7504
   -289725.81647   -182914.83645  20086561.3364                   20086558.6374
        45.5004         33.2504
   1427871.55147   1122286.48044  21656716.0234                   21656710.8954
        44.5004         29.5004
   1333730.31647   1048538.75044  21407412.2814                   21407406.3954
        43.5004         27.2504
   2480481.42646   1926161.08243  24085384.8134                   24085382.9924
        40.5004         22.5004
  -2575242.27046  -1976717.35244  22854619.0234                   22854617.3444
        41.5004         28.2504
 19  3  5 19 22 15.0000000  0  6G07G09G16G23G26G27
  -2098995.91447  -1587257.11744  21011130.7664                   21011126.2464
        43.7504         25.7504
   -297283.73847   -188804.10945  20085123.1724                   20085120.6374
        45.0004         32.0004
   1429889.37147   1123858.81644  21657099.8444                   21657095.0314
        44.2504         29.5004
   1334990.66847   1049520.84044  21407652.4924                   21407646.5904
        43.5004         27.7504
   2487637.60946   1931737.32843  24086745.9694                   24086744.9804
        40.0004         22.7504
  -2596006.73847  -1992897.44544  22850667.4064                   22850665.5314
        42.5004         27.5004
 19  3  5 19 22 20.0000000  0  6G07G09G16G23G26G27
  -2117350.73047  -1601559.57444  21007637.9454                   21007633.5634
        44.0004         26.0004
   -304816.48047   -194673.78145  20083689.7814                   20083686.9144
        45.5004         32.2504
   1431930.76647   1125449.51244  21657488.5634                   21657483.2854
        44.7504         29.5004
   1336272.61747   1050519.77744  21407896.9224                   21407890.2664
        44.0004         27.5004
   2494809.02746   1937325.44943  24088110.5234                   24088109.3554
        41.0004         22.7504
  -2616747.00847  -2009058.69544  22846721.2274                   22846718.9844
        43.5004         28.2504
 19  3  5 19 22 25.0000000  0  6G07G09G16G23G26G27
  -2135686.80147  -1615847.40644  21004148.9064                   21004143.8954
        43.7504         26.0004
   -312323.99247   -200523.79345  20082261.0394                   20082258.4574
        45.5004         32.2504
   1433995.82047   1127058.65244  21657881.0314                   21657876.3674
        45.0004         29.0004
   1337576.33247   1051535.61744  21408144.8524                   21408138.4344
        44.0004         27.2504
   2501995.74246   1942925.47744  24089477.5554                   24089476.9184
        41.0004         24.0004
  -2637463.03147  -2025201.04344  22842779.0634                   22842776.4104
        43.2504         28.0004
 19  3  5 19 22 30.0000000  0  6G07G09G16G23G26G27
  -2154004.11347  -1630120.64544  21000663.5314                   21000658.7504
        44.0004         25.2504
   -319806.24247   -206354.11745  20080837.2734                   20080834.8054
        45.2504         32.0004
   1436084.53547   1128686.22344  21658279.1174                   21658273.6954
        44.5004         28.7504
   1338901.70347   1052568.39844  21408397.4224                   21408391.0664
        44.5004         26.2504
   2509197.75046   1948537.42243  24090848.6644                   24090847.8444
        41.0004         22.5004
  -2658154.80947  -2041324.50444  22838841.3984                   22838839.0944
        42.5004         28.2504
 19  3  5 19 22 35.0000000  0  7G07G30G09G16G23G26G27
  -2172302.89847  -1644379.41844  20997181.2734                   20997176.3134
        44.5004         25.7504
                                  23090583.000
        33.500
   -327263.48847   -212164.97345  20079418.4384                   20079415.7704
        44.5004         32.5004
   1438196.66047   1130332.02045  21658681.0704                   21658675.6334
        45.0004         30.5004
   1340248.55547   1053617.91044  21408653.0234                   21408647.0434
        44.5004         27.2504
   2516414.82446   1954161.10944  24092222.3594                   24092221.4344
        40.2504         24.7504
  -2678822.50447  -2057429.21944  22834908.2664                   22834906.3134
        42.0004         28.0004
 19  3  5 19 22 40.0000000  0  7G07G30G09G16G23G26G27
  -2190582.94947  -1658623.64144  20993702.5164                   20993698.1484
        44.0004         27.0004
   1520771.699 5                  23085770.398
        31.750
   -334695.57847   -217956.20345  20078003.9614                   20078001.6334
        45.7504         33.5004
   1440332.32847   1131996.18045  21659087.3054                   21659082.3714
        45.0004         30.2504
   1341617.00047   1054684.19944  21408913.6484                   21408907.3244
        43.2504         27.7504
   2523647.07846   1959796.64143  24093597.6334                   24093597.4964
        40.5004         23.0004
  -2699465.99647  -2073515.05144  22830980.3134                   22830978.1134
        42.5004         29.0004
 19  3  5 19 22 45.0000000  0  7G07G30G09G16G23G26G27
  -2208844.40247  -1672853.31644  20990227.4144                   20990222.7774
        43.2504         25.0004
   1495497.477 5                  23080960.945
        31.000
   -342102.57847   -223727.87945  20076594.3914                   20076592.1214
        44.5004         31.7504
   1442491.45747   1133678.64144  21659498.1254                   21659492.9104
        43.7504         29.0004
   1343006.96547   1055767.28944  21409177.7424                   21409171.8524
        42.5004         26.7504
   2530894.42246   1965443.92643  24094977.9144                   24094976.7704
        40.0004         23.0004
  -2720085.36746  -2089582.07044  22827056.6884                   22827054.7814
        41.7504         27.5004
 19  3  5 19 22 50.0000000  0  7G07G30G09G16G23G26G27
  -2227087.10947  -1687068.39544  20986756.2274                   20986751.5744
        43.0004         24.5004
                                  23076153.656
        32.250
   -349484.35247   -229479.91445  20075189.8594                   20075187.3094
        44.0004         30.2504
   1444674.16447   1135379.44144  21659913.4614                   21659908.3794
        43.7504         28.5004
   1344418.55147   1056867.25844  21409447.2424                   21409440.4774
        43.5004         26.5004
   2538157.00046   1971103.07043  24096359.9144                   24096358.5554
        40.0004         22.0004
  -2740680.42647  -2105630.16044  22823137.1884                   22823135.7664
        42.0004         26.5004
 19  3  5 19 22 55.0000000  0  7G07G30G09G16G23G26G27
  -2245311.21947  -1701269.00844  20983288.0944                   20983283.7734
        43.5004         25.2504
   1444993.617 5                  23071349.539
        32.250
   -356841.03947   -235212.40245  20073789.7034                   20073787.2894
        44.2504         30.2504
   1446880.33647   1137098.53944  21660333.0234                   21660328.1804
        44.2504         29.5004
   1345851.69947   1057983.99244  21409719.6724                   21409713.2774
        43.7504         27.0004
   2545434.66846   1976773.96543  24097744.4144                   24097743.4494
        40.0004         22.5004
  -2761251.33247  -2121659.44944  22819222.7194                   22819220.8634
        42.2504         27.2504
 19  3  5 19 23  0.0000000  0  7G07G30G09G16G23G26G27
  -2263516.87547  -1715455.25444  20979823.7894                   20979819.2664
        43.5004         25.7504
   1419763.680 5                  23066548.664
        31.000
   -364172.80547   -240925.46945  20072394.2894                   20072392.1294
        45.0004         32.2504
   1449109.75047   1138835.73444  21660757.7114                   21660752.5044
        44.2504         29.7504
   1347306.19947   1059117.32444  21409996.5554                   21409990.1214
        42.7504         26.7504
   2552727.22746   1982456.48043  24099132.4614                   24099131.5514
        40.2504         22.5004
  -2781798.21947  -2137670.00444  22815312.5704                   22815310.7854
        42.2504         28.5004
 19  3  5 19 23  5.0000000  0  7G07G30G09G16G23G26G27
  -2281704.14547  -1729627.14544  20976362.6884                   20976358.3404
        43.7504         25.2504
   1394548.297 5                  23061751.578
        32.250
   -371479.69947   -246619.15245  20071004.2344                   20071002.2274
        45.2504         32.0004
   1451362.34447   1140591.01244  21661186.0314                   21661181.3284
        44.5004         29.5004
   1348781.95347   1060267.29744  21410277.2114                   21410270.8754
        43.5004         27.2504
   2560034.62946   1988150.55943  24100522.7584                   24100522.0514
        41.2504         22.5004
  -2802321.12547  -2153661.87544  22811407.3754                   22811405.3794
        42.0004         27.7504
 19  3  5 19 23 10.0000000  0  7G07G30G09G16G23G26G27
  -2299873.22347  -1743784.87544  20972905.5234                   20972900.6844
        43.7504         25.2504
   1369347.398 5                  23056953.938
        32.500
   -378761.93447   -252293.61745  20069618.4694                   20069615.6954
        45.0004         32.0004
   1453637.91447   1142364.18844  21661618.9774                   21661614.3014
        44.2504         29.2504
   1350278.79347   1061433.62544  21410561.9924                   21410555.9884
        43.0004         27.5004
   2567356.66046   1993856.02343  24101916.0004                   24101915.4614
        40.2504         22.7504
  -2822820.24647  -2169635.22344  22807507.0864                   22807504.8014
        42.0004         27.5004
 19  3  5 19 23 15.0000000  0  7G07G30G09G16G23G26G27
  -2318024.08646  -1757928.39143  20969451.5784                   20969446.7154
        40.0004         21.7504
   1344160.742 5                  23052162.594
        30.500
   -386019.46947   -257948.84045  20068237.1724                   20068234.9574
        45.2504         32.0004
   1455936.45347   1144155.27345  21662056.7424                   21662051.8914
        43.5004         30.0004
   1351796.72747   1062616.44944  21410851.0394                   21410844.8954
        43.7504         27.7504
   2574693.32846   1999572.92643  24103311.8524                   24103311.6604
        40.0004         22.2504
  -2843295.58247  -2185590.00044  22803610.4534                   22803608.2774
        42.0004         29.0004
 19  3  5 19 23 20.0000000  0  7G07G30G09G16G23G26G27
  -2336156.41445  -1772057.48043  20966001.3054                   20965996.7074
        35.2504         19.5004
   1318988.922 4                  23047372.898
        28.500
   -393252.13747   -263584.70344  20066860.8134                   20066858.5984
        44.0004         28.5004
   1458258.19947   1145964.46144  21662498.3444                   21662493.3754
        44.2504         28.0004
   1353335.98847   1063815.93444  21411143.8364                   21411137.5554
        44.0004         25.0004
   2582044.85246   2005301.37143  24104711.0314                   24104710.7544
        39.5004         22.0004
  -2863746.78147  -2201525.98044  22799719.0394                   22799716.9024
        42.5004         27.7504
 19  3  5 19 23 25.0000000  0  7G07G30G09G16G23G26G27
  -2354270.27747  -1786172.20743  20962554.1884                   20962549.8284
        42.5004         18.2504
   1293831.67615                  23042583.375
        30.000
   -400459.70347   -269201.00445  20065489.6254                   20065487.0044
        46.5004         32.0004
   1460603.29747   1147791.75044  21662944.5554                   21662939.1454
        45.0004         29.0004
   1354896.66447   1065031.96544  21411441.1024                   21411434.3554
        43.5004         27.5004
   2589411.32446   2011041.43843  24106112.7504                   24106112.3164
        40.0004         21.7504
  -2884173.84847  -2217443.21144  22795831.4614                   22795829.5704
        42.0004         29.0004
 19  3  5 19 23 30.0000000  0  7G07G30G09G16G23G26G27
  -2372365.73847  -1800272.55144  20959110.8524                   20959106.2664
        44.5004         25.7504
   1268689.059 5                  23037800.664
        31.750
   -407642.45747   -274797.93745  20064122.6094                   20064119.9804
        46.0004         31.5004
   1462971.49247   1149637.10545  21663395.3444                   21663390.1994
        45.0004         30.0004
   1356478.57447   1066264.64144  21411741.8444                   21411735.3874
        44.5004         27.5004
   2596792.49646   2016793.03143  24107517.0394                   24107516.9454
        40.7504         22.7504
  -2904576.88747  -2233341.68044  22791949.0474                   22791946.7344
        42.2504         28.5004
 19  3  5 19 23 35.0000000  0  7G07G30G09G16G23G26G27
  -2390442.83247  -1814358.58643  20955670.6954                   20955666.1294
        42.2504         22.5004
   1243560.844 5                  23033018.977
        32.250
   -414800.45747   -280375.59845  20062760.6334                   20062757.7814
        45.2504         31.7504
   1465362.65247   1151500.36344  21663850.4924                   21663845.1454
        44.2504         28.2504
   1358081.61747   1067513.75044  21412047.5394                   21412040.3054
        44.2504         26.7504
   2604188.37946   2022556.02743  24108924.8444                   24108924.4694
        40.5004         22.5004
  -2924956.01247  -2249221.51644  22788070.9534                   22788068.7664
        42.5004         29.0004
 19  3  5 19 23 40.0000000  0  7G07G30G09G16G23G26G27
  -2408501.51247  -1828430.27043  20952233.8444                   20952229.7624
        42.0004         22.5004
                                  23028239.133
        32.000
   -421933.55547   -285933.87945  20061402.7814                   20061400.3674
        46.5004         33.2504
   1467776.97347   1153381.62944  21664309.5704                   21664304.4774
        44.5004         29.7504
   1359705.87547   1068779.41044  21412355.8284                   21412349.8524
        45.0004         28.5004
   2611599.02746   2028330.59044  24110335.4844                   24110334.1094
        41.0004         24.2504
  -2945311.06246  -2265082.59044  22784197.7274                   22784195.5354
        41.5004         29.2504
 19  3  5 19 23 45.0000000  0  7G07G30G09G16G23G26G27
  -2426541.89146  -1842487.75043  20948801.2034                   20948796.4534
        41.0004         22.2504
                                  23023462.344
        27.250
   -429041.98847   -291472.93445  20060050.2734                   20060047.5084
        45.2504         33.0004
   1470214.24247   1155280.80945  21664772.9454                   21664768.3444
        44.2504         30.0004
   1361351.22747   1070061.44544  21412669.3524                   21412662.4694
        44.5004         29.0004
   2619024.23046   2034116.40244  24111747.9304                   24111747.2034
        40.0004         25.2504
  -2965642.19547  -2280925.02744  22780328.8054                   22780326.4924
        43.0004         28.2504
 19  3  5 19 23 50.0000000  0  6G07G09G16G23G26G27
  -2444564.043 6                  20945371.555
        37.000
   -436125.84847   -296992.80544  20058702.5784                   20058700.0084
        44.5004         28.7504
   1472674.20747   1157197.71144  21665242.0784                   21665236.5864
        45.0004         29.5004
   1363017.49247   1071359.91844  21412986.2274                   21412980.0554
        44.7504         27.0004
   2626463.90246   2039913.59043  24113164.1334                   24113162.8834
        40.7504         22.5004
  -2985949.57047  -2296748.94544  22776464.4064                   22776462.2274
        42.2504         28.2504
 19  3  5 19 23 55.0000000  0  6G07G09G16G23G26G27
  -2462568.598 6                  20941945.305
        37.750
   -443185.30147   -302493.72345  20057358.6254                   20057356.5394
        47.0004         33.7504
   1475156.77747   1159132.11344  21665713.9844                   21665708.9144
        44.5004         29.2504
   1364704.51647   1072674.41444  21413307.0944                   21413301.2114
        44.0004         29.0004
   2633917.78546   2045721.78543  24114582.3134                   24114581.4064
        40.5004         21.7504
  -3006233.32846  -2312554.50444  22772603.8754                   22772602.0704
        41.7504         28.5004
 19  3  5 19 24  0.0000000  0  6G07G09G16G23G26G27
  -2480555.020 6                  20938522.492
        41.000
   -450220.31647   -307975.54745  20056020.3984                   20056018.2384
        45.2504         34.0004
   1477661.93847   1161084.19545  21666190.4614                   21666185.8984
        44.7504         30.0004
   1366412.37947   1074005.22344  21413632.0004                   21413626.3204
        44.5004         27.0004
   2641385.96946   2051541.12143  24116003.7734                   24116002.7854
        39.5004         23.0004
  -3026493.38347  -2328341.55944  22768748.9924                   22768747.5164
        42.5004         29.2504
 19  3  5 19 24  5.0000000  0  6G07G09G16G23G26G27
  -2498523.574 6                  20935103.563
        41.000
   -457231.04347   -313438.43745  20054686.2274                   20054684.1724
        45.7504         32.5004
   1480189.59047   1163053.79745  21666671.5554                   21666666.7304
        44.7504         30.2504
   1368140.87147   1075352.07044  21413960.5634                   21413955.2234
        44.0004         27.0004
   2648868.27046   2057371.50843  24117426.7894                   24117427.0044
        39.7504         22.0004
  -3046729.92646  -2344110.30144  22764898.2504                   22764896.3874
        41.5004         27.7504
 19  3  5 19 24 10.0000000  0  6G07G09G16G23G26G27
  -2516474.078 7                  20931687.602
        45.000
   -464217.21547   -318882.19945  20053356.9694                   20053354.8404
        44.5004         32.5004
   1482739.92647   1165041.08645  21667157.3054                   21667152.6454
        45.0004         30.0004
   1369890.25847   1076715.25844  21414294.0394                   21414288.0744
        45.0004         27.5004
   2656364.93446   2063213.05143  24118853.4924                   24118853.6524
        39.5004         22.7504
  -3066942.62947  -2359860.45344  22761051.6334                   22761050.6214
        43.2504         29.5004
 19  3  5 19 24 15.0000000  0  7G07G30G09G16G23G26G27
  -2534406.12547  -1849770.79354  20928275.2584                   20928271.6134
        44.7504         28.5004
                                  22994863.586
        39.750
   -471178.65647   -324306.71145  20052031.8054                   20052030.0634
        45.7504         32.7504
   1485313.14147   1167046.16844  21667646.5474                   21667641.8204
        44.7504         29.5004
   1371660.73447   1078094.81644  21414631.2344                   21414625.3244
        44.7504         27.5004
   2663876.15246   2069065.93844  24120282.0864                   24120282.7894
        39.5004         24.0004
  -3087131.32447  -2375591.89544  22757209.7584                   22757208.6414
        42.5004         28.0004
 19  3  5 19 24 20.0000000  0  7G07G30G09G16G23G26G27
  -2552319.91847  -1863729.58644  20924866.5784                   20924862.1764
        45.5004         28.0004
   1540418.531 6                  22990106.172
        38.000
   -478115.38347   -329711.94945  20050712.2114                   20050710.0904
        46.2504         32.5004
   1487909.22747   1169069.09444  21668140.7034                   21668136.2114
        45.0004         29.2504
   1373452.25447   1079490.81644  21414971.8204                   21414965.9574
        44.7504         28.0004
   2671401.92246   2074930.18843  24121714.9694                   24121715.0864
        40.0004         23.5004
  -3107296.03547  -2391304.65244  22753372.7504                   22753371.4534
        42.5004         28.0004
 19  3  5 19 24 25.0000000  0  7G07G30G09G16G23G26G27
  -2570215.38347  -1877674.10244  20921461.0084                   20921456.9304
        45.5004         27.2504
   1515433.887 6                  22985351.188
        37.500
   -485027.30947   -335097.86345  20049397.0864                   20049394.9024
        46.0004         33.2504
   1490528.18047   1171109.83644  21668638.8524                   21668634.4384
        44.7504         29.5004
   1375264.92247   1080903.27344  21415316.1094                   21415311.0554
        44.2504         28.7504
   2678942.23446   2080805.73043  24123149.2114                   24123149.6374
        40.2504         22.5004
  -3127436.64147  -2406998.64144  22749539.5944                   22749538.5394
        42.2504         28.5004
 19  3  5 19 24 30.0000000  0  7G07G30G09G16G23G26G27
  -2588092.70347  -1891604.50844  20918059.1724                   20918054.8554
        45.5004         28.2504
   1490463.563 6                  22980599.586
        36.500
   -491914.69147   -340464.66045  20048086.0234                   20048083.9964
        46.0004         33.5004
   1493169.84847   1173168.27044  21669141.7664                   21669137.3054
        44.7504         29.5004
   1377098.42647   1082331.97344  21415665.5634                   21415659.7424
        45.0004         28.5004
   2686496.88746   2086692.47343  24124587.2814                   24124587.1374
        40.0004         22.7504
  -3147553.37947  -2422674.01644  22745711.9224                   22745710.9144
        42.7504         29.0004
 19  3  5 19 24 35.0000000  0  7G07G30G09G16G23G26G27
  -2605951.96547  -1905520.79344  20914660.3204                   20914656.4184
        45.2504         27.0004
   1465507.50046   1226050.37153  22975851.0164                   22975848.9844
        38.2504         19.7504
   -498777.59047   -345812.37145  20046780.2504                   20046778.5634
        46.0004         33.2504
   1495834.03147   1175244.26645  21669648.6254                   21669644.3754
        45.0004         30.2504
   1378952.73447   1083776.88744  21416018.3914                   21416012.3634
        44.5004         28.5004
   2694065.77746   2092590.30543  24126028.3754                   24126027.5394
        40.0004         21.7504
  -3167646.34447  -2438330.86744  22741888.2424                   22741887.0124
        42.5004         28.7504
 19  3  5 19 24 40.0000000  0  7G07G30G09G16G23G26G27
  -2623792.93047  -1919422.84844  20911265.3754                   20911261.3524
        45.5004         27.7504
   1440565.96146   1206615.38342  22971105.0234                   22971103.5824
        38.5004         17.7504
   -505615.76247   -351140.82445  20045478.8984                   20045476.7194
        46.2504         33.2504
   1498521.12147   1177338.09844  21670160.0084                   21670155.5204
        44.7504         29.2504
   1380828.07447   1085238.19144  21416375.9304                   21416369.7734
        45.0004         28.7504
   2701649.14846   2098499.41843  24127471.1804                   24127470.6524
        40.7504         22.5004
  -3187715.25047  -2453968.97344  22738069.6254                   22738067.6094
        43.2504         28.5004
 19  3  5 19 24 45.0000000  0  7G07G30G09G16G23G26G27
  -2641616.01247  -1933310.96544  20907873.5084                   20907869.3054
        45.5004         27.0004
   1415638.48046   1187191.37542  22966361.4694                   22966359.8094
        38.2504         17.2504
   -512429.62147   -356450.31645  20044182.2424                   20044179.8674
        46.2504         33.2504
   1501230.56347   1179449.35244  21670675.5164                   21670670.9804
        45.0004         29.5004
   1382724.04747   1086715.57444  21416736.3204                   21416730.4264
        45.0004         28.2504
   2709246.57046   2104419.49243  24128916.7734                   24128916.8364
        40.5004         22.5004
  -3207760.47747  -2469588.62544  22734255.0084                   22734253.4614
        43.0004         28.5004
 19  3  5 19 24 50.0000000  0  7G07G30G09G16G23G26G27
  -2659421.27747  -1947185.20744  20904485.5864                   20904481.1374
        45.2504         26.7504
   1390725.02346   1167778.30942  22961620.3754                   22961618.9804
        37.7504         16.2504
   -519219.23047   -361740.92645  20042890.2504                   20042888.0664
        46.2504         33.5004
   1503962.25447   1181577.93844  21671195.0704                   21671190.7624
        44.7504         29.2504
   1384640.54747   1088208.93844  21417101.1024                   21417095.2814
        45.0004         28.7504
   2716858.00046   2110350.44943  24130365.0314                   24130364.6884
        40.0004         22.5004
  -3227782.18047  -2485189.95744  22730444.5944                   22730443.6054
        43.0004         29.5004
 19  3  5 19 24 55.0000000  0  7G07G30G09G16G23G26G27
  -2677208.65247  -1961045.49244  20901100.8054                   20901096.8834
        45.2504         27.5004
   1365825.66846   1148376.17642  22956882.3444                   22956880.8134
        38.0004         16.7504
   -525984.55547   -367012.61745  20041602.8444                   20041600.7464
        46.0004         33.2504
   1506716.37547   1183724.00845  21671719.3364                   21671714.7584
        44.5004         30.2504
   1386577.62947   1089718.35244  21417469.2584                   21417464.0354
        44.5004         27.2504
   2724483.39846   2116292.32043  24131816.2734                   24131815.7584
        40.5004         22.5004
  -3247780.16847  -2500772.80544  22726639.4144                   22726638.0594
        42.7504         28.7504
 19  3  5 19 25  0.0000000  0  7G07G30G09G16G23G26G27
  -2694978.39547  -1974892.03544  20897719.1334                   20897715.4774
        45.5004         27.2504
   1340940.22346   1128984.98042  22952146.9534                   22952145.7344
        37.5004         16.2504
   -532725.77347   -372265.50445  20040320.0634                   20040317.9414
        46.0004         33.2504
   1509492.60247   1185887.30145  21672247.9384                   21672243.2854
        44.7504         30.0004
   1388535.11747   1091243.66444  21417842.4454                   21417836.2894
        45.0004         28.0004
   2732122.67246   2122245.00043  24133269.7114                   24133269.5634
        39.7504         22.5004
  -3267754.64547  -2516337.33644  22722838.2034                   22722837.1564
        42.5004         29.2504
 19  3  5 19 25  5.0000000  0  7G07G30G09G16G23G26G27
  -2712730.31647  -1988724.71144  20894341.3674                   20894337.1884
        45.7504         27.5004
   1316068.70746   1109604.54342  22947414.2034                   22947412.6604
        38.0004         16.2504
   -539442.82047   -377499.57445  20039041.7664                   20039039.7664
        46.2504         33.7504
   1512290.93447   1188067.81645  21672780.4774                   21672775.6884
        45.0004         30.0004
   1390513.04747   1092784.89844  21418218.7664                   21418212.8444
        45.2504         27.7504
   2739775.77746   2128208.43843  24134725.7114                   24134725.5744
        40.2504         22.2504
  -3287705.56647  -2531883.50044  22719042.1254                   22719040.0204
        43.2504         29.7504
 19  3  5 19 25 10.0000000  0  7G07G30G09G16G23G26G27
  -2730464.75847  -2002543.74244  20890966.8834                   20890962.2304
        45.5004         27.5004
   1291210.89846   1090234.86742  22942683.1804                   22942683.0044
        37.2504         15.5004
   -546135.96547   -382715.01245  20037768.3204                   20037766.0314
        46.0004         33.2504
   1515111.18847   1190265.41844  21673316.9844                   21673312.7344
        45.0004         29.5004
   1392511.11747   1094341.83644  21418598.5784                   21418593.2424
        44.5004         28.0004
   2747442.46546   2134182.49643  24136184.8914                   24136184.6214
        40.2504         22.5004
  -3307633.19547  -2547411.52344  22715250.1414                   22715248.0634
        43.0004         29.2504
 19  3  5 19 25 15.0000000  0  7G07G30G09G16G23G26G27
  -2748181.72747  -2016349.18744  20887595.3204                   20887590.9574
        45.5004         27.5004
   1266366.82446   1070875.82042  22937956.1884                   22937955.4414
        37.2504         15.5004
   -552805.26247   -387911.86345  20036499.1254                   20036497.1254
        46.0004         33.2504
   1517953.25047   1192480.00444  21673857.7274                   21673853.3324
        44.7504         29.2504
   1394529.31347   1095914.45344  21418982.5634                   21418977.1414
        44.7504         28.0004
   2755122.66846   2140167.07443  24137646.3594                   24137646.6214
        39.2504         22.2504
  -3327537.55147  -2562921.41044  22711461.9844                   22711460.3594
        43.0004         29.0004
 19  3  5 19 25 20.0000000  0  7G07G30G09G16G23G26G27
  -2765881.06247  -2030140.87544  20884226.9304                   20884222.6414
        45.5004         27.0004
   1241536.45746   1051527.49242  22933230.6024                   22933230.0744
        37.7504         16.2504
   -559450.53947   -393090.00845  20035234.3134                   20035232.3054
        46.0004         33.0004
   1520817.30147   1194711.73044  21674402.8674                   21674398.2304
        44.5004         29.2504
   1396567.78947   1097502.86744  21419370.9534                   21419364.8014
        45.0004         28.2504
   2762816.59846   2146162.32043  24139110.3754                   24139110.4024
        39.5004         22.5004
  -3347418.44947  -2578413.02044  22707678.8054                   22707677.2504
        43.0004         29.2504
 19  3  5 19 25 25.0000000  0  7G07G30G09G16G23G26G27
  -2783563.03147  -2043919.02744  20880862.2814                   20880858.0434
        45.5004         27.5004
   1216719.77346   1032189.75842  22928508.6174                   22928508.1804
        37.5004         16.2504
   -566072.01647   -398249.59445  20033974.3134                   20033972.3954
        46.2504         33.0004
   1523703.10547   1196960.41044  21674951.5864                   21674947.3984
        45.0004         29.0004
   1398626.33247   1099106.92244  21419761.9304                   21419756.7384
        45.0004         28.5004
   2770523.93446   2152168.02343  24140577.1334                   24140576.6684
        40.0004         22.5004
  -3367276.13347  -2593886.53945  22703899.9224                   22703898.1054
        43.0004         30.0004
 19  3  5 19 25 30.0000000  0  7G07G30G09G16G23G26G27
  -2801227.47347  -2057683.53144  20877500.8674                   20877496.7704
        45.2504         27.2504
   1191916.85946   1012862.85942  22923787.9844                   22923788.1414
        37.7504         15.5004
   -572669.61747   -403390.58645  20032718.8134                   20032716.8284
        46.0004         33.0004
   1526610.75447   1199226.11344  21675505.3594                   21675500.7854
        44.5004         29.0004
   1400705.03547   1100726.68844  21420157.9384                   21420151.9064
        44.7504         28.5004
   2778244.85546   2158184.31644  24142046.5314                   24142046.2464
        39.5004         24.5004
  -3387110.47347  -2609341.85544  22700125.8674                   22700124.2624
        42.7504         29.0004
 19  3  5 19 25 35.0000000  0  7G07G30G09G16G23G26G27
  -2818874.60947  -2071434.54744  20874142.2664                   20874138.6684
        45.5004         28.0004
   1167127.35946    993546.40642  22919070.7274                   22919070.2114
        37.5004         15.5004
   -579243.50847   -408513.10545  20031468.1094                   20031465.6994
        46.2504         33.5004
   1529539.99247   1201508.64144  21676062.7034                   21676058.0004
        45.0004         29.5004
   1402803.64147   1102361.96144  21420557.4614                   21420551.6174
        45.0004         29.0004
   2785979.04346   2164210.94543  24143518.6954                   24143518.2814
        40.0004         22.5004
  -3406921.62947  -2624779.12944  22696356.0704                   22696354.6914
        42.5004         29.5004
 19  3  5 19 25 40.0000000  0  7G07G30G09G16G23G26G27
  -2836504.61747  -2085172.21144  20870787.8364                   20870783.6804
        45.5004         27.5004
   1142351.29746    974240.37542  22914356.8134                   22914355.8954
        38.5004         17.7504
   -585793.84847   -413617.26645  20030221.4774                   20030219.5274
        46.2504         33.2504
   1532490.71947   1203807.89844  21676623.8834                   21676619.6174
        44.5004         29.5004
   1404922.03947   1104012.65244  21420960.5314                   21420954.4104
        45.0004         28.2504
   2793726.41846   2170247.87143  24144992.7274                   24144992.5234
        40.2504         23.2504
  -3426709.77747  -2640198.46944  22692590.7504                   22692588.5634
        43.2504         29.7504
 19  3  5 19 25 45.0000000  0  7G07G30G09G16G23G26G27
  -2854117.67247  -2098896.67644  20867436.0784                   20867431.6804
        45.2504         27.7504
   1117588.35946    954944.56642  22909643.8284                   22909643.3754
        37.5004         17.2504
   -592320.89847   -418703.27745  20028979.5234                   20028977.2854
        46.0004         33.5004
   1535462.68047   1206123.70744  21677189.8524                   21677185.3674
        44.5004         29.5004
   1407059.97347   1105678.57444  21421367.5634                   21421361.4024
        44.7504         28.7504
   2801486.72346   2176294.85543  24146469.7504                   24146469.3634
        40.0004         22.0004
  -3446475.14147  -2655600.04344  22688829.0084                   22688827.1884
        42.7504         28.5004
 19  3  5 19 25 50.0000000  0  7G07G30G09G16G23G26G27
  -2871713.84047  -2112607.97344  20864087.5164                   20864083.6134
        45.5004         28.2504
   1092838.48846    935658.95742  22904934.2504                   22904934.1454
        37.7504         17.2504
   -598824.69547   -423771.17645  20027741.8594                   20027739.8094
        46.2504         33.0004
   1538455.81647   1208456.02044  21677760.1804                   21677755.3094
        44.7504         29.5004
   1409217.42247   1107359.69944  21421777.5704                   21421772.3594
        45.0004         28.0004
   2809260.02346   2182351.96543  24147948.8204                   24147948.7154
        39.7504         22.5004
  -3466217.75047  -2670983.88744  22685072.3524                   22685070.5124
        43.0004         28.5004
 19  3  5 19 25 55.0000000  0  7G07G30G09G16G23G26G27
  -2889292.93047  -2126305.96544  20860742.3364                   20860738.5554
        45.2504         27.0004
   1068101.97446    916383.79442  22900227.2664                   22900226.7814
        38.0004         17.2504
   -605305.01647   -428820.77745  20026508.6414                   20026506.4534
        46.0004         33.2504
   1541470.28547   1210804.96144  21678333.0084                   21678328.4844
        44.5004         29.2504
   1411394.57047   1109056.18444  21422191.7504                   21422186.6954
        44.5004         28.5004
   2817046.20746   2188419.12943  24149430.4924                   24149430.2894
        40.0004         21.5004
  -3485937.37547  -2686349.82444  22681319.5234                   22681317.9494
        42.5004         29.7504
 19  3  5 19 26  0.0000000  0  7G07G30G09G16G23G26G27
  -2906855.18047  -2139990.83244  20857400.4534                   20857396.6254
        45.0004         27.5004
   1043378.42246    897118.67242  22895522.9924                   22895522.3984
        38.7504         16.7504
   -611762.14847   -433852.30545  20025279.9224                   20025277.7304
        46.0004         33.0004
   1544505.78547   1213170.28144  21678910.4304                   21678906.3244
        44.5004         29.2504
   1413591.11747   1110767.75844  21422610.3914                   21422604.8134
        44.7504         29.0004
   2824845.17246   2194496.22743  24150914.2504                   24150914.5704
        39.7504         22.5004
  -3505634.29347  -2701698.08644  22677571.1334                   22677570.2704
        42.2504         28.0004
 19  3  5 19 26  5.0000000  0  7G07G30G09G16G23G26G27
  -2924400.50447  -2153662.50844  20854061.8594                   20854057.6254
        45.5004         27.0004
   1018668.05146    877863.81642  22890820.3674                   22890820.1564
        38.5004         17.2504
   -618195.98447   -438865.68745  20024055.8364                   20024053.5984
        46.0004         33.0004
   1547562.47347   1215552.11344  21679492.1174                   21679487.6884
        44.5004         29.5004
   1415807.21147   1112494.58244  21423032.2504                   21423026.4024
        45.0004         29.0004
   2832657.03946   2200583.39843  24152400.9534                   24152400.8364
        39.7504         22.5004
  -3525308.35547  -2717028.50844  22673828.0084                   22673826.0204
        43.0004         28.2504
 19  3  5 19 26 10.0000000  0  7G07G30G09G16G23G26G27
  -2941929.34847  -2167321.34844  20850725.8914                   20850721.9804
        45.2504         28.0004
    993970.37146    858618.91043  22886120.7194                   22886120.2154
        37.5004         18.5004
   -624606.93747   -443861.23845  20022835.5084                   20022833.6994
        46.0004         33.0004
   1550639.80147   1217950.03544  21680077.7274                   21680073.4384
        44.7504         29.2504
   1418042.42247   1114236.30944  21423457.8284                   21423451.9264
        44.7504         28.2504
   2840481.21946   2206680.14843  24153890.3284                   24153890.0004
        39.5004         22.5004
  -3544959.99247  -2732341.47744  22670087.9534                   22670086.5474
        42.2504         28.2504
 19  3  5 19 26 15.0000000  0  7G07G30G09G16G23G26G27
  -2959441.73847  -2180967.36344  20847393.8204                   20847389.7274
        45.0004         26.5004
    969285.35946    839383.83242  22881423.2734                   22881423.1134
        37.5004         16.7504
   -630995.08247   -448839.00845  20021619.9144                   20021617.9104
        46.0004         32.7504
   1553737.74647   1220364.02044  21680667.1884                   21680663.0704
        44.5004         29.5004
   1420296.69947   1115992.88744  21423885.8284                   21423880.8094
        44.5004         27.2504
   2848317.76646   2212786.56643  24155381.1414                   24155381.4224
        39.5004         22.7504
  -3564589.24247  -2747636.99644  22666352.5554                   22666351.0904
        43.0004         28.7504
 19  3  5 19 26 20.0000000  0  7G07G30G09G16G23G26G27
  -2976937.64147  -2194600.53144  20844064.1564                   20844060.4224
        45.0004         26.2504
    944613.07446    820158.69142  22876728.3284                   22876728.2154
        39.2504         15.5004
   -637360.42647   -453799.02045  20020408.9454                   20020406.9734
        45.7504         32.2504
   1556856.40647   1222794.14845  21681260.5554                   21681256.4454
        44.5004         30.2504
   1422569.86747   1117764.19144  21424318.9924                   21424313.3954
        44.5004         28.5004
   2856166.72346   2218902.61343  24156874.7504                   24156874.8914
        39.5004         23.0004
  -3584196.16447  -2762915.10544  22662621.7894                   22662620.1954
        43.0004         29.2504
 19  3  5 19 26 25.0000000  0  7G07G30G09G16G23G26G27
  -2994416.48447  -2208220.41844  20840738.0084                   20840734.4454
        45.0004         26.5004
    919954.08646    800943.90242  22872035.2584                   22872035.3324
        37.7504         14.7504
   -643702.32047   -458740.75845  20019201.8984                   20019199.8594
        46.0004         32.7504
   1559996.31347   1225240.82044  21681858.3674                   21681854.3484
        44.5004         29.7504
   1424862.66047   1119550.77344  21424755.3914                   21424749.5664
        44.5004         28.7504
   2864028.67646   2225028.81343  24158370.3754                   24158370.9964
        39.2504         22.5004
  -3603780.03147  -2778175.27744  22658894.7584                   22658893.5434
        42.5004         29.0004
 19  3  5 19 26 30.0000000  0  7G07G30G09G16G23G26G27
  -3011878.52347  -2221827.19944  20837415.1484                   20837411.5514
        44.2504         25.5004
    895308.18446    781739.25842  22867345.0084                   22867345.3204
        36.2504         16.2504
   -650020.60547   -463664.09845  20017999.3594                   20017997.7114
        45.0004         31.7504
   1563157.02747   1227703.70345  21682459.8444                   21682455.6024
        45.7504         30.5004
   1427175.76247   1121353.19544  21425195.3134                   21425189.5274
        44.2504         27.0004
   2871902.89546   2231164.55143  24159868.8674                   24159869.2504
        41.0004         23.0004
  -3623340.57047  -2793417.24244  22655172.5394                   22655171.3554
        42.2504         29.2504
 19  3  5 19 26 35.0000000  0  7G07G30G09G16G23G26G27
  -3029322.74247  -2235420.10244  20834095.8674                   20834091.6054
        44.7504         25.7504
    870676.28945    762545.60242  22862658.0474                   22862658.4144
        35.2504         16.7504
   -656315.17247   -468568.95745  20016801.4144                   20016799.6414
        45.5004         32.0004
   1566339.89847   1230183.86345  21683065.6334                   21683061.2384
        45.7504         30.2504
   1429508.27047   1123170.72744  21425638.7664                   21425633.5474
        43.7504         27.2504
   2879791.21546   2237311.28543  24161370.6174                   24161370.1024
        40.7504         23.0004
  -3642877.91847  -2808641.14144  22651454.5474                   22651452.9884
        42.7504         28.5004
 19  3  5 19 26 40.0000000  0  7G07G30G09G16G23G26G27
  -1471326.44147  -1021397.00044  21130572.0004                   21130568.9734
        44.5004         25.7504
   2421482.64145   1970966.14142  23157766.7194                   23157767.3794
        35.7504         15.5004
    912834.89847    754145.38345  20315400.7734                   20315399.1684
        45.2504         32.2504
   3144963.25047   2460279.98045  21983467.5004                   21983463.3874
        45.7504         30.5004
   3007279.84447   2352603.10944  21725879.1564                   21725873.4494
        44.2504         28.2504
   4463110.76646   3471066.79343  24462665.6174                   24462666.2734
        40.5004         23.0004
  -2086968.34047  -1596244.07844  22947534.3914                   22947533.1684
        42.5004         28.2504
 19  3  5 19 26 45.0000000  0  7G07G30G09G16G23G26G27
  -1488736.93447  -1034963.61744  21127259.2974                   21127255.5784
        44.5004         26.0004
   2396876.94146   1951792.89142  23153084.9774                   23153085.0164
        37.0004         13.7504
    906586.79347    749276.73045  20314211.9144                   20314210.2074
        45.5004         31.5004
   3148188.06347   2462792.82045  21984081.3134                   21984077.1174
        45.7504         31.0004
   3009651.16047   2354450.89544  21726329.5864                   21726324.7974
        43.7504         28.0004
   4471024.52046   3477233.33243  24464171.8284                   24464171.7854
        40.7504         23.0004
  -2106459.99247  -1611432.37144  22943825.3914                   22943823.8094
        42.7504         29.0004
 19  3  5 19 26 50.0000000  0  7G07G30G09G16G23G26G27
  -1506130.81247  -1048517.28544  21123949.4774                   21123945.3094
        44.5004         26.5004
   2372284.09846   1932629.59442  23148403.8754                   23148405.3634
        37.2504         14.7504
    900361.62147    744425.94545  20313027.0474                   20313025.5314
        45.5004         31.7504
   3151433.55147   2465321.77745  21984698.1804                   21984694.5204
        45.5004         30.5004
   3012041.59047   2356313.57044  21726785.0004                   21726779.6254
        44.2504         27.0004
   4478950.64546   3483409.53544  24465679.6804                   24465679.9494
        40.7504         24.0004
  -2125929.05147  -1626603.05544  22940120.3914                   22940119.1954
        42.0004         28.5004
 19  3  5 19 26 55.0000000  0  7G07G30G09G16G23G26G27
  -1523508.15647  -1062058.07044  21120643.0634                   21120638.8914
        44.5004         25.7504
   2347704.02346   1913476.32842  23143726.7734                   23143728.2154
        36.5004         15.5004
    894159.32047    739592.98445  20311847.0784                   20311845.4494
        45.5004         31.7504
   3154699.66447   2467866.79745  21985319.9304                   21985316.0784
        45.5004         31.0004
   3014451.03547   2358191.04344  21727243.5004                   21727237.8834
        44.2504         28.2504
   4486889.10546   3489595.35243  24467190.4694                   24467190.9494
        40.5004         23.5004
  -2145375.57847  -1641756.19544  22936419.8674                   22936418.3244
        42.7504         28.5004
 19  3  5 19 27  0.0000000  0  7G07G30G09G16G23G26G27
  -1540869.44547  -1075586.35544  21117339.0474                   21117335.0594
        44.7504         26.0004
   2323136.29346   1894332.71142  23139051.5704                   23139053.0664
        36.5004         14.7504
    887979.43447    734777.48445  20310671.1094                   20310669.1094
        45.2504         31.5004
   3157985.89847   2470427.49645  21985945.7194                   21985941.5124
        45.5004         30.0004
   3016879.06347   2360083.00844  21727705.6804                   21727699.6764
        44.5004         27.5004
   4494839.39846   3495790.37944  24468703.2424                   24468703.8954
        40.7504         24.5004
  -2164800.05547  -1656892.14144  22932723.5784                   22932721.9264
        42.7504         28.7504
 19  3  5 19 27  5.0000000  0  7G07G30G09G16G23G26G27
  -1558214.94947  -1089102.32844  21114038.2584                   21114034.2664
        44.5004         25.7504
   2298580.53146   1875198.30942  23134379.7274                   23134380.5204
        36.7504         15.5004
    881821.67647    729979.23045  20309499.5314                   20309497.3754
        46.0004         31.7504
   3161291.98447   2473003.66445  21986575.1414                   21986570.6134
        45.5004         30.7504
   3019325.34847   2361989.20344  21728171.2424                   21728165.2664
        44.5004         28.0004
   4502801.29746   3501994.45744  24470218.8134                   24470218.6024
        40.5004         24.5004
  -2184202.69947  -1672011.10544  22929030.6484                   22929030.0904
        42.5004         28.5004
 19  3  5 19 27 10.0000000  0  7G07G30G09G16G23G26G27
  -1575544.34047  -1102605.76644  21110740.2974                   21110736.3594
        44.2504         26.2504
   2274037.195 6                  23129708.875
        36.250
    875686.34847    725198.45345  20308331.7584                   20308330.0204
        45.2504         32.0004
   3164618.17647   2475595.50045  21987207.7424                   21987203.9144
        45.5004         31.0004
   3021790.17247   2363909.84444  21728640.0944                   21728634.4534
        44.5004         27.2504
   4510775.03146   3508207.74244  24471735.8444                   24471735.9964
        40.5004         24.0004
  -2203583.21947  -1687112.78944  22925343.2664                   22925342.1684
        42.5004         28.2504
 19  3  5 19 27 15.0000000  0  7G07G30G09G16G23G26G27
  -1592857.94547  -1116096.87944  21107445.3754                   21107442.0274
        44.5004         25.5004
   2249505.840 5                  23125040.336
        35.000
    869573.17247    720434.94145  20307168.4844                   20307166.6644
        45.2504         32.0004
   3167964.19547   2478202.78145  21987844.4224                   21987839.9924
        45.5004         31.2504
   3024273.30947   2365844.75844  21729112.7034                   21729106.9844
        44.5004         27.5004
   4518760.33246   3514430.05943  24473255.5944                   24473255.7114
        40.7504         23.2504
  -2222941.92647  -1702197.50844  22921659.6174                   22921658.1844
        42.0004         28.7504
 19  3  5 19 27 20.0000000  0  7G07G30G09G16G23G26G27
  -1610155.68447  -1129575.62944  21104154.2424                   21104150.1174
        44.5004         26.5004
   2224986.629 6                  23120375.250
        36.000
    863482.15647    715688.69545  20306009.4064                   20306007.6334
        45.2504         31.5004
   3171330.05147   2480825.53545  21988484.7814                   21988480.6994
        45.7504         31.0004
   3026774.74647   2367793.91444  21729588.7194                   21729583.4144
        44.2504         27.7504
   4526757.16846   3520661.34443  24474777.8204                   24474777.3094
        41.0004         23.7504
  -2242278.69147  -1717265.10544  22917979.1334                   22917978.3594
        42.7504         28.7504
 19  3  5 19 27 25.0000000  0  7G07G30G09G16G23G26G27
  -1627437.56247  -1143042.02344  21100865.3984                   21100861.6954
        44.7504         26.2504
   2200479.520 5                  23115711.031
        35.750
    857413.33647    710959.73445  20304854.5944                   20304852.7154
        45.5004         32.2504
   3174715.71547   2483463.70345  21989128.9064                   21989124.9264
        45.7504         31.5004
   3029294.46547   2369757.33644  21730068.0554                   21730062.7304
        44.5004         28.2504
   4534765.64846   3526901.71544  24476301.3364                   24476301.5744
        40.7504         25.5004
  -2261593.56647  -1732315.66044  22914304.2114                   22914303.2894
        42.7504         28.5004
 19  3  5 19 27 30.0000000  0  7G07G30G09G16G23G26G27
  -1644703.93447  -1156496.34444  21097579.6724                   21097575.6054
        44.7504         27.0004
   2175984.160 6                  23111050.164
        36.500
    851366.35247    706247.80545  20303704.1484                   20303702.1914
        45.2504         31.5004
   3178120.84447   2486117.05145  21989777.3054                   21989772.8674
        45.5004         31.0004
   3031832.14847   2371734.75444  21730551.2194                   21730545.6724
        44.5004         28.7504
   4542785.31646   3533150.79744  24477827.6024                   24477827.3594
        40.7504         24.0004
  -2280886.86347  -1747349.39844  22910632.6954                   22910631.7274
        42.2504         28.5004
 19  3  5 19 27 35.0000000  0  7G07G30G09G16G23G26G27
  -1661954.72347  -1169938.51244  21094297.0314                   21094293.4964
        44.5004         26.7504
   2151500.648 6                  23106390.484
        37.250
    845341.25047    701552.91845  20302557.3754                   20302555.5554
        45.5004         31.7504
   3181545.63347   2488785.71545  21990428.4614                   21990424.7734
        45.7504         31.7504
   3034387.84847   2373726.20744  21731037.6724                   21731032.2814
        45.0004         28.7504
   4550816.27746   3539408.68844  24479355.6724                   24479355.7774
        41.0004         25.0004
  -2300158.53947  -1762366.28144  22906965.4304                   22906964.4614
        42.5004         29.0004
 19  3  5 19 27 40.0000000  0  7G07G30G09G16G23G26G27
  -1679190.05947  -1183368.64144  21091017.2734                   21091013.3164
        44.5004         26.0004
   2127028.742 5                  23101734.578
        35.000
    839337.91047    696874.99245  20301414.9694                   20301413.4924
        45.5004         31.7504
   3184989.74647   2491469.44145  21991084.1954                   21991079.6994
        45.5004         31.7504
   3036961.40647   2375731.56644  21731527.7814                   21731521.8054
        44.7504         28.0004
   4558858.34446   3545675.22744  24480886.4534                   24480886.3674
        40.5004         25.2504
  -2319408.71547  -1777366.40244  22903302.5944                   22903301.5354
        42.5004         28.0004
 19  3  5 19 27 45.0000000  0  7G07G30G09G16G23G26G27
  -1696409.92247  -1196786.71544  21087740.3134                   21087736.5084
        44.7504         27.0004
   2102568.660 5                  23097079.188
        35.750
    833356.35947    692214.03945  20300276.6564                   20300275.1954
        45.5004         31.5004
   3188453.25447   2494168.28145  21991743.3834                   21991738.8714
        45.5004         31.5004
   3039552.85947   2377750.88344  21732020.2274                   21732014.8674
        44.7504         28.2504
   4566911.56646   3551950.46543  24482418.7344                   24482418.8134
        40.7504         23.0004
  -2338637.30547  -1792349.71544  22899643.1024                   22899641.9414
        43.0004         28.2504
 19  3  5 19 27 50.0000000  0  7G07G30G09G16G23G26G27
  -1713614.64547  -1210193.00444  21084466.7034                   21084462.6054
        44.5004         27.2504
   2078119.945 6                  23092426.742
        36.250
    827396.23447    687569.78545  20299142.7814                   20299141.0744
        45.0004         31.5004
   3191935.76247   2496881.92245  21992406.2274                   21992402.1214
        45.7504         31.5004
   3042161.87547   2379783.88344  21732516.6334                   21732511.3484
        44.2504         28.5004
   4574975.53546   3558234.05544  24483953.3444                   24483953.4224
        41.2504         25.5004
  -2357844.68047  -1807316.50444  22895988.2734                   22895987.1094
        42.5004         27.7504
 19  3  5 19 27 55.0000000  0  7G07G30G09G16G23G26G27
  -1730804.35247  -1223587.57044  21081195.5084                   21081191.3014
        44.5004         27.0004
   2053682.457 5                  23087775.945
        35.000
    821457.43047    682942.14845  20298012.2894                   20298010.7894
        45.5004         31.5004
   3195437.13347   2499610.26245  21993071.9694                   21993068.0434
        45.5004         30.5004
   3044788.29747   2381830.43444  21733016.5704                   21733011.1054
        44.2504         27.7504
   4583050.18446   3564525.98844  24485490.0234                   24485489.8014
        41.0004         24.5004
  -2377030.92647  -1822266.82444  22892337.1954                   22892335.9734
        42.5004         27.0004
 19  3  5 19 28  0.0000000  0  7G07G30G09G16G23G26G27
  -1747979.00447  -1236970.41044  21077927.3284                   21077923.2194
        44.5004         26.2504
   2029256.316 5                  23083128.523
        35.750
    815539.99247    678331.15645  20296886.2734                   20296885.0784
        45.0004         31.5004
   3198957.45347   2502353.36745  21993742.2344                   21993738.3094
        45.5004         31.2504
   3047432.14547   2383890.58244  21733519.3524                   21733513.8834
        43.7504         27.5004
   4591135.52046   3570826.25044  24487028.3914                   24487028.2584
        41.0004         26.0004
  -2396196.01247  -1837200.65244  22888689.7034                   22888689.2234
        42.5004         27.7504
 19  3  5 19 28  5.0000000  0  7G07G30G09G16G23G26G27
  -1765138.51647  -1250341.46544  21074661.8054                   21074657.8954
        44.5004         26.0004
   2004841.609 6                  23078482.000
        36.000
    809643.99247    673736.86345  20295764.5944                   20295762.8754
        45.2504         31.2504
   3202496.78947   2505111.29345  21994415.7664                   21994411.7154
        45.5004         31.7504
   3050093.53147   2385964.38744  21734026.6024                   21734020.6804
        44.5004         27.7504
   4599231.59846   3577134.87544  24488569.3284                   24488569.3834
        41.2504         24.5004
  -2415339.81247  -1852117.88744  22885047.6334                   22885046.1684
        42.5004         28.0004
 19  3  5 19 28 10.0000000  0  8G08G07G30G09G16G23G26G27
   2890196.71115                  23808239.570
        35.500
  -1782283.07447  -1263700.85944  21071399.5394                   21071395.5514
        44.5004         25.2504
   1980438.051 6                  23073837.953
        36.500
    803769.23047    669159.13345  20294646.4924                   20294644.7234
        45.2504         31.5004
   3206054.88347   2507883.82445  21995092.9844                   21995088.4804
        45.7504         31.2504
   3052772.20347   2388051.64844  21734536.7344                   21734530.5314
        44.5004         28.0004
   4607338.23446   3583451.72744  24490111.7114                   24490111.9534
        41.0004         24.5004
  -2434462.58647  -1867018.75844  22881408.1024                   22881406.9774
        42.5004         28.5004
 19  3  5 19 28 15.0000000  0  8G08G07G30G09G16G23G26G27
   2864724.930 6                  23803392.469
        36.500
  -1799412.34447  -1277048.34844  21068139.7034                   21068136.1524
        44.7504         26.0004
   1956046.066 6                  23069197.320
        36.750
    797916.05147    664598.20745  20293532.7034                   20293531.0634
        45.5004         32.2504
   3209632.11347   2510671.28545  21995773.7664                   21995769.4534
        45.7504         31.5004
   3055468.50847   2390152.66444  21735049.1414                   21735043.5904
        44.5004         28.2504
   4615455.68046   3589777.02044  24491656.1564                   24491656.3984
        40.5004         24.2504
  -2453563.89847  -1881902.90244  22877773.1024                   22877771.9574
        42.5004         29.5004
 19  3  5 19 28 20.0000000  0  8G08G07G30G09G16G23G26G27
   2839266.012 6                  23798548.430
        36.500
  -1816527.03547  -1290384.46544  21064883.4774                   21064879.1054
        44.5004         26.0004
   1931664.949 6                  23064557.359
        37.500
    792083.75447    660053.56345  20292422.9454                   20292421.3714
        45.2504         31.5004
   3213227.77747   2513473.09845  21996457.6024                   21996453.5394
        45.5004         31.5004
   3058181.79747   2392266.92244  21735565.7664                   21735559.7734
        44.5004         29.0004
   4623583.39446   3596110.29744  24493202.7664                   24493203.2274
        40.7504         24.7504
  -2472644.46947  -1896770.86744  22874142.4924                   22874141.4104
        42.7504         28.2504
 19  3  5 19 28 25.0000000  0  8G08G07G30G09G16G23G26G27
   2813820.367 6                  23793705.742
        37.750
  -1833626.69547  -1303708.86744  21061629.2194                   21061624.9414
        45.0004         26.5004
   1907295.141 6                  23059920.078
        36.250
    786272.77347    655525.51645  20291316.9924                   20291315.4224
        45.5004         32.5004
   3216842.22747   2516289.55545  21997145.6484                   21997141.5124
        45.7504         31.5004
   3060912.44147   2394394.68844  21736084.9304                   21736079.3634
        44.2504         28.2504
   4631721.61746   3602451.76644  24494751.6564                   24494751.8204
        40.5004         25.7504
  -2491703.91047  -1911622.36344  22870515.8204                   22870514.2624
        42.7504         28.5004
 19  3  5 19 28 30.0000000  0  8G08G07G30G09G16G23G26G27
   2788387.695 6                  23788866.984
        38.750
  -1850711.73047  -1317021.88744  21058377.5474                   21058374.0004
        45.0004         26.2504
   1882936.207 6                  23055284.680
        36.500
    780482.73847    651013.80545  20290215.3134                   20290213.7034
        45.5004         32.2504
   3220475.16447   2519120.41445  21997836.9924                   21997832.8674
        45.5004         31.0004
   3063660.12547   2396535.73444  21736607.9534                   21736602.1024
        44.2504         28.5004
   4639870.07046   3608801.18444  24496302.1724                   24496302.6174
        40.7504         25.2504
  -2510742.48047  -1926457.63344  22866892.4844                   22866891.7194
        42.5004         29.2504
 19  3  5 19 28 35.0000000  0  8G08G07G30G09G16G23G26G27
   2762968.297 6                  23784029.125
        38.250
  -1867781.80147  -1330323.23444  21055129.5474                   21055125.7894
        44.7504         26.5004
   1858588.531 5                  23050652.430
        35.750
    774713.93047    646518.62945  20289117.5784                   20289116.0234
        45.2504         31.5004
   3224126.81347   2521965.85245  21998531.8284                   21998527.6684
        45.5004         31.7504
   3066425.10247   2398690.27344  21737133.9844                   21737128.2424
        44.2504         27.7504
   4648028.98446   3615158.79743  24497854.7814                   24497854.9804
        40.7504         22.5004
  -2529759.92647  -1941276.41444  22863274.0394                   22863273.0084
        42.5004         29.2504
 19  3  5 19 28 40.0000000  0  8G08G07G30G09G16G23G26G27
   2737561.39846   2444913.77753  23779194.6024                   23779194.4734
        38.7504         19.5004
  -1884837.53947  -1343613.42644  21051884.1254                   21051879.8094
        44.5004         26.5004
   1834251.453 6                  23046020.273
        37.000
    768965.72747    642039.50845  20288023.4844                   20288021.7934
        45.2504         31.5004
   3227796.52747   2524825.36345  21999229.9224                   21999225.6644
        45.5004         31.0004
   3069206.73847   2400857.77044  21737663.0474                   21737657.7074
        44.2504         28.2504
   4656197.77346   3621524.06344  24499409.1884                   24499409.3984
        40.7504         24.0004
  -2548756.87947  -1956079.22344  22859658.4454                   22859657.5634
        42.5004         28.5004
 19  3  5 19 28 45.0000000  0  8G08G07G30G09G16G23G26G27
   2712167.80546   2425126.56342  23774362.3674                   23774362.2154
        39.5004         17.7504
  -1901878.32847  -1356891.95744  21048641.0554                   21048637.2584
        44.5004         26.7504
   1809925.590 6                  23041391.797
        36.000
    763238.73847    637576.92245  20286933.5634                   20286931.8674
        45.2504         32.0004
   3231484.88347   2527699.41445  21999932.1804                   21999927.3634
        45.5004         31.2504
   3072005.61747   2403038.70744  21738196.1254                   21738190.1564
        45.0004         27.7504
   4664376.99646   3627897.50044  24500965.0234                   24500966.2074
        40.7504         24.7504
  -2567732.69947  -1970865.57444  22856048.0234                   22856046.7304
        42.2504         28.5004
 19  3  5 19 28 50.0000000  0  8G08G07G30G09G16G23G26G27
   2686786.85946   2405349.21942  23769532.8134                   23769532.4694
        40.0004         17.7504
  -1918904.80147  -1370159.33644  21045400.8914                   21045397.1804
        44.7504         26.7504
   1785610.313 6                  23036764.688
        36.750
    757532.31347    633130.35245  20285847.8834                   20285846.1844
        45.2504         32.5004
   3235191.23047   2530587.46945  22000637.5784                   22000633.2504
        45.5004         31.5004
   3074821.09047   2405232.58244  21738731.7034                   21738726.1134
        44.5004         28.2504
   4672566.01746   3634278.54244  24502523.8524                   24502524.0474
        40.5004         24.0004
  -2586687.99647  -1985635.93744  22852440.9304                   22852439.5664
        43.0004         29.2504
 19  3  5 19 28 55.0000000  0  8G08G07G30G09G16G23G26G27
   2661418.38746   2385581.53543  23764705.4844                   23764704.9104
        40.7504         18.2504
  -1935917.09847  -1383415.67244  21042164.0164                   21042159.9884
        45.0004         26.7504
   1761305.480 6                  23032139.164
        36.500
    751846.32447    628699.71145  20284765.7344                   20284764.3244
        45.5004         32.0004
   3238915.46547   2533489.46545  22001346.3754                   22001342.1334
        45.7504         31.5004
   3077653.03547   2407439.28544  21739270.3914                   21739265.1134
        44.7504         28.7504
   4680764.64546   3640667.08244  24504083.6644                   24504084.4184
        40.7504         25.0004
  -2605622.93047  -2000390.41444  22848837.7424                   22848836.2154
        43.2504         28.5004
 19  3  5 19 29  0.0000000  0  8G08G07G30G09G16G23G26G27
   2636066.62946   2365826.94143  23759881.0314                   23759880.3484
        40.0004         20.0004
  -1952915.02747  -1396660.81644  21038929.4144                   21038925.6684
        45.5004         26.0004
   1737011.418 6                  23027516.797
        37.750
    746182.66047    624286.46945  20283688.2894                   20283686.4224
        46.2504         32.7504
   3242656.15647   2536404.29345  22002058.2504                   22002053.5474
        45.7504         31.2504
   3080505.30147   2409661.82044  21739813.5944                   21739807.9224
        44.5004         29.0004
   4688970.40146   3647061.17643  24505646.1094                   24505645.8674
        41.0004         23.7504
  -2624535.77747  -2015127.70344  22845239.3054                   22845237.3404
        43.2504         28.5004
 19  3  5 19 29  5.0000000  0  8G08G07G30G09G16G23G26G27
   2610735.07446   2346088.09443  23755060.4064                   23755059.9264
        40.5004         21.2504
  -1969900.02347  -1409895.86744  21035696.9384                   21035693.1174
        44.5004         25.7504
   1712726.26246   1872153.49253  23022894.5944                   23022900.3954
        37.0004         20.5004
    740541.85247    619891.04345  20282614.6724                   20282612.8674
        45.7504         32.0004
   3246411.89847   2539330.84845  22002772.7114                   22002768.3634
        45.5004         31.2504
   3083380.79747   2411902.46544  21740360.5164                   21740355.1094
        45.0004         29.0004
   4697180.83246   3653458.90643  24507207.8914                   24507208.3954
        40.0004         21.5004
  -2643424.92647  -2029846.50844  22841644.7344                   22841642.8284
        43.5004         29.0004
 19  3  5 19 29 10.0000000  0  8G08G07G30G09G16G23G26G27
   2585415.32447   2326358.41843  23750242.2974                   23750242.0004
        42.5004         23.7504
  -1986867.89147  -1423117.56644  21032467.8364                   21032463.9144
        45.2504         26.0004
   1688456.05546   1853241.68843  23018276.8594                   23018281.8794
        36.5004         18.5004
    734923.34447    615512.99245  20281545.6414                   20281543.4104
        46.2504         31.7504
   3250183.37547   2542269.67245  22003490.4924                   22003485.6054
        45.5004         30.7504
   3086273.38347   2414156.44145  21740911.0474                   21740905.1414
        45.0004         30.0004
   4705397.99646   3659861.91843  24508771.8524                   24508771.6374
        38.7504         22.5004
  -2662295.78547  -2044551.07444  22838053.4694                   22838051.7934
        44.2504         29.7504
 19  3  5 19 29 15.0000000  0  8G08G07G30G09G16G23G26G27
   2560105.58247   2306636.54744  23745426.2344                   23745425.6374
        43.0004         26.5004
  -2003823.42647  -1436329.66844  21029241.7424                   21029237.5044
        44.5004         24.5004
   1664194.34446   1834336.51642  23013660.2424                   23013664.5314
        37.7504         17.2504
    729322.90247    611149.01645  20280479.6254                   20280477.6094
        46.5004         32.2504
   3253972.96147   2545222.60545  22004211.7584                   22004206.8914
        45.7504         30.0004
   3089179.50447   2416420.94545  21741463.8204                   21741458.6254
        45.5004         30.2504
   4713625.89846   3666273.23443  24510338.0474                   24510337.6414
        39.5004         22.2504
  -2681147.35547  -2059240.58645  22834466.1334                   22834464.2194
        44.0004         30.2504
 19  3  5 19 29 20.0000000  0  8G08G07G30G09G16G23G26G27
   2534809.37547   2286925.23044  23740612.3054                   23740612.0784
        42.2504         24.0004
  -2020764.75847  -1449530.70744  21026018.2274                   21026013.5164
        44.5004         25.5004
   1639942.40646   1815438.89142  23009045.6254                   23009049.0514
        36.2504         15.5004
    723743.46947    606801.39645  20279418.4454                   20279415.9614
        46.0004         31.7504
   3257781.25447   2548190.09045  22004936.2664                   22004930.9384
        46.5004         31.2504
   3092102.98047   2418698.98144  21742020.1884                   21742014.4614
        45.0004         28.2504
   4721864.08646   3672692.63743  24511904.9774                   24511904.8364
        40.2504         22.7504
  -2699977.39547  -2073913.36744  22830883.1254                   22830881.1724
        45.0004         29.5004
 19  3  5 19 29 25.0000000  0  8G08G07G30G09G16G23G26G27
   2509522.65247   2267221.30144  23735800.4614                   23735800.0434
        42.5004         25.7504
  -2037687.75847  -1462717.45744  21022797.9614                   21022793.1054
        44.5004         24.2504
   1615704.89546   1796552.52742  23004433.5944                   23004436.4534
        37.7504         14.7504
    718185.39547    602470.44545  20278360.5634                   20278358.3324
        46.0004         31.5004
   3261614.57847   2551177.10944  22005665.4614                   22005661.0394
        46.0004         29.5004
   3095040.17247   2420987.70745  21742579.2974                   21742573.2974
        45.5004         30.0004
   4730121.50446   3679126.93843  24513476.3984                   24513476.6724
        39.7504         22.5004
  -2718785.41447  -2088568.92245  22827303.8594                   22827302.1524
        44.5004         30.0004
 19  3  5 19 29 30.0000000  0  8G08G07G30G09G16G23G26G27
   2484251.62946   2247529.57843  23730991.4144                   23730991.2154
        41.5004         23.5004
  -2054596.58647  -1475893.18444  21019579.9614                   21019575.3674
        45.7504         26.0004
   1591477.93846   1777674.31342  22999821.8754                   22999825.5044
        38.0004         13.7504
    712649.04747    598156.38745  20277307.4614                   20277304.8834
        46.0004         31.5004
   3265464.71147   2554177.20745  22006398.3914                   22006393.8204
        45.5004         30.2504
   3097996.60247   2423291.39844  21743142.7584                   21743136.2304
        45.5004         28.5004
   4738386.83246   3685567.47343  24515049.9844                   24515049.4924
        40.0004         22.0004
  -2737571.66047  -2103207.58644  22823728.6564                   22823727.0864
        43.0004         27.0004
 19  3  5 19 29 35.0000000  0  8G08G07G30G09G16G23G26G27
   2458996.74646   2227850.46543  23726185.1094                   23726185.5354
        41.5004         22.7504
  -2071496.74247  -1489062.14544  21016363.3984                   21016359.5594
        45.2504         26.2504
   1567254.316 6                  22995212.281
        38.250
    707130.92247    593856.53945  20276256.7114                   20276254.6954
        45.0004         31.0004
   3269330.70747   2557189.65245  22007133.6724                   22007129.1524
        45.7504         31.0004
   3100971.12547   2425609.17244  21743708.8754                   21743702.0594
        45.0004         28.0004
   4746659.42647   3692013.61744  24516623.2664                   24516623.5704
        42.2504         25.7504
  -2756335.45747  -2117828.74644  22820157.2274                   22820157.1214
        42.5004         29.0004
 19  3  5 19 29 40.0000000  0  8G08G07G30G09G16G23G26G27
   2433756.06346   2208182.37543  23721382.2974                   23721381.9304
        41.2504         22.5004
  -2088386.24347  -1502222.80444  21013150.0234                   21013145.0514
        45.5004         26.2504
   1543035.51246   1758046.95753  22990604.1724                   22990603.4774
        38.2504         19.2504
    701631.46947    589571.22345  20275210.5784                   20275208.4734
        45.0004         31.0004
   3273215.99647   2560217.14545  22007873.4844                   22007868.5354
        46.5004         32.5004
   3103962.15247   2427939.85244  21744277.3834                   21744271.1414
        43.7504         27.0004
   4754943.65647   3698468.83244  24518200.2584                   24518199.8674
        43.0004         27.5004
  -2775076.33647  -2132432.01244  22816591.6094                   22816590.0234
        43.0004         28.7504
 19  3  5 19 29 45.0000000  0  8G08G07G30G09G16G23G26G27
   2408529.78346   2188525.52343  23716581.1724                   23716581.5124
        39.7504         22.5004
  -2105257.00247  -1515368.86844  21009939.2734                   21009935.2114
        46.2504         27.0004
   1518832.22746   1739187.29343  22985997.5394                   22985998.0824
        38.2504         18.5004
    696156.15247    585304.75445  20274168.3594                   20274166.6094
        45.7504         31.7504
   3277121.70747   2563260.54345  22008616.2504                   22008611.7934
        45.5004         31.2504
   3106972.17147   2430285.31144  21744849.8914                   21744843.8284
        43.7504         25.7504
   4763239.87147   3704933.42644  24519778.6414                   24519778.1644
        42.0004         26.2504
  -2793794.81946  -2147017.86144  22813029.6094                   22813028.1214
        41.5004         27.0004
 19  3  5 19 29 50.0000000  0  8G08G07G30G09G16G23G26G27
   2383320.88746   2168882.24243  23711784.8754                   23711784.2344
        40.7504         22.0004
  -2122108.61747  -1528499.97744  21006732.8444                   21006728.3324
        46.0004         27.2504
   1494644.57446   1720339.73443  22981395.1484                   22981394.8554
        38.7504         18.5004
    690706.19547    581058.03545  20273131.2194                   20273129.0394
        45.5004         32.2504
   3281049.59047   2566321.24645  22009364.0394                   22009359.2384
        45.2504         31.7504
   3110003.51247   2432647.39844  21745426.2814                   21745420.0824
        44.0004         28.5004
   4771549.85946   3711408.73044  24521359.7034                   24521359.6684
        41.2504         24.5004
  -2812488.33247  -2161584.22344  22809472.3914                   22809470.7974
        42.0004         28.5004
 19  3  5 19 29 55.0000000  0  8G08G07G30G09G16G23G26G27
   2358121.82046   2149246.60543  23706989.1484                   23706989.4614
        41.5004         22.7504
  -2138946.87547  -1541620.69944  21003528.6644                   21003524.1134
        46.0004         26.2504
   1470467.35946   1701500.38342  22976795.3364                   22976793.7584
        37.7504         16.7504
    685274.96947    576825.91845  20272097.6174                   20272095.3634
        46.0004         32.5004
   3284993.31347   2569394.27745  22010114.6644                   22010109.4264
        46.0004         32.5004
   3113048.73847   2435020.29344  21746005.9614                   21746000.1174
        44.5004         28.7504
   4779867.80146   3717890.24244  24522943.1724                   24522942.7034
        41.2504         24.7504
  -2831163.99247  -2176136.68744  22805918.6414                   22805916.2584
        44.2504         29.7504
 19  3  5 19 30  0.0000000  0  8G08G07G30G09G16G23G26G27
   2332935.81546   2129621.17243  23702197.2424                   23702196.2814
        40.7504         22.7504
  -2155772.48847  -1554731.55544  21000326.9144                   21000322.0864
        45.2504         25.7504
   1446298.91046   1682667.80542  22972195.7974                   22972194.7934
        37.5004         16.2504
    679863.22347    572608.95345  20271068.2034                   20271065.7304
        45.2504         31.7504
   3288953.62147   2572480.21945  22010867.8524                   22010863.1024
        45.7504         32.5004
   3116110.27147   2437405.87844  21746588.8674                   21746582.4924
        44.5004         29.2504
   4788194.18447   3724378.31344  24524527.7974                   24524526.8954
        42.2504         27.2504
  -2849819.32347  -2190673.31544  22802369.2504                   22802366.8794
        43.7504         29.7504
 19  3  5 19 30  5.0000000  0  8G08G07G30G09G16G23G26G27
   2307761.09846   2110004.53143  23697406.1334                   23697405.4344
        40.0004         22.0004
  -2172584.28147  -1567831.67244  20997127.1884                   20997122.7734
        45.0004         26.5004
   1422140.58646   1663843.13342  22967598.3204                   22967597.2074
        37.5004         16.7504
    674471.21147    568407.38745  20270041.5554                   20270039.1994
        44.7504         31.5004
   3292931.73047   2575580.03545  22011624.7894                   22011619.7974
        45.0004         31.5004
   3119186.91047   2439803.27044  21747173.7894                   21747167.9104
        43.2504         27.2504
   4796530.49246   3730874.12944  24526113.7424                   24526112.9024
        40.5004         26.5004
  -2868454.83647  -2205194.48044  22798822.2814                   22798820.3364
        42.2504         28.2504
 19  3  5 19 30 10.0000000  0  8G08G07G30G09G16G23G26G27
   2282607.28546   2090404.17643  23692619.6884                   23692618.6524
        39.0004         22.0004
  -2189379.23847  -1580918.62944  20993931.3594                   20993926.3674
        43.7504         25.5004
   1397994.23045   1645027.83642  22963003.2664                   22963002.4224
        34.5004         16.2504
    669104.59047    564225.63345  20269020.5164                   20269017.9144
        43.5004         30.7504
   3296930.63747   2578696.09045  22012385.7504                   22012380.9694
        45.7504         33.2504
   3122287.42247   2442219.28944  21747763.7114                   21747757.9024
        42.0004         27.2504
   4804878.32847   3737378.97344  24527702.1094                   24527701.5474
        42.2504         27.0004
  -2887063.48447  -2219694.69544  22795280.9694                   22795279.5394
        42.2504         28.2504
 19  3  5 19 30 15.0000000  0  8G08G07G30G09G16G23G26G27
   2257464.41846   2070812.29743  23687835.0004                   23687834.2464
        41.0004         21.5004
  -2206150.39547  -1593987.10544  20990740.0234                   20990735.6804
        45.2504         27.5004
   1373869.31646   1626229.14542  22958412.7034                   22958411.2424
        39.0004         17.7504
    663763.77047    560063.88745  20268004.4694                   20268001.9574
        45.0004         32.0004
   3300954.05547   2581831.18445  22013151.3134                   22013147.0704
        45.2504         33.0004
   3125404.64847   2444648.21944  21748357.6024                   21748351.8594
        43.0004         28.0004
   4813243.30546   3743897.07044  24529293.4454                   24529293.7034
        40.2504         24.5004
  -2905650.32447  -2234178.00044  22791743.6334                   22791742.6334
        42.5004         28.0004
 19  3  5 19 30 20.0000000  0  8G08G07G30G09G16G23G26G27
   2232339.16046   2051234.11743  23683053.1954                   23683053.3244
        39.2504         20.5004
  -2222913.70347  -1607049.41444  20987549.6414                   20987545.9774
        45.0004         28.5004
   1349745.52046   1607431.41043  22953822.9844                   22953821.5124
        38.0004         19.0004
    658440.76247    555916.08645  20266991.1484                   20266989.1484
        44.7504         32.0004
   3304997.48447   2584981.87145  22013920.7194                   22013916.5164
        45.5004         32.7504
   3128540.00847   2447091.30544  21748953.6954                   21748948.4414
        43.0004         27.5004
   4821621.06646   3750425.20744  24530888.3204                   24530888.4844
        41.0004         27.2504
  -2924211.34447  -2248641.11744  22788212.3134                   22788211.6994
        43.0004         27.5004
 19  3  5 19 30 25.0000000  0  8G08G07G30G09G16G23G26G27
   2207216.83246   2031658.29743  23678273.3984                   23678273.6254
        38.5004         22.5004
  -2239669.98047  -1620106.26644  20984360.9304                   20984358.1644
        44.5004         26.5004
   1325625.53146   1588636.59843  22949231.9144                   22949231.7734
        36.7504         18.2504
    653129.58247    551777.50045  20265980.6954                   20265979.2504
        46.0004         32.5004
   3309052.14847   2588141.35545  22014692.5634                   22014688.6254
        45.5004         32.7504
   3131681.85947   2449539.52744  21749551.5234                   21749546.7384
        44.0004         28.2504
   4830002.99646   3756956.56344  24532483.6024                   24532483.6334
        41.5004         26.5004
  -2942760.16447  -2263094.73044  22784682.1644                   22784682.1134
        43.0004         29.5004
 19  3  5 19 30 30.0000000  0  8G08G07G30G09G16G23G26G27
   2182108.93446   2012093.70343  23673495.3134                   23673495.7504
        36.0004         21.7504
  -2256416.44147  -1633155.44144  20981174.1024                   20981171.7074
        45.7504         28.7504
   1301509.89846   1569845.22343  22944642.5704                   22944642.7424
        40.5004         18.2504
    647836.76247    547653.23445  20264972.9144                   20264972.4964
        44.5004         30.7504
   3313123.15047   2591313.56945  22015466.8674                   22015463.6844
        44.5004         32.5004
   3134840.44546   2452000.73044  21750152.5394                   21750147.3714
        41.5004         25.2504
   4838392.69446   3763494.00344  24534079.5474                   24534080.1994
        41.2504         29.5004
  -2961287.45246  -2277531.58144  22781156.1334                   22781156.1644
        40.0004         26.0004
 19  3  5 19 30 35.0000000  0  8G08G07G30G09G16G23G26G27
   2157017.16046   1992541.66443  23668720.8834                   23668720.6024
        36.5004         21.0004
  -2273145.82047  -1646191.33644  20977990.7734                   20977987.2274
        46.5004         29.0004
   1277406.67647   1551063.45743  22940056.2114                   22940055.8594
        42.0004         18.2504
    642567.25447    543547.11345  20263970.2034                   20263969.7544
        45.0004         31.5004
   3317217.65247   2594504.09845  22016246.0394                   22016242.8554
        43.7504         30.7504
   3138018.21947   2454476.93044  21750757.6254                   21750752.6454
        42.7504         24.7504
   4846798.54346   3770043.98044  24535679.2584                   24535680.3594
        39.5004         25.5004
  -2979789.09046  -2291948.45344  22777636.1254                   22777635.4654
        39.5004         26.0004
 19  3  5 19 30 40.0000000  0  8G08G07G30G09G16G23G26G27
   2131932.25446   1972995.01243  23663947.9064                   23663947.8204
        36.5004         20.5004
  -2289860.68747  -1659215.89844  20974810.8754                   20974807.6054
        43.7504         27.5004
   1253315.77745   1532291.40642  22935472.8914                   22935471.5084
        33.0004         17.2504
    637315.93047    539455.19945  20262972.4694                   20262970.6214
        44.5004         32.2504
   3321328.23047   2597707.15245  22017028.7584                   22017025.1414
        47.0004         35.2504
   3141207.43847   2456962.04744  21751365.3524                   21751359.9534
        42.2504         27.5004
   4855213.10247   3776600.80145  24537281.0314                   24537281.4024
        44.2504         32.5004
  -2998274.70747  -2306352.80145  22774119.2034                   22774117.9414
        42.5004         30.5004
 19  3  5 19 30 45.0000000  0  8G08G07G30G09G16G23G26G27
   2106857.68046   1953456.30142  23659177.2894                   23659176.6454
        40.5004         17.7504
  -2306566.82047  -1672233.68745  20971632.8284                   20971629.6094
        46.0004         30.5004
   1229227.65646   1513521.42242  22930889.3054                   22930888.0824
        38.5004         16.2504
    632080.55147    535375.65245  20261976.5634                   20261975.5554
        45.7504         32.0004
   3325456.03247   2600923.59045  22017815.3444                   22017811.6054
        46.7504         33.7504
   3144409.24647   2459456.94143  21751975.2734                   21751969.6414
        42.5004         22.7504
   4863637.28147   3783165.05545  24538884.5784                   24538885.6054
        42.0004         30.2504
  -3016740.53146  -2320741.77344  22770605.7034                   22770604.7274
        41.5004         28.2504
 19  3  5 19 30 50.0000000  0  8G08G07G30G09G16G23G26G27
   2081797.09446   1933928.64842  23654407.7734                   23654408.5474
        38.5004         17.7504
  -2323256.68747  -1685238.75445  20968456.0004                   20968453.6914
        46.5004         30.5004
   1205150.85546   1494760.25042  22926308.1804                   22926306.9534
        38.5004         16.7504
    626867.04347    531313.20745  20260983.5004                   20260983.0434
        45.7504         32.7504
   3329606.95347   2604158.09045  22018604.0004                   22018601.3874
        46.0004         31.5004
   3147628.06346   2461965.13344  21752587.0704                   21752582.6454
        41.5004         24.2504
   4872077.39146   3789741.80144  24540489.9774                   24540491.8954
        41.7504         25.0004
  -3035182.10546  -2335111.79744  22767095.7814                   22767095.5394
        41.0004         25.2504
 19  3  5 19 30 55.0000000  0  8G08G07G30G09G16G23G26G27
   2056750.69146   1914411.96143  23649641.4534                   23649642.1954
        39.0004         18.2504
  -2339930.90247  -1698231.66045  20965283.3594                   20965280.6094
        47.2504         31.7504
   1181086.21146   1476008.56643  22921728.5554                   22921728.2154
        41.5004         19.0004
    621675.16447    527267.57445  20259995.8834                   20259995.4804
        46.2504         33.5004
   3333777.25847   2607407.67245  22019397.7734                   22019394.9264
        45.0004         30.5004
   3150864.39847   2464486.94544  21753203.5314                   21753198.5434
        43.0004         25.5004
   4880529.22346   3796327.62144  24542098.9384                   24542100.1094
        41.2504         27.0004
  -3053601.53946  -2349464.61344  22763590.2974                   22763590.6414
        41.0004         25.2504
 19  3  5 19 31  0.0000000  0  8G08G07G30G09G16G23G26G27
   2031714.35546   1894903.15243  23644876.8754                   23644878.1024
        39.0004         19.5004
  -2356590.04347  -1711212.80145  20962113.1254                   20962110.6174
        47.0004         31.7504
   1157033.91046   1457266.55143  22917150.6954                   22917151.3324
        41.2504         20.5004
    616503.07447    523237.37545  20259011.6644                   20259011.5274
        46.2504         33.5004
   3337964.52347   2610670.48045  22020194.9844                   22020192.3874
        44.7504         31.5004
   3154114.89547   2467019.78544  21753821.6564                   21753817.2704
        43.0004         26.5004
   4888990.10546   3802920.52344  24543708.6804                   24543710.5474
        41.2504         26.5004
  -3072002.40646  -2363802.93444  22760089.3914                   22760089.1374
        41.5004         25.0004
 19  3  5 19 31  5.0000000  0  8G08G07G30G09G16G23G26G27
   2006691.50846   1875404.76643  23640115.3674                   23640116.5474
        38.5004         19.2504
  -2373234.61347  -1724182.63345  20958945.8834                   20958942.8554
        46.7504         30.7504
   1132992.08246   1438532.65643  22912576.0474                   22912576.6764
        41.2504         22.7504
    611351.59047    519223.22345  20258031.3674                   20258031.2234
        46.0004         32.0004
   3342171.43847   2613948.58245  22020995.6954                   22020992.6374
        45.5004         32.2504
   3157381.84447   2469565.46543  21754443.5634                   21754439.5274
        42.5004         22.7504
   4897463.16247   3809522.90044  24545321.1414                   24545322.7384
        42.0004         26.7504
  -3090381.14847  -2378124.05144  22756591.7424                   22756591.7154
        42.0004         24.5004
 19  3  5 19 31 10.0000000  0  8G08G07G30G09G16G23G26G27
   1981680.48045   1855915.66842  23635355.3134                   23635357.4924
        33.0004         17.7504
  -2389863.57947  -1737140.29145  20955780.6954                   20955778.8674
        47.2504         31.7504
   1108962.07047   1419807.95343  22908002.6644                   22908003.8954
        42.7504         22.2504
    606220.99547    515225.32245  20257054.3284                   20257054.8794
        45.5004         33.0004
   3346397.04747   2617241.24244  22021798.7894                   22021797.1764
        43.0004         27.5004
   3160664.42647   2472123.28943  21755067.4774                   21755064.2234
        42.0004         22.5004
   4905946.71146   3816133.41743  24546935.3984                   24546937.6134
        40.7504         22.5004
  -3108739.37946  -2392429.17643  22753097.4614                   22753098.8794
        38.2504         22.5004
 19  3  5 19 31 15.0000000  0  8G08G07G30G09G16G23G26G27
   1956682.98446   1836437.02042  23630598.7504                   23630600.5354
        36.2504         16.7504
  -2406473.69547  -1750083.23845  20952620.5704                   20952617.6724
        47.7504         32.7504
   1084948.10946   1401095.78543  22903433.2114                   22903433.7344
        40.7504         22.5004
    601114.12147    511245.93845  20256083.3674                   20256082.3164
        46.2504         33.0004
   3350642.16447   2620549.12544  22022607.7194                   22022604.6414
        44.0004         28.7504
   3163965.05947   2474695.19543  21755695.9454                   21755691.6134
        42.5004         22.5004
   4914441.25446   3822752.54744  24548552.2814                   24548553.9694
        41.5004         24.5004
  -3127076.12546  -2406717.59043  22749608.6564                   22749609.2704
        38.5004         22.7504
 19  3  5 19 31 20.0000000  0  8G08G07G30G09G16G23G26G27
   1931696.81646   1816967.30542  23625844.3444                   23625845.9184
        38.5004         16.2504
  -2423072.24648  -1763017.13745  20949462.1724                   20949457.8594
        48.0004         31.7504
   1060941.83646   1382389.59044  22898865.0234                   22898865.0824
        41.7504         24.5004
    596025.19947    507280.57445  20255114.5944                   20255112.7424
        46.0004         32.5004
   3354903.04347   2623869.29744  22023418.4924                   22023413.7344
        43.7504         27.5004
   3167279.87147   2477278.19143  21756326.8364                   21756321.6414
        42.2504         22.7504
   4922943.80546   3829377.93443  24550170.2194                   24550171.3284
        40.5004         23.7504
  -3145393.78146  -2420991.05943  22746122.4924                   22746122.7734
        39.2504         22.5004
 19  3  5 19 31 25.0000000  0  8G08G07G30G09G16G23G26G27
   1906719.86246   1797504.76742  23621091.6954                   23621093.2584
        38.0004         15.5004
  -2439657.68747  -1775940.85545  20946306.0784                   20946301.4654
        47.7504         32.5004
   1036946.43046   1363691.88743  22894299.3754                   22894297.5554
        41.0004         22.7504
    590954.91847    503329.69945  20254149.9384                   20254147.3834
        46.2504         33.2504
   3359176.10947   2627198.95344  22024231.6094                   22024226.6844
        44.5004         29.7504
   3170608.41447   2479871.85244  21756960.4454                   21756954.7114
        43.0004         24.5004
   4931449.43946   3836005.69843  24551788.6484                   24551789.0554
        40.7504         22.7504
  -3163695.68446  -2435252.25443  22742640.1334                   22742639.7544
        40.2504         23.0004
 19  3  5 19 31 30.0000000  0  8G08G07G30G09G16G23G26G27
   1881753.62546   1778050.50442  23616340.1024                   23616341.3714
        38.7504         16.2504
  -2456228.97748  -1788853.56245  20943152.3444                   20943148.3754
        48.2504         33.5004
   1012963.14547   1345003.62144  22889735.3524                   22889734.1884
        42.2504         25.0004
    585904.39147    499394.21145  20253189.2584                   20253187.0594
        46.7504         34.2504
   3363461.84047   2630538.47744  22025047.0634                   22025042.7464
        43.2504         29.0004
   3173952.05147   2482477.25844  21757596.9534                   21757590.5904
        44.0004         26.2504
   4939958.67646   3842636.27043  24553408.2664                   24553408.0984
        40.0004         22.2504
  -3181981.01646  -2449500.58643  22739160.7664                   22739159.5634
        39.7504         22.2504
 19  3  5 19 31 35.0000000  0  8G08G07G30G09G16G23G26G27
   1856798.39846   1758604.89142  23611591.6564                   23611592.5084
        37.5004         17.2504
  -2472780.66848  -1801750.98845  20940002.7114                   20939998.5664
        48.2504         33.5004
    989000.38347   1326331.34844  22885175.2424                   22885174.0864
        42.0004         24.0004
    580877.83247    495477.40645  20252232.2114                   20252230.3834
        46.7504         34.7504
   3367756.92647   2633885.30544  22025864.1094                   22025859.9614
        43.2504         28.7504
   3177313.39147   2485096.46544  21758235.9534                   21758229.8984
        43.5004         27.5004
   4948466.48046   3849265.72743  24555026.9144                   24555027.2034
        40.0004         21.7504
  -3200252.24246  -2463737.88743  22735684.1174                   22735682.7384
        39.2504         22.7504
 19  3  5 19 31 40.0000000  0  8G08G07G30G09G16G23G26G27
   1831854.54746   1739168.21542  23606845.6174                   23606845.6764
        37.5004         16.7504
  -2489320.28147  -1814638.97745  20936855.4924                   20936850.8364
        47.5004         32.0004
    965045.41847   1307665.13344  22880616.5234                   22880615.3594
        42.7504         25.5004
    575869.62147    491574.91045  20251279.1884                   20251277.3554
        45.7504         32.2504
   3372068.66847   2637245.11344  22026684.9924                   22026680.1994
        43.5004         28.5004
   3180689.10946   2487726.89543  21758878.5314                   21758872.8954
        40.7504         22.5004
   4956983.02046   3855901.98843  24556647.7974                   24556647.6254
        40.7504         22.0004
  -3218503.72346  -2477959.77043  22732210.5944                   22732209.4494
        39.2504         22.2504
 19  3  5 19 31 45.0000000  0  8G08G07G30G09G16G23G26G27
   1806919.31346   1719738.04342  23602099.6094                   23602100.8054
        37.2504         15.5004
  -2505857.96547  -1827525.50045  20933708.2274                   20933704.3244
        47.5004         32.5004
    941083.93447   1288993.84743  22876057.0474                   22876055.4734
        42.5004         22.7504
    570871.34847    487680.15645  20250328.1334                   20250325.8674
        45.5004         32.5004
   3376400.25847   2640620.34845  22027508.6024                   22027504.6294
        43.5004         30.0004
   3184072.89146   2490363.65243  21759522.1174                   21759516.4804
        41.0004         23.7504
   4965514.44146   3862549.82443  24558270.4694                   24558271.1174
        40.0004         23.0004
  -3236733.60546  -2492164.94543  22728741.4694                   22728740.0474
        39.5004         23.2504
 19  3  5 19 31 50.0000000  0  8G08G07G30G09G16G23G26G27
   1781992.26646   1700314.48842  23597356.3054                   23597357.6254
        38.2504         16.2504
  -2522383.66447  -1840402.68445  20930563.4224                   20930559.6914
        47.7504         33.0004
    917129.99647   1270328.41444  22871498.7274                   22871497.0044
        43.2504         25.7504
    565889.87947    483798.49245  20249380.2504                   20249377.9924
        46.0004         34.0004
   3380749.82447   2644009.62944  22028336.2664                   22028332.6174
        42.5004         27.7504
   3187467.94947   2493009.11344  21760168.6804                   21760162.5204
        42.0004         26.0004
   4974056.82046   3869206.21143  24559897.1724                   24559896.6174
        39.5004         23.7504
  -3254944.93046  -2506355.57843  22725276.0704                   22725274.5204
        40.5004         23.0004
 19  3  5 19 31 55.0000000  0  8G08G07G30G09G16G23G26G27
   1757080.07846   1680902.26642  23592615.3674                   23592616.9884
        37.0004         16.2504
  -2538892.19148  -1853266.45345  20927422.0314                   20927417.8134
        48.2504         34.2504
    893189.39547   1251673.43044  22866943.3054                   22866942.0984
        43.0004         28.0004
    560931.29347    479934.64845  20248437.0784                   20248435.1254
        46.7504         34.0004
   3385119.98047   2647414.97344  22029168.5084                   22029164.0664
        42.0004         25.7504
   3190881.07446   2495668.70343  21760818.0164                   21760812.4884
        41.7504         22.7504
   4982611.60546   3875872.30543  24561524.2274                   24561524.4774
        39.5004         22.2504
  -3273133.08646  -2520528.16843  22721815.0554                   22721813.6884
        39.2504         22.2504
 19  3  5 19 32  0.0000000  0  8G08G07G30G09G16G23G26G27
   1732181.25846   1661500.67242  23587877.8134                   23587878.7814
        37.0004         15.5004
  -2555386.39148  -1866119.08245  20924283.5634                   20924279.0474
        48.2504         33.5004
    869259.37147   1233026.63744  22862389.7894                   22862388.2624
        42.0004         25.7504
    555993.18047    476086.77045  20247497.0864                   20247494.9924
        46.2504         33.5004
   3389508.25047   2650834.36744  22030003.4304                   22029998.7934
        43.0004         28.0004
   3194310.59047   2498341.03544  21761470.5784                   21761464.8674
        42.2504         25.0004
   4991176.67246   3882546.35543  24563154.1564                   24563154.6454
        39.7504         22.5004
  -3291299.90246  -2534684.12143  22718357.9534                   22718356.7384
        39.0004         22.5004
 19  3  5 19 32  5.0000000  0  8G08G07G30G09G16G23G26G27
   1707297.07046   1642110.31342  23583142.4144                   23583143.6804
        37.7504         15.5004
  -2571868.68247  -1878962.43245  20921146.8364                   20921142.9144
        47.5004         33.5004
    845335.95747   1214385.02344  22857836.1564                   22857835.7304
        42.5004         25.5004
    551074.55347    472254.06545  20246560.8834                   20246559.2034
        45.7504         33.5004
   3393914.82547   2654268.07044  22030842.0864                   22030837.6214
        42.5004         28.7504
   3197757.05346   2501026.58043  21762126.2974                   21762120.4064
        41.5004         22.7504
   4999752.00446   3889228.41843  24564786.1484                   24564786.3714
        40.5004         22.5004
  -3309443.86746  -2548822.26243  22714905.3524                   22714904.1994
        39.2504         22.5004
 19  3  5 19 32 10.0000000  0  8G08G07G30G09G16G23G26G27
   1682421.16846   1622726.50842  23578408.4384                   23578409.7664
        37.0004         15.5004
  -2588338.66047  -1891796.17645  20918012.6024                   20918008.9494
        47.5004         33.5004
    821422.70347   1195751.32044  22853286.2194                   22853285.2384
        43.2504         25.5004
    546173.18047    468434.80945  20245628.1414                   20245626.5784
        46.0004         34.0004
   3398334.14146   2657711.68044  22031682.6954                   22031678.8284
        41.5004         26.7504
   3201215.49247   2503721.44544  21762784.5704                   21762778.5124
        42.2504         25.0004
   5008331.98246   3895914.12343  24566419.2894                   24566419.4224
        39.7504         22.5004
  -3327572.31246  -2562948.32443  22711455.7194                   22711454.7934
        40.0004         22.5004
 19  3  5 19 32 15.0000000  0  8G08G07G30G09G16G23G26G27
   1657555.88746   1603351.03942  23573676.2194                   23573678.6294
        38.5004         15.5004
  -2604793.36747  -1904618.04745  20914881.6414                   20914877.7974
        47.7504         34.0004
    797521.91847   1177127.32044  22848738.1954                   22848737.0394
        42.0004         27.0004
    541291.94947    464631.25445  20244699.5944                   20244697.8054
        46.0004         33.7504
   3402769.65647   2661167.89544  22032527.2114                   22032522.5984
        42.0004         27.7504
   3204688.54747   2506427.72744  21763445.6174                   21763440.0314
        43.0004         25.2504
   5016919.83246   3902605.91843  24568053.1724                   24568053.3164
        40.5004         23.2504
  -3345682.20746  -2577059.95243  22708009.9774                   22708008.5164
        40.5004         22.7504
 19  3  5 19 32 20.0000000  0  8G08G07G30G09G16G23G26G27
   1632705.01646   1583986.68442  23568948.2664                   23568948.7424
        36.2504         15.5004
  -2621232.69948  -1917427.90645  20911753.4774                   20911749.1604
        48.0004         33.7504
    773631.74247   1158511.62144  22844192.0394                   22844191.3204
        43.5004         27.5004
    536432.24247    460844.46545  20243774.6414                   20243772.8984
        45.7504         34.0004
   3407225.74646   2664640.20744  22033375.4694                   22033370.7624
        41.2504         26.5004
   3208178.75046   2509147.37544  21764109.4384                   21764104.0744
        41.2504         25.5004
   5025520.44946   3909307.70743  24569689.6334                   24569690.4304
        39.2504         22.5004
  -3363768.82046  -2591153.39544  22704568.6414                   22704566.6254
        38.7504         24.0004
 19  3  5 19 32 25.0000000  0  8G08G07G30G09G16G23G26G27
   1607870.31646   1564634.89542  23564222.4454                   23564222.8984
        36.5004         14.7504
  -2637657.13347  -1930226.15645  20908627.3754                   20908624.2464
        47.2504         33.5004
    749752.62547   1139904.52044  22839647.6724                   22839647.4774
        42.0004         27.2504
    531594.53947    457074.82445  20242853.4844                   20242852.4924
        45.0004         32.2504
   3411699.87946   2668126.55144  22034225.9224                   22034222.4964
        41.0004         27.0004
   3211687.89546   2511881.76643  21764777.4064                   21764772.0164
        40.2504         22.7504
   5034130.55146   3916016.87543  24571327.7424                   24571328.7424
        40.2504         22.2504
  -3381832.48046  -2605228.94543  22701130.2194                   22701129.4694
        38.5004         22.0004
 19  3  5 19 32 30.0000000  0  8G08G07G30G09G16G23G26G27
   1583042.57046   1545288.68442  23559497.8284                   23559498.3094
        37.5004         15.5004
  -2654074.56647  -1943018.96945  20905503.7274                   20905499.6764
        47.5004         34.0004
    725876.80547   1121300.00444  22835104.3204                   22835104.5354
        42.5004         26.7504
    526769.94547    453315.39845  20241936.0474                   20241934.3324
        46.0004         34.2504
   3416185.75046   2671622.02744  22035080.7114                   22035076.0744
        41.2504         27.0004
   3215206.37146   2514623.42644  21765446.9534                   21765441.7544
        41.5004         25.7504
   5042745.15646   3922729.55543  24572967.7034                   24572968.2274
        40.7504         22.2504
  -3399880.97346  -2619292.71943  22697695.8674                   22697695.0084
        39.5004         22.7504
 19  3  5 19 32 35.0000000  0  8G08G07G30G09G16G23G26G27
   1558226.87145   1525951.72742  23554775.1254                   23554776.2814
        35.7504         15.5004
  -2670477.12147  -1955800.16445  20902381.9144                   20902378.1604
        47.0004         34.0004
    702013.40647   1102705.16044  22830563.0944                   22830562.6374
        43.0004         27.5004
    521966.11747    449572.16845  20241021.6174                   20241020.0984
        45.2504         33.7504
   3420685.20346   2675128.10944  22035935.9144                   22035932.4964
        40.5004         27.0004
   3218741.08646   2517377.75044  21766119.3834                   21766114.3754
        41.0004         25.5004
   5051364.10946   3929445.64143  24574607.3984                   24574608.4844
        39.0004         22.2504
  -3417911.37546  -2633342.36343  22694264.1804                   22694264.0044
        38.7504         22.5004
 19  3  5 19 32 40.0000000  0  8G08G07G30G09G16G23G26G27
   1533425.34445   1506625.91842  23550055.6724                   23550056.6884
        35.7504         14.7504
  -2686859.55947  -1968565.71945  20899264.5864                   20899260.9024
        47.0004         34.0004
    678170.67247   1084126.40244  22826026.4384                   22826025.6914
        43.0004         27.5004
    517187.82047    445848.81345  20240112.4144                   20240110.6484
        45.0004         33.7504
   3425194.72746   2678642.00844  22036794.3284                   22036790.5314
        40.7504         25.0004
   3222296.04746   2520147.83244  21766796.3134                   21766791.0824
        41.5004         26.0004
   5059982.10246   3936160.92643  24576248.2194                   24576248.0314
        39.0004         21.7504
  -3435925.41846  -2647379.27343  22690836.4064                   22690835.7774
        39.5004         22.0004
 19  3  5 19 32 45.0000000  0  8G08G07G30G09G16G23G26G27
   1508638.24246   1487311.26642  23545338.2424                   23545339.6134
        36.0004         15.5004
  -2703225.91047  -1981318.71545  20896150.2504                   20896146.2734
        47.5004         34.2504
    654342.05147   1065558.66044  22821491.4384                   22821490.5474
        42.5004         28.2504
    512432.14147    442143.08645  20239207.5554                   20239205.6454
        45.5004         33.7504
   3429717.66446   2682166.37544  22037655.4614                   22037650.8164
        39.7504         26.0004
   3225869.75446   2522932.53944  21767475.9924                   21767470.5594
        41.0004         27.0004
   5068603.78946   3942879.13343  24577888.2814                   24577888.5204
        39.0004         21.2504
  -3453920.21946  -2661401.20743  22687412.3134                   22687411.4454
        39.5004         22.0004
 19  3  5 19 32 50.0000000  0  8G08G07G30G09G16G23G26G27
   1483862.53945   1468005.56642  23540623.6724                   23540624.6454
        35.7504         15.5004
  -2719579.82447  -1994062.01645  20893038.1484                   20893033.9064
        47.0004         34.0004
    630522.18847   1046997.71544  22816958.8444                   22816957.8954
        42.2504         27.7504
    507694.94547    438451.77345  20238305.8204                   20238304.1174
        45.5004         33.7504
   3434255.96946   2685702.71544  22038518.2034                   22038514.4924
        41.2504         26.5004
   3229457.77046   2525728.38344  21768158.3674                   21768153.4844
        41.5004         26.0004
   5077232.71546   3949602.94543  24579530.5634                   24579530.5084
        39.5004         21.2504
  -3471896.04346  -2675408.32843  22683991.5784                   22683990.7194
        39.2504         22.0004
 19  3  5 19 32 55.0000000  0  8G08G07G30G09G16G23G26G27
   1459097.73045   1448708.23042  23535910.7114                   23535912.9224
        35.0004         14.7504
  -2735921.71547  -2006795.96145  20889928.3524                   20889924.6764
        46.7504         33.2504
    606710.73847   1028443.33244  22812427.8914                   22812426.7074
        42.5004         29.0004
    502975.87147    434774.55945  20237408.0474                   20237406.0514
        45.5004         34.0004
   3438809.26246   2689250.73844  22039385.0554                   22039381.0984
        40.5004         26.2504
   3233059.68046   2528535.08244  21768844.4224                   21768838.3794
        41.5004         25.2504
   5085868.52746   3956332.17243  24581174.6024                   24581173.9884
        39.0004         20.7504
  -3489853.19546  -2689400.91443  22680575.0004                   22680573.5634
        39.0004         22.2504
 19  3  5 19 33  0.0000000  0  8G08G07G30G09G16G23G26G27
   1434344.29346   1429419.90242  23531200.7584                   23531201.8484
        36.2504         13.7504
  -2752251.18447  -2019520.22745  20886821.1954                   20886817.1414
        47.0004         34.2504
    582908.02747   1009895.78944  22807898.0864                   22807897.0354
        42.0004         29.0004
    498275.35947    431111.83645  20236513.5164                   20236511.3524
        45.5004         33.5004
   3443377.91046   2692810.71944  22040255.0164                   22040250.7584
        40.2504         26.5004
   3236675.91046   2531352.90244  21769532.6174                   21769526.6954
        41.0004         26.0004
   5094511.58246   3963066.99643  24582818.3984                   24582818.6764
        38.7504         20.2504
  -3507791.33646  -2703378.68443  22677161.4774                   22677160.1914
        39.0004         22.5004
 19  3  5 19 33  5.0000000  0  8G08G07G30G09G16G23G26G27
   1409601.96146   1410140.12942  23526493.2274                   23526493.6484
        37.5004         13.7504
  -2768568.49647  -2032235.02045  20883716.3284                   20883712.1724
        47.0004         33.7504
    559113.87947    991354.88744  22803370.3834                   22803369.0554
        42.0004         29.2504
    493593.09047    427463.31345  20235622.4534                   20235620.5904
        45.5004         33.5004
   3447961.66446   2696382.48044  22041126.8134                   22041122.3634
        40.5004         27.5004
   3240306.18046   2534181.68044  21770223.3284                   21770217.7974
        41.5004         26.5004
   5103161.59046   3969807.27943  24584464.2894                   24584464.5044
        39.2504         20.2504
  -3525710.69946  -2717341.77743  22673751.0704                   22673750.0044
        39.2504         22.5004
 19  3  5 19 33 10.0000000  0  8G08G07G30G09G16G23G26G27
   1384871.25446   1390869.49642  23521787.5784                   23521787.5634
        36.7504         13.7504
  -2784873.03947  -2044939.85545  20880613.2664                   20880609.4734
        47.0004         34.0004
    535328.79347    972821.07044  22798844.6334                   22798843.3444
        42.0004         28.5004
    488929.61747    423829.43845  20234735.3834                   20234733.3714
        45.2504         33.5004
   3452561.03146   2699966.39544  22042001.8134                   22041997.9064
        40.7504         25.7504
   3243951.02346   2537021.81644  21770916.9224                   21770911.1804
        41.2504         26.7504
   5111819.23846   3976553.47043  24586111.9144                   24586112.4064
        39.5004         20.2504
  -3543610.66846  -2731289.82443  22670345.4064                   22670343.8984
        39.0004         22.7504
 19  3  5 19 33 15.0000000  0  8G08G07G30G09G16G23G26G27
   1360152.64546   1371608.19142  23517083.3984                   23517083.8284
        37.0004         13.7504
  -2801164.48847  -2057634.48045  20877513.4614                   20877508.9574
        47.0004         34.2504
    511553.16047    954294.60244  22794319.4774                   22794318.8324
        42.2504         29.0004
    484285.30147    420210.46545  20233851.4384                   20233849.1764
        45.2504         33.7504
   3457176.30946   2703562.70744  22042880.3984                   22042875.7274
        40.7504         26.0004
   3247610.75046   2539873.54744  21771612.7584                   21771607.5084
        41.2504         25.5004
   5120484.64846   3983305.75043  24587760.7504                   24587760.9304
        39.0004         20.2504
  -3561490.93746  -2745222.51743  22666942.4384                   22666940.9804
        39.2504         22.5004
 19  3  5 19 33 20.0000000  0  8G08G07G30G09G16G23G26G27
   1335445.75445   1352356.05542  23512381.4454                   23512382.5744
        35.5004         12.5004
  -2817443.07847  -2070319.11345  20874415.4694                   20874411.6414
        46.5004         33.5004
    487786.70347    935775.29744  22789797.2974                   22789795.9614
        42.0004         27.5004
    479659.85247    416606.24245  20232971.2344                   20232968.9414
        45.0004         33.5004
   3461807.27346   2707171.25844  22043761.6484                   22043757.1454
        40.5004         26.0004
   3251285.12146   2542736.70744  21772311.9454                   21772306.7624
        41.5004         25.5004
   5129157.59046   3990063.87943  24589410.8524                   24589411.2544
        39.0004         21.5004
  -3579351.77346  -2759140.03943  22663544.2894                   22663542.4964
        39.5004         22.5004
 19  3  5 19 33 25.0000000  0  8G08G07G30G09G16G23G26G27
   1310751.32446   1333113.73442  23507682.5944                   23507683.5354
        36.0004         13.7504
  -2833708.23447  -2082993.25045  20871320.3364                   20871316.3554
        47.0004         34.5004
    464030.08647    917263.63744  22785276.3594                   22785275.3164
        42.0004         28.2504
    475053.95347    413017.22745  20232095.1174                   20232092.8164
        44.7504         33.5004
   3466454.59446   2710792.55144  22044645.6334                   22044641.4494
        40.7504         26.0004
   3254974.77046   2545611.75444  21773014.3984                   21773008.7584
        41.2504         25.2504
   5137838.85946   3996828.51643  24591063.2664                   24591062.9614
        40.0004         20.2504
  -3597192.47746  -2773041.86743  22660148.5944                   22660147.5864
        39.2504         22.5004
 19  3  5 19 33 30.0000000  0  8G08G07G30G09G16G23G26G27
   1286069.30945   1313880.96142  23502985.6254                   23502986.2624
        35.0004         14.7504
  -2849959.93747  -2095656.92245  20868227.9304                   20868223.6564
        47.0004         34.5004
    440283.25847    898759.65244  22780757.5164                   22780756.5234
        42.2504         29.2504
    470467.58247    409443.42645  20231222.1644                   20231220.0864
        44.7504         34.0004
   3471118.14546   2714426.47744  22045532.9924                   22045528.9804
        40.5004         26.2504
   3258679.66047   2548498.66444  21773719.8754                   21773713.9024
        42.2504         27.5004
   5146528.24246   4003599.43843  24592716.5864                   24592716.5514
        40.0004         19.5004
  -3615013.08646  -2786928.05943  22656757.3364                   22656756.1374
        38.7504         22.5004
 19  3  5 19 33 35.0000000  0  8G08G07G30G09G16G23G26G27
   1261399.71546   1294657.87542  23498291.1484                   23498291.9614
        36.2504         15.5004
  -2866198.12947  -2108310.05145  20865137.7584                   20865133.5594
        47.2504         34.0004
    416546.16446    880263.19544  22776240.6724                   22776239.7934
        41.5004         28.2504
    465900.71547    405884.82445  20230352.9694                   20230350.5124
        45.2504         33.2504
   3475798.64146   2718073.61344  22046423.4694                   22046419.6914
        41.0004         26.5004
   3262399.69946   2551397.38344  21774427.9384                   21774421.6294
        41.5004         25.5004
   5155226.73046   4010377.47343  24594372.3134                   24594371.9304
        40.0004         20.7504
  -3632813.14846  -2800798.21943  22653369.8984                   22653369.0204
        40.0004         22.5004
 19  3  5 19 33 40.0000000  0  8G08G07G30G09G16G23G26G27
   1236742.19946   1275444.26642  23493598.9454                   23493599.8524
        36.5004         15.5004
  -2882426.32447  -2120955.38745  20862049.8834                   20862045.4454
        47.2504         33.7504
    392812.14147    861769.16844  22771724.5634                   22771723.3914
        43.0004         27.5004
    461350.23847    402339.02345  20229487.1804                   20229484.8554
        45.2504         33.2504
   3480501.51646   2721738.20344  22047318.3284                   22047314.1254
        41.5004         28.2504
   3266132.32447   2554305.95344  21775138.2114                   21775131.8484
        42.0004         25.7504
   5163941.46546   4017168.19943  24596030.5864                   24596030.0944
        39.2504         22.0004
  -3650589.27046  -2814649.74644  22649987.8524                   22649986.1914
        39.7504         24.5004
 19  3  5 19 33 45.0000000  0  8G08G07G30G09G16G23G26G27
   1212093.19546   1256237.25442  23488907.6484                   23488909.2344
        37.2504         15.5004
  -2898646.14547  -2133594.20745  20858963.1024                   20858958.6294
        47.2504         33.5004
    369080.38747    843276.90244  22767208.4064                   22767206.9104
        42.5004         27.2504
    456813.33647    398803.77745  20228623.7664                   20228621.1334
        46.0004         34.0004
   3485225.44546   2725419.17244  22048218.2034                   22048213.1374
        41.7504         29.0004
   3269873.89847   2557221.46144  21775849.7584                   21775843.4384
        42.0004         25.5004
   5172672.19546   4023971.34043  24597692.2344                   24597691.7074
        39.5004         22.5004
  -3668344.05546  -2828484.62543  22646608.8914                   22646607.1094
        39.5004         22.7504
 19  3  5 19 33 50.0000000  0  8G08G07G30G09G16G23G26G27
   1187459.55155   1237042.23052  23484220.7344                   23484220.8444
        35.5004         15.5004
  -2914850.27347  -2146220.78945  20855879.6724                   20855875.0044
        47.2504         33.5004
    345359.15246    824792.82044  22762694.4844                   22762692.6644
        41.7504         26.7504
    452298.44547    395285.68845  20227764.2894                   20227761.8714
        44.7504         33.2504
   3489970.37146   2729116.53544  22049120.8444                   22049116.1604
        41.0004         28.2504
   3273633.22346   2560150.79344  21776565.4844                   21776558.6724
        40.2504         24.7504
   5181415.77746   4030784.51643  24599355.6414                   24599355.0124
        40.2504         22.2504
  -3686074.61346  -2842300.63343  22643234.7894                   22643233.4614
        39.0004         22.7504
 19  3  5 19 33 55.0000000  0  8G08G07G30G09G16G23G26G27
   1162839.48846   1217857.75442  23479535.8134                   23479536.1174
        39.0004         14.7504
  -2931038.65247  -2158835.11745  20852798.7894                   20852794.5944
        47.0004         33.5004
    321650.56346    806318.59844  22758183.0234                   22758180.6254
        41.2504         27.5004
    447804.62547    391784.00845  20226909.0084                   20226906.7544
        46.0004         34.2504
   3494733.49246   2732828.03944  22050027.3524                   22050022.3914
        41.7504         28.5004
   3277408.75847   2563092.76644  21777283.5634                   21777277.2194
        42.2504         26.0004
   5190169.95346   4037605.95343  24601021.6564                   24601021.1764
        40.7504         22.0004
  -3703783.63746  -2856099.88744  22639864.4844                   22639862.9104
        40.7504         24.0004
 19  3  5 19 34  0.0000000  0  8G08G07G30G09G16G23G26G27
   1138233.27046   1198684.03542  23474852.1094                   23474853.7464
        36.0004         13.7504
  -2947214.54647  -2171439.69745  20849720.7034                   20849716.8554
        47.0004         34.0004
    297949.78646    787850.49844  22753672.3054                   22753671.1804
        41.5004         28.2504
    443330.08147    388297.36045  20226057.6884                   20226055.7624
        45.5004         33.5004
   3499514.59746   2736553.60144  22050936.8204                   22050932.2894
        41.5004         29.0004
   3281200.14846   2566047.10544  21778004.9844                   21777998.8834
        41.5004         25.5004
   5198934.21546   4044435.27243  24602688.6804                   24602688.9184
        40.5004         22.2504
  -3721470.57446  -2869881.85943  22636498.9144                   22636497.4144
        39.2504         22.7504
 19  3  5 19 34  5.0000000  0  8G08G07G30G09G16G23G26G27
   1113640.45345   1179520.86342  23470173.0554                   23470174.1684
        34.5004         15.5004
  -2963375.55547  -2184032.69945  20846645.1724                   20846641.2774
        47.0004         33.5004
    274261.21547    769391.84044  22749164.4224                   22749163.1254
        42.0004         27.2504
    438876.53947    384827.05545  20225210.3674                   20225208.1724
        45.0004         33.5004
   3504310.19546   2740290.41844  22051848.7974                   22051845.0044
        41.5004         28.0004
   3285008.27046   2569014.46944  21778730.1334                   21778724.1764
        41.0004         24.0004
   5207704.08646   4051268.91043  24604358.4144                   24604357.5784
        39.0004         22.0004
  -3739138.00446  -2883648.70744  22633136.4384                   22633135.8674
        39.0004         25.0004
 19  3  5 19 34 10.0000000  0  8G08G07G30G09G16G23G26G27
   1089061.10546   1160368.09442  23465496.4694                   23465496.6524
        36.2504         16.2504
  -2979521.79347  -2196614.18445  20843573.0634                   20843568.4734
        47.7504         33.5004
    250584.29747    750942.31344  22744659.5004                   22744657.5594
        43.7504         28.5004
    434443.53947    381372.77745  20224366.5394                   20224364.0864
        45.7504         32.7504
   3509122.51946   2744040.27944  22052765.1334                   22052760.4104
        41.2504         25.7504
   3288832.55947   2571994.43443  21779457.6884                   21779451.2234
        42.0004         22.5004
   5216482.84046   4058109.50343  24606028.4774                   24606028.3954
        40.0004         22.5004
  -3756784.62546  -2897399.30543  22629779.2814                   22629777.3324
        39.0004         22.5004
 19  3  5 19 34 15.0000000  0  8G08G07G30G09G16G23G26G27
   1064493.74645   1141224.71142  23460821.6254                   23460821.6884
        35.7504         16.2504
  -2995652.54347  -2209183.59845  20840503.1804                   20840498.5514
        47.5004         33.7504
    226919.61747    732502.30144  22740156.0474                   22740154.1604
        42.0004         26.2504
    430031.16047    377934.55545  20223526.8674                   20223524.3554
        45.5004         33.2504
   3513951.68846   2747803.24644  22053684.1724                   22053679.2974
        41.0004         26.0004
   3292672.10246   2574986.26643  21780187.9384                   21780181.8324
        41.2504         23.7504
   5225270.03946   4064956.66043  24607701.1564                   24607700.6054
        39.5004         22.2504
  -3774411.25846  -2911134.35243  22626424.8914                   22626422.8984
        39.0004         22.2504
 19  3  5 19 34 20.0000000  0  8G08G07G30G09G16G23G26G27
   1039939.14545   1122091.21542  23456148.3594                   23456149.4104
        34.7504         16.7504
  -3011769.69147  -2221742.41845  20837436.1884                   20837431.9774
        47.5004         33.7504
    203264.41447    714069.68844  22735654.2814                   22735652.7734
        42.7504         28.0004
    425638.30147    374511.54745  20222691.3054                   20222688.6374
        45.5004         33.2504
   3518798.57046   2751580.05944  22054606.3984                   22054601.9344
        40.5004         25.5004
   3296526.75047   2577989.88744  21780921.8444                   21780915.1954
        42.5004         25.0004
   5234067.26346   4071811.61843  24609374.5084                   24609374.2234
        40.0004         21.2504
  -3792016.54346  -2924852.74643  22623075.4614                   22623072.9264
        39.0004         22.5004
 19  3  5 19 34 25.0000000  0  8G08G07G30G09G16G23G26G27
   1015399.89846   1102969.77342  23451478.0474                   23451479.5274
        36.0004         16.7504
  -3027871.86347  -2234289.57245  20834372.0084                   20834367.2624
        47.0004         33.0004
    179620.92646    695646.18144  22731154.8444                   22731153.6684
        41.0004         27.0004
    421266.97647    371105.31545  20221859.2424                   20221856.8914
        45.2504         32.0004
   3523662.00447   2755369.72344  22055532.0394                   22055527.2034
        42.7504         26.5004
   3300399.37146   2581007.50044  21781658.5394                   21781652.2734
        41.2504         24.2504
   5242872.66946   4078672.99743  24611050.5234                   24611049.6994
        41.0004         21.7504
  -3809600.11346  -2938554.21943  22619728.6414                   22619726.6524
        39.0004         23.0004
 19  3  5 19 34 30.0000000  0  8G08G07G30G09G16G23G26G27
                                  23446810.3754                   23446812.0594
        32.0004         16.2504
  -3043962.78547  -2246827.94945  20831309.3674                   20831305.2384
        47.5004         33.5004
    155984.63747    677228.29745  22726657.1174                   22726655.7664
        43.0004         30.5004
    416912.84047    367712.48445  20221030.2894                   20221028.2344
        44.5004         31.5004
   3528541.38346   2759171.85543  22056460.7894                   22056455.9574
        39.7504         23.7504
   3304284.94546   2584035.24243  21782397.5554                   21782391.6804
        40.7504         22.5004
   5251686.49846   4085540.87643  24612728.0704                   24612726.9734
        39.7504         21.7504
  -3827164.17646  -2952240.50843  22616385.7424                   22616384.1804
        38.5004         21.7504
 19  3  5 19 34 35.0000000  0  8G08G07G30G09G16G23G26G27
    966357.39845   1064754.86742  23442145.1724                   23442147.3094
        35.7504         15.5004
  -3060040.26247  -2259355.84845  20828250.5234                   20828245.9024
        47.5004         33.5004
    132357.30147    658817.39844  22722160.9144                   22722159.2814
        43.5004         29.5004
    412578.79747    364335.30545  20220205.8204                   20220203.0354
        45.5004         32.2504
   3533437.72746   2762987.17643  22057392.3984                   22057387.6134
        40.2504         23.7504
   3308186.84046   2587075.66043  21783139.5234                   21783133.6764
        40.7504         22.5004
   5260508.89846   4092415.50443  24614406.7034                   24614406.0944
        39.0004         21.5004
  -3844706.69946  -2965909.98043  22613048.0944                   22613045.8674
        38.7504         22.0004
 19  3  5 19 34 40.0000000  0  8G08G07G30G09G16G23G26G27
    941855.89545   1045662.69942  23437482.6334                   23437484.7664
        35.5004         14.7504
  -3076101.84847  -2271871.37945  20825194.1254                   20825189.0704
        47.2504         33.5004
    108743.32847    640416.90244  22717667.4774                   22717665.3204
        42.2504         28.7504
    408265.92247    360974.62145  20219385.2114                   20219382.2384
        45.7504         33.0004
   3538349.69146   2766814.66844  22058326.7344                   22058321.9494
        41.5004         26.5004
   3312104.75846   2590128.58643  21783886.4614                   21783879.2974
        41.7504         23.5004
   5269338.63246   4099295.78543  24616086.4774                   24616086.1954
        39.7504         20.2504
  -3862229.50046  -2979564.12143  22609713.1804                   22609711.0164
        39.2504         22.5004
 19  3  5 19 34 45.0000000  0  8G08G07G30G09G16G23G26G27
    917368.84845   1026581.89542  23432823.5474                   23432825.2624
        32.7504         13.7504
  -3092147.98047  -2284374.87945  20822140.7114                   20822136.2344
        47.5004         33.7504
     85141.67647    622026.00845  22713176.2194                   22713174.2194
        43.0004         30.0004
    403974.39147    357630.56645  20218568.3204                   20218565.2974
        45.0004         32.5004
   3543279.20346   2770655.85944  22059264.8984                   22059260.1024
        40.5004         25.0004
   3316039.64546   2593194.70744  21784634.9304                   21784627.9804
        40.7504         24.0004
   5278177.83746   4106183.49143  24617769.1954                   24617768.5274
        39.5004         20.5004
  -3879730.47346  -2993201.24643  22606383.5864                   22606380.9694
        37.7504         22.0004
 19  3  5 19 34 50.0000000  0  8G08G07G30G09G16G23G26G27
    892895.57445   1007511.86742  23428166.1254                   23428167.9614
        34.0004         15.5004
  -3108178.64547  -2296866.29345  20819090.0394                   20819085.4264
        47.2504         33.5004
     61551.34847    603643.96144  22708686.7344                   22708685.0744
        43.0004         28.5004
    399703.78147    354302.83645  20217755.4614                   20217753.1484
        44.5004         32.0004
   3548228.55546   2774512.49244  22060206.3594                   22060202.2114
        40.5004         25.0004
   3319990.57846   2596273.38343  21785385.8054                   21785379.8054
        39.5004         22.0004
   5287029.30546   4113080.71943  24619453.0164                   24619452.5984
        40.5004         21.2504
  -3897208.62546  -3006820.53543  22603056.9694                   22603054.7274
        38.5004         22.5004
 19  3  5 19 34 55.0000000  0  8G08G07G30G09G16G23G26G27
    868437.41446    988453.55542  23423511.7114                   23423513.9304
        36.5004         16.2504
  -3124194.26647  -2309346.00845  20816042.4144                   20816037.7234
        47.5004         33.5004
     37971.99247    585270.41044  22704199.9384                   22704198.4884
        42.0004         27.5004
    395454.42247    350991.63345  20216947.3754                   20216944.6604
        46.0004         33.5004
   3553196.40046   2778383.55344  22061152.3444                   22061147.0394
        40.5004         26.0004
   3323958.74247   2599365.43044  21786142.2194                   21786135.0824
        42.2504         27.0004
   5295891.39546   4119986.23843  24621139.7504                   24621138.8444
        40.0004         21.2504
  -3914663.96546  -3020422.12143  22599735.0784                   22599732.7154
        39.5004         22.7504
 19  3  5 19 35  0.0000000  0  8G08G07G30G09G16G23G26G27
    843995.60245    969407.98042  23418861.7584                   23418862.6174
        33.7504         15.5004
  -3140192.12547  -2321811.87545  20812997.8674                   20812993.4414
        47.7504         33.2504
     14407.12147    566908.18044  22699715.8054                   22699713.7504
        43.2504         28.2504
    391228.82847    347698.96545  20216142.8444                   20216140.2544
        45.0004         32.7504
   3558182.98046   2782269.18444  22062101.1174                   22062095.6294
        39.7504         25.2504
   3327946.14146   2602472.51244  21786900.9144                   21786894.0394
        40.5004         24.0004
   5304763.68446   4126899.71543  24622828.0474                   24622826.9454
        39.0004         20.5004
  -3932095.87946  -3034005.43443  22596417.7274                   22596415.9694
        38.0004         22.0004
 19  3  5 19 35  5.0000000  0  8G08G07G30G09G16G23G26G27
    819566.23846    950372.09842  23414212.8284                   23414213.6604
        37.2504         16.2504
  -3156175.96947  -2334266.79345  20809956.6804                   20809951.5744
        47.7504         33.5004
     -9146.50447    548554.70744  22695233.8674                   22695231.4414
        42.5004         28.0004
    387022.93447    344421.65245  20215342.6484                   20215339.8094
        46.0004         33.5004
   3563184.40646   2786166.38344  22063053.0634                   22063047.1954
        41.2504         26.5004
   3331948.67247   2605591.35544  21787661.2894                   21787655.5044
        42.5004         26.0004
   5313642.63346   4133818.35543  24624517.4224                   24624516.5944
        40.5004         21.2504
  -3949508.55946  -3047573.73843  22593104.9144                   22593102.9964
        39.7504         22.5004
 19  3  5 19 35 10.0000000  0  8G08G07G30G09G16G23G26G27
    795149.73845    931346.19942  23409565.7274                   23409567.5944
        32.7504         14.7504
  -3172147.82847  -2346712.39545  20806916.9144                   20806912.1804
        47.0004         33.2504
    -32692.64547    530207.07444  22690752.6334                   22690750.7774
        42.0004         27.7504
    382835.54747    341158.75045  20214545.5394                   20214542.9844
        44.2504         31.7504
   3568201.95746   2790076.18644  22064007.9774                   22064002.4734
        41.2504         26.7504
   3335966.06346   2608721.78143  21788427.0784                   21788420.1334
        39.2504         22.5004
   5322529.67246   4140743.34043  24626208.2274                   24626207.6294
        40.5004         21.0004
  -3966900.47346  -3061125.87143  22589795.5864                   22589793.2034
        38.5004         22.2504
 19  3  5 19 35 15.0000000  0  8G08G07G30G09G16G23G26G27
    770744.14545    912328.97342  23404922.1724                   23404923.1884
        34.7504         14.7504
  -3188109.13347  -2359149.78945  20803879.7194                   20803875.2034
        47.7504         34.2504
    -56231.45747    511865.14544  22686273.9614                   22686272.1914
        43.0004         29.5004
    378664.77347    337908.78945  20213752.3284                   20213749.5044
        45.2504         33.5004
   3573233.60246   2793996.93644  22064964.7504                   22064960.2734
        40.0004         26.0004
   3339996.14546   2611862.09843  21789193.3834                   21789186.9184
        41.5004         22.5004
   5331423.58646   4147673.65243  24627901.2424                   24627900.1524
        40.0004         22.0004
  -3984273.84046  -3074663.57043  22586489.3594                   22586487.0704
        38.5004         22.5004
 19  3  5 19 35 20.0000000  0  8G08G07G30G09G16G23G26G27
    746351.85945    893321.91842  23400280.3984                   23400281.7544
        34.5004         15.5004
  -3204053.34847  -2371573.85245  20800845.8984                   20800841.0744
        47.7504         34.5004
    -79756.87747    493533.64945  22681797.1954                   22681795.3754
        43.2504         30.5004
    374516.11747    334676.07045  20212963.0554                   20212960.0984
        45.2504         33.0004
   3578283.72746   2797932.09444  22065925.8754                   22065921.3794
        40.2504         25.5004
   3344042.62946   2615015.19144  21789963.4384                   21789957.4064
        40.5004         24.2504
   5340327.45746   4154611.72343  24629595.3524                   24629594.7074
        39.0004         21.2504
  -4001625.49246  -3088184.33243  22583186.4384                   22583185.4024
        37.7504         21.5004
 19  3  5 19 35 25.0000000  0  8G08G07G30G09G16G23G26G27
    721976.71546    874328.31342  23395642.1564                   23395643.0314
        37.0004         14.7504
  -3219980.20747  -2383984.38745  20797814.7114                   20797809.9694
        47.7504         33.5004
   -103267.92647    475213.35944  22677322.8594                   22677321.0634
        43.0004         28.5004
    370391.24647    331461.88745  20212177.7664                   20212174.9574
        45.5004         33.2504
   3583351.65246   2801881.13344  22066890.6094                   22066885.7304
        40.2504         24.7504
   3348109.00046   2618183.79744  21790737.4614                   21790730.7704
        41.7504         25.7504
   5349240.59446   4161557.01243  24631291.5704                   24631291.1094
        39.7504         22.2504
  -4018953.84446  -3101686.93443  22579889.9064                   22579887.9414
        39.2504         22.0004
 19  3  5 19 35 30.0000000  0  8G08G07G30G09G16G23G26G27
    697616.61345    855346.41042  23391006.7114                   23391007.8674
        33.5004         15.5004
  -3235892.16847  -2396383.31645  20794787.1024                   20794782.1724
        47.5004         33.5004
   -126768.28147    456901.39144  22672851.3524                   22672848.9064
        42.7504         27.7504
    366287.37947    328264.07445  20211397.0634                   20211394.2504
        45.0004         32.7504
   3588438.69046   2805845.04444  22067858.1174                   22067853.1054
        40.2504         25.5004
   3352192.20346   2621365.52043  21791514.5474                   21791507.2074
        40.5004         23.2504
   5358165.09446   4168511.16243  24632989.3204                   24632988.9184
        39.5004         21.5004
  -4036258.89446  -3115171.36843  22576596.5634                   22576594.3754
        38.7504         21.7504
 19  3  5 19 35 35.0000000  0  8G08G07G30G09G16G23G26G27
    673270.64545    836375.55542  23386373.1094                   23386374.7624
        33.0004         14.7504
  -3251789.30947  -2408770.69945  20791761.6174                   20791757.3404
        47.7504         34.0004
   -150257.83647    438597.84845  22668380.6954                   22668378.7664
        44.0004         30.0004
    362204.34847    325082.49645  20210619.7664                   20210617.0554
        45.0004         32.2504
   3593543.37546   2809822.72744  22068829.2114                   22068824.6884
        38.7504         25.5004
   3356291.82846   2624560.02343  21792294.2194                   21792288.1414
        39.5004         23.7504
   5367099.09046   4175472.70343  24634690.0394                   24634689.4654
        39.5004         20.7504
  -4053542.02046  -3128638.74443  22573307.6254                   22573305.6294
        38.0004         22.0004
 19  3  5 19 35 40.0000000  0  8G08G07G30G09G16G23G26G27
    648937.633 5                  23381742.609
        35.500
  -3267672.31247  -2421147.06645  20788739.4924                   20788734.8984
        47.7504         34.0004
   -173735.68747    420303.43044  22663913.4064                   22663911.7344
        43.0004         29.0004
    358141.41847    321916.57845  20209846.9694                   20209844.2034
        45.5004         32.7504
   3598662.16846   2813811.37144  22069804.1254                   22069798.9964
        40.7504         27.5004
   3360407.19947   2627766.79344  21793077.5084                   21793070.8134
        43.0004         24.5004
   5376038.80146   4182438.72343  24636391.5394                   24636390.6054
        40.7504         22.0004
  -4070805.88746  -3142091.09843  22570022.8594                   22570020.1914
        39.7504         22.5004
 19  3  5 19 35 45.0000000  0  8G08G07G30G09G16G23G26G27
    624618.348 6                  23377114.305
        36.250
  -3283542.21547  -2433513.21545  20785719.8594                   20785714.7304
        47.5004         34.0004
   -197205.17947    402015.53344  22659447.0704                   22659446.0084
        42.5004         28.7504
    354097.73847    318765.65645  20209076.9614                   20209074.9964
        45.5004         33.2504
   3603799.34146   2817814.40644  22070781.6884                   22070776.9494
        41.0004         26.0004
   3364537.72347   2630985.40644  21793862.9384                   21793857.0824
        42.0004         24.2504
   5384989.26746   4189413.12643  24638094.4454                   24638093.7154
        40.2504         20.7504
  -4088047.43046  -3155526.05144  22566741.9694                   22566739.7304
        40.2504         24.0004
 19  3  5 19 35 50.0000000  0  8G08G07G30G09G16G23G26G27
    600311.645 5                  23372490.594
        35.500
  -3299397.88747  -2445868.28945  20782702.5474                   20782697.5314
        47.7504         34.2504
   -220662.70347    383736.92244  22654983.6564                   22654981.4774
        43.0004         28.7504
    350073.76247    315630.08645  20208311.3984                   20208309.0234
        45.7504         34.0004
   3608951.35246   2821828.93444  22071762.0234                   22071757.0704
        40.7504         26.2504
   3368683.39147   2634215.75044  21794651.5554                   21794646.1254
        42.2504         25.0004
   5393946.86346   4196393.02743  24639798.9534                   24639798.4064
        40.0004         22.0004
  -4105269.46546  -3168945.82844  22563464.4694                   22563461.9534
        39.5004         24.0004
 19  3  5 19 35 55.0000000  0  8G08G07G30G09G16G23G26G27
    576020.809 5                  23367867.695
        34.750
  -3315236.62947  -2458210.16845  20779688.3524                   20779683.8914
        47.5004         34.7504
   -244106.99247    365468.65645  22650522.1644                   22650520.1024
        43.2504         30.0004
    346073.10947    312512.69145  20207550.2194                   20207547.9104
        45.2504         32.7504
   3614119.93046   2825856.43044  22072745.4694                   22072740.4774
        40.7504         26.0004
   3372847.89846   2637460.83243  21795444.7894                   21795439.2464
        40.7504         23.7504
   5402911.59046   4203378.52343  24641504.8054                   24641504.5234
        39.5004         20.7504
  -4122469.39146  -3182348.34843  22560191.0634                   22560188.8204
        37.5004         21.0004
 19  3  5 19 36  0.0000000  0  8G08G07G30G09G16G23G26G27
    551742.500 6                  23363247.344
        36.500
  -3331062.58247  -2470542.07845  20776676.7664                   20776672.0784
        47.7504         34.5004
   -267542.64147    347207.11344  22646062.7664                   22646060.5394
        42.5004         29.2504
    342090.91447    309409.68845  20206792.4534                   20206790.1954
        46.0004         33.0004
   3619306.35246   2829897.77044  22073732.4694                   22073727.6254
        41.5004         26.5004
   3377026.44947   2640716.84443  21796240.8914                   21796234.0664
        42.2504         22.7504
   5411887.02046   4210372.39843  24643213.0004                   24643212.5944
        40.5004         21.2504
  -4139647.85246  -3195734.18043  22556923.2504                   22556920.2194
        39.2504         22.0004
 19  3  5 19 36  5.0000000  0  8G08G07G30G09G16G23G26G27
    527476.988 5                  23358630.055
        35.500
  -3346875.66047  -2482863.95345  20773667.8834                   20773663.0124
        47.7504         34.0004
   -290968.96547    328952.85244  22641604.6414                   22641602.6564
        43.0004         29.5004
    338127.62547    306321.41445  20206038.1564                   20206035.7504
        45.0004         32.0004
   3624507.94946   2833950.97744  22074722.5394                   22074717.0824
        41.5004         27.0004
   3381219.76246   2643984.37943  21797038.3754                   21797032.0274
        40.2504         23.5004
   5420869.73846   4217371.87843  24644921.1334                   24644921.7584
        38.7504         22.0004
  -4156806.35246  -3209104.41043  22553657.2424                   22553655.5744
        37.0004         22.7504
 19  3  5 19 36 10.0000000  0  8G08G07G30G09G16G23G26G27
    503226.48846    830323.69953  23354016.5084                   23354013.3754
        37.2504         18.5004
  -3362673.27047  -2495173.78145  20770661.0704                   20770656.6644
        47.7504         34.0004
   -314383.08247    310708.07844  22637148.9774                   22637147.0124
        42.5004         27.7504
    334186.14147    303250.12545  20205288.0314                   20205285.5004
        46.0004         34.0004
   3629725.82846   2838016.82444  22075715.1724                   22075710.3984
        41.5004         27.7504
   3385430.73447   2647265.62944  21797839.4144                   21797833.0394
        42.7504         26.5004
   5429859.96546   4224377.28943  24646632.4304                   24646632.1884
        40.2504         21.7504
  -4173943.11746  -3222457.74643  22550396.0004                   22550393.7234
        39.7504         22.7504
 19  3  5 19 36 15.0000000  0  8G08G07G30G09G16G23G26G27
    478989.85246    811437.94542  23349403.0004                   23349401.5864
        36.7504         16.7504
  -3378456.32047  -2507472.26245  20767658.0474                   20767653.6454
        47.5004         34.0004
   -337786.95747    292471.29344  22632695.6804                   22632693.4884
        42.0004         28.5004
    330264.69547    300194.45345  20204541.7344                   20204539.2664
        45.7504         33.5004
   3634963.11747   2842097.85244  22076712.0474                   22076707.0044
        42.0004         27.0004
   3389657.07046   2650558.87543  21798643.1954                   21798637.5824
        41.5004         22.5004
   5438862.34846   4231392.09443  24648346.3754                   24648345.8524
        39.5004         21.7504
  -4191057.08646  -3235793.28143  22547139.1334                   22547137.4384
        39.7504         23.0004
 19  3  5 19 36 20.0000000  0  8G08G07G30G09G16G23G26G27
    454767.23445    792563.18042  23344793.3364                   23344792.5124
        35.2504         16.2504
  -3394226.43047  -2519760.65645  20764657.3834                   20764652.5744
        47.5004         33.2504
   -361181.33647    274241.93044  22628243.7114                   22628241.2114
        42.5004         26.5004
    326362.85247    297154.06345  20203799.5864                   20203796.7624
        45.5004         33.0004
   3640215.19546   2846190.35944  22077711.2584                   22077706.0864
        41.5004         27.7504
   3393899.36347   2653864.57044  21799451.0864                   21799444.6644
        42.0004         24.5004
   5447871.42646   4238412.19943  24650060.7194                   24650059.7074
        41.2504         22.0004
  -4208150.40646  -3249112.75443  22543886.3204                   22543884.6684
        38.2504         22.5004
 19  3  5 19 36 25.0000000  0  8G08G07G30G09G16G23G26G27
    430556.77746    773697.91842  23340185.9614                   23340185.1294
        37.5004         15.5004
  -3409982.01247  -2532037.71545  20761658.7344                   20761654.4144
        47.0004         33.7504
   -384564.19546    256021.51244  22623793.9384                   22623792.2074
        40.5004         26.7504
    322480.96947    294129.23445  20203060.6094                   20203058.3674
        45.0004         33.0004
   3645482.25047   2850294.57044  22078713.8444                   22078709.4414
        42.5004         29.7504
   3398156.56647   2657181.87943  21800261.3054                   21800255.1254
        42.5004         22.7504
   5456886.99646   4245437.28543  24651775.7584                   24651775.6054
        41.0004         21.2504
  -4225224.34446  -3262417.10943  22540637.9144                   22540636.0744
        40.2504         23.5004
 19  3  5 19 36 30.0000000  0  8G08G07G30G09G16G23G26G27
                                  23335582.1644                   23335580.9144
        36.2504         17.2504
  -3425724.48047  -2544304.58245  20758663.2194                   20758658.3364
        47.5004         33.5004
   -407938.41846    237807.86344  22619345.7584                   22619344.9184
        40.7504         25.5004
    318618.01647    291119.14145  20202325.5554                   20202323.2114
        45.0004         33.0004
   3650766.81347   2854412.41044  22079719.3204                   22079714.6484
        42.2504         29.5004
   3402428.12946   2660510.35944  21801073.8204                   21801068.1764
        40.7504         26.0004
   5465912.41447   4252470.08243  24653493.6644                   24653493.4064
        42.0004         22.0004
  -4242276.82046  -3275704.75444  22537392.7504                   22537391.2734
        40.2504         27.0004
 19  3  5 19 36 35.0000000  0  8G08G07G30G09G16G23G26G27
    382174.91045    735997.67642  23330979.6884                   23330978.6844
        35.0004         16.7504
  -3441453.48447  -2556560.96545  20755670.0704                   20755665.3444
        47.7504         34.0004
   -431301.75847    219602.64844  22614900.5234                   22614898.4264
        43.0004         28.5004
    314774.34447    288124.03945  20201594.4774                   20201591.5554
        45.5004         32.7504
   3656066.57746   2858542.09444  22080727.8914                   22080722.9144
        40.7504         25.5004
   3406714.92646   2663850.68443  21801889.0704                   21801883.5474
        41.2504         23.7504
   5474945.59046   4259508.88543  24655212.6724                   24655212.2854
        40.2504         22.5004
  -4259309.04746  -3288976.64543  22534151.7114                   22534150.0084
        39.2504         22.5004
 19  3  5 19 36 40.0000000  0  8G08G07G30G09G16G23G26G27
    358004.05946    717163.32842  23326379.9304                   23326378.8364
        37.0004         16.7504
  -3457166.41047  -2568804.80545  20752680.1254                   20752675.4494
        47.5004         34.2504
   -454653.31647    201406.61344  22610456.5084                   22610454.6644
        43.2504         29.5004
    310952.03147    285145.62145  20200866.9534                   20200864.4494
        45.7504         33.2504
   3661384.82846   2862686.18044  22081739.6804                   22081734.7544
        41.0004         26.5004
   3411017.57047   2667203.39144  21802708.1884                   21802702.4734
        42.5004         26.0004
   5483988.84446   4266555.60543  24656933.3364                   24656932.7234
        39.0004         21.0004
  -4276319.19146  -3302231.27743  22530914.3984                   22530912.7854
        38.7504         22.5004
 19  3  5 19 36 45.0000000  0  8G08G07G30G09G16G23G26G27
    333848.80545    698341.05142  23321783.3054                   23321782.9654
        34.5004         15.5004
  -3472864.16847  -2581036.81645  20749692.8204                   20749688.3484
        47.7504         34.0004
   -477993.27047    183219.68044  22606015.3204                   22606013.3984
        43.2504         29.0004
    307151.02047    282183.79345  20200143.9774                   20200141.0864
        45.2504         33.0004
   3666720.96546   2866844.21844  22082754.9064                   22082750.1914
        41.0004         27.0004
   3415337.39547   2670569.49244  21803531.0634                   21803524.3444
        42.0004         24.5004
   5493042.15246   4273610.09443  24658656.4454                   24658655.8324
        40.0004         21.2504
  -4293306.41046  -3315468.06243  22527682.5784                   22527680.1764
        39.5004         22.7504
 19  3  5 19 36 50.0000000  0  8G08G07G30G09G16G23G26G27
    309707.21945    679529.42242  23317188.9384                   23317189.1954
        32.7504         15.5004
  -3488547.77047  -2593257.79745  20746708.2034                   20746703.9104
        47.0004         33.5004
   -501323.29747    165040.42644  22601575.2194                   22601573.6804
        42.0004         29.0004
    303369.94547    279237.50845  20199423.7894                   20199421.7424
        43.7504         32.0004
   3672074.80146   2871016.04744  22083773.6334                   22083768.7934
        40.5004         26.0004
   3419672.50846   2673947.51643  21804355.1884                   21804349.2274
        38.7504         22.5004
   5502105.42646   4280672.40943  24660380.5784                   24660380.3094
        39.2504         20.2504
  -4310271.72346  -3328687.77343  22524454.1174                   22524451.8134
        38.5004         22.5004
 19  3  5 19 36 55.0000000  0  8G08G07G30G09G16G23G26G27
    285578.92245    660728.19942  23312597.5474                   23312597.3634
        35.2504         15.5004
  -3504217.60947  -2605468.07045  20743726.0944                   20743722.0864
        47.7504         34.0004
   -524643.10547    146869.13745  22597137.5944                   22597136.1764
        43.2504         30.0004
    299608.46147    276306.48045  20198707.8134                   20198705.7504
        45.2504         33.7504
   3677444.68446   2875200.35444  22084796.5554                   22084791.1294
        40.0004         26.5004
   3424022.84046   2677337.35944  21805183.1414                   21805177.2504
        40.5004         25.5004
   5511176.80946   4287740.96943  24662107.2814                   24662106.5394
        40.2504         20.7504
  -4327216.18746  -3341891.26243  22521229.7974                   22521227.5594
        38.5004         22.7504
 19  3  5 19 37  0.0000000  0  8G08G07G30G09G16G23G26G27
    261464.36345    641937.60242  23308008.3754                   23308008.9924
        34.0004         16.2504
  -3519871.70747  -2617666.07045  20740747.4384                   20740742.8014
        47.0004         33.5004
   -547948.94547    128708.72744  22592703.0944                   22592701.3244
        42.2504         28.2504
    295868.45747    273392.18445  20197996.5084                   20197994.4064
        44.5004         32.5004
   3682827.70746   2879394.87544  22085820.0474                   22085815.6024
        41.5004         27.5004
   3428389.97746   2680740.30944  21806014.0784                   21806007.6604
        40.5004         24.0004
   5520252.57046   4294812.99643  24663833.9534                   24663833.4884
        40.5004         21.2504
  -4344141.55146  -3355079.87544  22518008.5474                   22518006.4064
        38.5004         24.0004
 19  3  5 19 37  5.0000000  0  8G08G07G30G09G16G23G26G27
    237360.53546    623155.41442  23303422.2274                   23303422.5744
        37.5004         16.2504
  -3535513.95747  -2629854.84045  20737770.9534                   20737767.1294
        47.5004         34.5004
   -571246.59747    110554.72345  22588269.7034                   22588268.3634
        42.7504         30.0004
    292145.53947    270491.20345  20197288.2504                   20197286.1414
        45.2504         33.5004
   3688226.10646   2883601.45844  22086847.3834                   22086842.5944
        40.7504         25.2504
   3432769.37947   2684152.82844  21806847.6174                   21806841.5044
        42.5004         26.2504
   5529336.37946   4301891.30943  24665562.3914                   24665561.9614
        40.0004         20.7504
  -4361047.72246  -3368253.49443  22514791.4304                   22514789.8014
        38.0004         22.7504
 19  3  5 19 37 10.0000000  0  8G08G07G30G09G16G23G26G27
    213274.18445    604386.81642  23298839.4304                   23298839.3594
        35.2504         16.7504
  -3551142.15247  -2642032.64545  20734797.0944                   20734792.8324
        47.2504         34.0004
   -594535.85246     92407.29344  22583837.6174                   22583836.8524
        41.7504         29.2504
    288444.01647    267606.91445  20196583.8054                   20196581.5824
        45.0004         33.2504
   3693644.50046   2887823.57844  22087878.7504                   22087874.1524
        40.7504         26.5004
   3437167.16046   2687579.67644  21807684.9304                   21807678.4144
        41.5004         24.5004
   5538432.20746   4308978.95743  24667293.6024                   24667293.3594
        38.2504         21.5004
  -4377928.18746  -3381407.10543  22511578.7034                   22511577.4964
        38.2504         22.0004
 19  3  5 19 37 15.0000000  0  8G08G07G30G09G16G23G26G27
    189199.92245    585627.67642  23294257.8524                   23294257.7854
        35.5004         16.2504
  -3566755.46547  -2654198.85945  20731825.9924                   20731822.0084
        47.0004         34.0004
   -617810.88747     74270.88745  22579408.7274                   22579407.3404
        42.5004         30.0004
    284762.94947    264738.54745  20195883.5394                   20195881.3164
        44.5004         33.2504
   3699073.06646   2892053.62944  22088911.8524                   22088907.1604
        40.5004         26.7504
   3441580.55147   2691018.68444  21808523.9924                   21808518.6994
        42.2504         24.5004
   5547529.30146   4316067.60543  24669025.8594                   24669024.8634
        38.2504         21.7504
  -4394792.18746  -3394547.88343  22508370.4844                   22508368.3244
        38.0004         22.5004
 19  3  5 19 37 20.0000000  0  8G08G07G30G09G16G23G26G27
    165138.66045    566878.62942  23289678.4144                   23289678.9144
        34.5004         16.2504
  -3582357.02047  -2666355.91445  20728857.2344                   20728852.7194
        46.7504         33.7504
   -641080.62446     56138.64444  22574980.4304                   22574979.1334
        41.0004         28.2504
    281099.53947    261883.93845  20195185.9534                   20195183.7464
        43.5004         32.0004
   3704522.26946   2896299.78044  22089948.3054                   22089943.7974
        39.7504         25.0004
   3446007.09446   2694467.92243  21809367.1724                   21809361.0784
        40.0004         22.7504
   5556639.98846   4323166.85243  24670757.7814                   24670758.4414
        38.5004         20.5004
  -4411632.44146  -3407670.12143  22505165.4774                   22505163.4884
        37.0004         22.7504
 19  3  5 19 37 25.0000000  0  8G08G07G30G09G16G23G26G27
    141092.53946    548141.40242  23285103.3054                   23285103.3284
        36.7504         17.2504
  -3597942.34047  -2678500.33245  20725891.5394                   20725887.3984
        46.7504         34.7504
   -664338.05947     38015.96944  22570555.0634                   22570553.9344
        42.0004         29.0004
    277457.87547    259046.27045  20194493.1564                   20194491.4924
        46.0004         33.7504
   3709990.56346   2900560.75844  22090989.5394                   22090984.7074
        40.2504         26.5004
   3450450.58247   2697930.36744  21810212.9304                   21810206.5314
        43.2504         26.0004
   5565761.83246   4330274.73843  24672494.1484                   24672494.3484
        38.7504         20.7504
  -4428449.40646  -3420774.28144  22501966.0474                   22501964.0944
        39.7504         24.5004
 19  3  5 19 37 30.0000000  0  8G08G07G30G09G16G23G26G27
    117057.94545    529413.14842  23280530.2194                   23280529.8914
        33.2504         16.2504
  -3613514.22747  -2690634.26645  20722928.4224                   20722923.8984
        47.5004         35.0004
   -687584.32447     19902.00045  22566131.4064                   22566130.2894
        43.2504         30.7504
    273834.91447    256223.19145  20193804.0554                   20193801.9574
        45.0004         33.0004
   3715472.05546   2904832.05144  22092032.5004                   22092028.1994
        39.5004         25.0004
   3454907.91846   2701403.60943  21811060.8914                   21811054.8834
        40.2504         23.7504
   5574889.00046   4337386.80543  24674230.9384                   24674231.4694
        38.2504         21.5004
  -4445248.10246  -3433864.16043  22498768.6174                   22498766.7974
        38.5004         23.2504
 19  3  5 19 37 35.0000000  0  8G08G07G30G09G16G23G26G27
     93035.72745    510694.55142  23275959.3914                   23275958.7814
        35.5004         15.5004
  -3629074.18347  -2702758.90845  20719967.2814                   20719962.9804
        47.5004         34.5004
   -710822.15047      1794.58644  22561709.5234                   22561708.2154
        42.2504         29.2504
    270230.23747    253414.35645  20193118.2344                   20193115.7034
        45.2504         32.5004
   3720967.14346   2909113.95144  22093078.5314                   22093073.9264
        40.0004         27.0004
   3459379.53946   2704887.99043  21811911.9454                   21811905.8244
        40.7504         23.0004
   5584021.59846   4344503.12543  24675969.3054                   24675968.4184
        39.0004         21.7504
  -4462027.48546  -3446938.99143  22495576.1414                   22495574.1214
        38.5004         22.5004
 19  3  5 19 37 40.0000000  0  8G08G07G30G09G16G23G26G27
     69027.33645    491986.71942  23271389.7344                   23271389.6804
        35.2504         14.7504
  -3644619.99647  -2714872.52345  20717009.0634                   20717004.8794
        47.0004         34.5004
   -734049.26647    -16304.43045  22557289.4144                   22557288.1994
        42.5004         30.0004
    266645.73847    250621.24245  20192435.6954                   20192433.7034
        44.0004         32.5004
   3726477.35546   2913407.62144  22094126.8594                   22094122.5044
        39.2504         26.5004
   3463866.83646   2708384.59043  21812765.3674                   21812759.6484
        40.0004         22.5004
   5593160.95346   4351624.70743  24677707.8674                   24677707.9884
        37.5004         20.7504
  -4478786.26246  -3459997.79343  22492387.2194                   22492385.0594
        38.5004         22.5004
 19  3  5 19 37 45.0000000  0  8G08G07G30G09G16G23G26G27
     45031.50845    473288.68442  23266823.5234                   23266823.6024
        35.0004         14.7504
  -3660152.15647  -2726975.50845  20714053.2814                   20714049.3404
        47.5004         34.7504
   -757266.50447    -34395.78145  22552871.7814                   22552869.7664
        43.5004         30.2504
    263080.18047    247842.88345  20191757.5234                   20191755.3954
        45.2504         32.7504
   3732004.25046   2917714.28144  22095177.9454                   22095174.0864
        40.2504         25.5004
   3468368.23046   2711892.16044  21813622.5554                   21813616.0434
        41.0004         25.5004
   5602309.37546   4358753.35243  24679449.0474                   24679449.0164
        39.0004         20.0004
  -4495524.21546  -3473040.34843  22489201.7814                   22489199.8244
        38.5004         23.5004
 19  3  5 19 37 50.0000000  0  8G08G07G30G09G16G23G26G27
     21049.29345    454601.26642  23262259.7034                   23262260.6804
        34.5004         13.7504
  -3675669.52747  -2739066.95745  20711100.4534                   20711096.2424
        47.0004         34.7504
   -780471.68047    -52477.75844  22548455.2504                   22548454.0554
        42.0004         28.5004
    259534.96547    245080.37545  20191082.9304                   20191081.1054
        44.5004         33.0004
   3737546.63746   2922033.02044  22096232.6024                   22096228.5784
        39.5004         25.7504
   3472885.27046   2715411.91444  21814481.5944                   21814475.9414
        40.2504         24.0004
   5611465.39846   4365887.86343  24681190.5314                   24681191.1954
        37.0004         20.5004
  -4512241.54746  -3486066.83244  22486020.3204                   22486018.5634
        39.0004         24.0004
 19  3  5 19 37 55.0000000  0  8G08G07G30G09G16G23G26G27
     -2917.39145    435925.87542  23257698.4614                   23257699.8634
        35.2504         14.7504
  -3691171.48847  -2751146.40445  20708150.5864                   20708146.1024
        47.0004         34.0004
   -803665.53146    -70550.87144  22544042.0004                   22544040.2504
        41.5004         29.2504
    256011.37747    242334.73145  20190412.5234                   20190410.1294
        45.2504         32.2504
   3743106.85146   2926365.67444  22097290.9384                   22097286.6054
        40.7504         25.5004
   3477419.50047   2718945.08243  21815345.0084                   21815338.9964
        42.0004         22.2504
   5620630.97746   4373029.93043  24682935.1254                   24682935.4804
        39.0004         19.2504
  -4528935.78146  -3499075.32843  22482843.1174                   22482842.0744
        38.5004         22.5004
 19  3  5 19 38  0.0000000  0  8G08G07G30G09G16G23G26G27
    -26869.85545    417261.70342  23253141.4454                   23253141.9574
        34.7504         16.2504
  -3706659.24247  -2763214.78945  20705203.3054                   20705198.9454
        47.5004         35.0004
   -826849.30547    -88616.13545  22539630.4924                   22539628.9734
        42.7504         30.2504
    252507.86547    239604.70745  20189745.4454                   20189742.9264
        44.2504         32.5004
   3748684.23046   2930711.66444  22098352.2504                   22098347.9884
        39.5004         26.0004
   3481969.38046   2722490.42843  21816210.7114                   21816204.0864
        41.2504         22.7504
   5629805.86746   4380179.14143  24684681.5944                   24684681.7974
        37.5004         19.7504
  -4545607.99646  -3512066.64843  22479670.4454                   22479669.1484
        38.7504         22.7504
 19  3  5 19 38  5.0000000  0  8G08G07G30G09G16G23G26G27
    -50809.27045    398607.54742  23248584.9614                   23248586.4494
        34.7504         15.5004
  -3722134.66047  -2775273.55545  20702258.1334                   20702254.4454
        47.5004         35.2504
   -850023.59447   -106674.01644  22535220.2584                   22535219.2274
        43.0004         29.5004
    249022.67647    236888.98445  20189082.3284                   20189080.0314
        44.0004         33.0004
   3754275.82046   2935068.75444  22099416.7664                   22099412.4534
        40.0004         26.5004
   3486533.68446   2726047.03143  21817078.8834                   21817072.9924
        41.2504         22.5004
   5638987.45346   4387333.66043  24686428.3594                   24686428.9884
        38.2504         20.5004
  -4562260.25446  -3525042.44943  22476501.9454                   22476499.9534
        37.5004         23.7504
 19  3  5 19 38 10.0000000  0  8G08G07G30G09G16G23G26G27
    -74735.00445    379964.11742  23244032.7894                   23244033.6094
        34.0004         16.7504
  -3737593.87947  -2787319.70745  20699316.3134                   20699312.3404
        47.0004         35.0004
   -873186.17647   -124722.80945  22530812.1254                   22530811.1844
        42.0004         30.2504
    245558.91447    234189.93845  20188422.7194                   20188421.0474
        43.7504         33.5004
   3759885.64846   2939440.03944  22100483.8444                   22100479.6724
        40.0004         26.7504
   3491113.72746   2729615.87544  21817950.2114                   21817944.4104
        40.5004         24.7504
   5648178.86846   4394495.77243  24688177.9694                   24688178.1214
        38.2504         19.7504
  -4578890.24246  -3538000.87544  22473337.4774                   22473335.6564
        38.5004         24.0004
 19  3  5 19 38 15.0000000  0  8G08G07G30G09G16G23G26G27
    -98644.17245    361333.64842  23239483.6564                   23239483.4534
        31.0004         16.2504
  -3753038.96547  -2799354.82845  20696377.4224                   20696373.0044
        47.5004         34.7504
   -896337.64546   -142762.88344  22526406.4844                   22526405.6334
        41.7504         29.7504
    242115.91847    231507.08245  20187767.8284                   20187765.7664
        44.0004         32.0004
   3765512.02346   2943824.22344  22101555.1414                   22101550.2034
        40.0004         25.5004
   3495711.40746   2733198.50043  21818825.5554                   21818819.7034
        38.2504         22.7504
   5657379.31646   4401664.97743  24689928.5784                   24689928.2974
        37.5004         21.5004
  -4595497.36746  -3550941.48043  22470177.2274                   22470176.2344
        36.7504         22.5004
 19  3  5 19 38 20.0000000  0  8G08G07G30G09G16G23G26G27
   -122541.35946    342712.46542  23234934.8594                   23234936.4414
        36.0004         16.2504
  -3768471.07047  -2811379.85945  20693440.3284                   20693436.1724
        46.7504         34.7504
   -919479.32446   -160795.36744  22522003.5164                   22522001.7734
        41.5004         29.5004
    238691.92247    228839.04745  20187116.1414                   20187114.3204
        44.5004         33.5004
   3771151.06346   2948218.26644  22102627.5394                   22102623.2704
        41.0004         27.7504
   3500323.38346   2736792.22743  21819702.7344                   21819697.3674
        41.0004         23.0004
   5666583.64146   4408837.14843  24691679.9774                   24691680.3284
        39.7504         20.7504
  -4612085.95746  -3563867.67243  22467020.6024                   22467018.8134
        39.5004         22.5004
