     2.11           OBSERVATION DATA    G (GPS)             RINEX VERSION / TYPE
teqc  2019Feb25     Martin Truffer      20190308 01:04:48UTCPGM / RUN BY / DATE
Linux 2.6.32-573.12.1.x86_64|x86_64|gcc|Linux 64|=+         COMMENT
BIT 2 OF LLI FLAGS DATA COLLECTED UNDER A/S CONDITION       COMMENT
51890641                                                    MARKER NAME
5189                                                        MARKER NUMBER
-Unknown-           -Unknown-                               OBSERVER / AGENCY
0220315189          TRIMBLE 5700        2.30                REC # / TYPE / VERS
-Unknown-           TRM41249.00     NONE                    ANT # / TYPE
 -1795341.2684 -3484790.6968  5017177.3177                  APPROX POSITION XYZ
        0.0530        0.0000        0.0000                  ANTENNA: DELTA H/E/N
     1     1                                                WAVELENGTH FACT L1/2
     7    L1    L2    C1    P1    P2    S1    S2            # / TYPES OF OBSERV
    18                                                      LEAP SECONDS
 SNR is mapped to RINEX snr flag value [0-9]                COMMENT
  L1 & L2: min(max(int(snr_dBHz/6), 0), 9)                  COMMENT
  2019     3     5     0    25   35.0000000     GPS         TIME OF FIRST OBS
                                                            END OF HEADER
 19  3  5  0 25 35.0000000  0  7G01G11G13G15G17G18G28
    -29736.55157    -10558.03954  22677235.7974                   22677235.0164
        46.2504         28.0004
     -1686.35556      -176.11753  23446829.4304                   23446826.0124
        40.5004         21.5004
      3555.84416                  23285879.055
        36.000
    -12781.04316                  23537790.750
        39.750
    -58828.77358    -19509.06655  20657237.5704                   20657234.6524
        48.2504         31.7504
     -3492.39856      -310.33253  24030485.5394                   24030482.5474
        41.2504         20.5004
    -21959.99257     -8156.37555  21360371.8284                   21360368.6094
        46.0004         30.5004
 19  3  5  0 25 40.0000000  0  7G01G11G13G15G17G18G28
    -39053.36347    -17817.92644  22675461.5164                   22675463.0274
        45.0004         26.5004
     -2178.45346      -559.52343  23446736.2114                   23446732.8284
        39.5004         20.7504
      5004.930 6                  23286154.930
        37.750
    -16704.496 6                  23537044.078
        37.750
    -75626.60248    -32598.29745  20654041.0474                   20654038.4614
        48.0004         32.0004
     -4444.37146     -1052.12143  24030302.3834                   24030301.8444
        37.0004         19.2504
    -28129.10947    -12963.47744  21359197.8364                   21359194.8284
        46.2504         27.5004
 19  3  5  0 25 45.0000000  0  7G01G11G13G15G17G18G28
    -48335.94947    -25051.03144  22673696.3364                   22673696.1484
        46.0004         28.0004
     -2642.09446      -920.84443  23446648.1954                   23446644.1564
        40.7504         19.7504
      6478.469 6                  23286435.320
        37.000
    -20599.594 7                  23536302.602
        42.250
    -92394.28948    -45664.00045  20650850.3984                   20650847.4064
        48.5004         32.5004
     -5366.57446     -1770.74643  24030127.7814                   24030126.5784
        40.0004         18.2504
    -34275.03947    -17752.52044  21358028.4384                   21358025.2814
        46.7504         29.2504
 19  3  5  0 25 50.0000000  0  8G01G11G13G15G17G18G19G28
    -57583.55147    -32257.00044  22671936.1644                   22671935.8164
        46.7504         28.0004
     -3076.79746     -1259.52743  23446565.0864                   23446561.6764
        41.0004         19.0004
      7976.957 6                  23286719.961
        38.250
    -24465.80147     -1716.93053  23535566.7664                   23535562.9304
        43.2504         21.2504
   -109131.14848    -58705.71145  20647665.0164                   20647662.4344
        48.5004         32.0004
     -6258.50846     -2465.71943  24029958.2664                   24029957.3594
        39.5004         18.5004
   -114510.43057    -77192.94953  21234150.2814                   21234145.6914
        42.2504         22.5004
    -40397.17247    -22523.00844  21356863.1334                   21356859.8094
        46.2504         28.5004
 19  3  5  0 25 55.0000000  0  8G01G11G13G15G17G18G19G28
    -66795.51647    -39435.18044  22670182.2504                   22670183.3834
        44.2504         26.7504
     -3481.72346     -1575.05543  23446487.8754                   23446484.9414
        39.5004         18.2504
      9501.250 6                  23287010.797
        38.000
    -28302.32046     -4706.40243  23534836.8054                   23534833.7814
        41.0004         19.2504
   -125836.39548    -71722.80145  20644486.3134                   20644483.6724
        48.5004         32.2504
     -7119.46946     -3136.61343  24029794.4224                   24029792.9144
        39.7504         18.5004
   -141959.39547    -98581.73044  21228927.0474                   21228922.3014
        42.7504         24.7504
    -46494.73047    -27274.35544  21355702.6024                   21355699.3834
        46.2504         29.0004
 19  3  5  0 26  0.0000000  0  8G01G11G13G15G17G18G19G28
    -75971.58647    -46585.33644  22668437.0004                   22668437.4774
        45.0004         28.2504
     -3856.61746     -1867.16843  23446416.8444                   23446413.4224
        40.2504         20.0004
     11051.570 6                  23287306.031
        37.000
    -32108.92646     -7672.63742  23534112.2034                   23534109.7544
        39.7504         17.7504
   -142509.80548    -84715.04745  20641313.7114                   20641310.6134
        48.7504         32.5004
     -7949.15246     -3783.10543  24029636.1484                   24029635.3444
        39.7504         19.0004
   -169377.46147   -119946.48444  21223709.4064                   21223704.9534
        42.2504         24.0004
    -52567.47347    -32006.36344  21354547.8674                   21354543.8324
        47.0004         29.7504
 19  3  5  0 26  5.0000000  0  8G01G11G13G15G17G18G19G28
    -85112.65247    -53708.25844  22666697.2584                   22666697.6484
        46.0004         28.0004
     -4202.47346     -2136.70343  23446350.7034                   23446348.1414
        40.2504         19.5004
     12626.902 6                  23287605.500
        37.500
    -35886.59046    -10616.15642  23533393.8754                   23533391.1884
        41.5004         17.7504
   -159152.35948    -97683.28145  20638146.5704                   20638144.1334
        49.0004         32.2504
     -8748.52746     -4405.96942  24029484.0944                   24029482.8674
        40.5004         17.7504
   -196765.80147   -141288.02044  21218497.2034                   21218492.9574
        43.0004         24.5004
    -58616.40247    -36719.80944  21353396.2734                   21353393.0084
        46.5004         29.2504
 19  3  5  0 26 10.0000000  0  8G01G11G13G15G17G18G19G28
    -94218.74247    -60803.90644  22664964.2504                   22664965.3404
        45.2504         28.2504
     -4519.25446     -2383.54343  23446290.9924                   23446287.3204
        40.0004         18.5004
     14227.324 6                  23287909.797
        37.750
    -39635.21546    -13537.29742  23532681.1644                   23532678.2154
        41.0004         16.2504
   -175763.98848   -110627.40645  20634985.7194                   20634982.6684
        49.0004         31.7504
     -9517.62146     -5005.25042  24029337.5234                   24029336.5594
        39.0004         16.2504
   -224124.19547   -162606.26243  21213291.6564                   21213286.9024
        43.5004         22.7504
    -64641.43747    -41414.65244  21352250.0164                   21352246.3674
        46.5004         28.7504
 19  3  5  0 26 15.0000000  0  8G01G11G13G15G17G18G19G28
   -103289.81647    -67872.27344  22663238.7034                   22663239.0704
        45.7504         27.2504
     -4806.97746     -2607.72343  23446236.3204                   23446232.8014
        41.2504         19.0004
     15852.910 6                  23288219.195
        37.250
    -43354.87946    -16435.73842  23531972.5314                   23531970.2074
        41.0004         15.5004
   -192344.65248   -123547.41045  20631830.6334                   20631827.4264
        49.0004         32.2504
    -10256.35946     -5580.88742  24029197.8444                   24029195.9884
        41.0004         17.7504
   -251452.67647   -183901.17644  21208090.6804                   21208086.3524
        43.5004         24.0004
    -70642.57847    -46090.86744  21351108.1254                   21351104.7194
        47.0004         29.2504
 19  3  5  0 26 20.0000000  0  9G01G11G13G15G17G18G19G24G28
   -112325.93047    -74913.41044  22661518.5004                   22661519.5004
        45.0004         28.0004
     -5065.64146     -2809.28943  23446186.4614                   23446183.5474
        40.7504         19.2504
     17503.469 6                  23288533.477
        37.250
    -47045.56246    -19311.53942  23531269.9614                   23531268.2464
        39.5004         14.7504
   -208894.32048   -136443.26245  20628681.0164                   20628678.2734
        48.5004         32.5004
    -10964.74246     -6132.91042  24029062.0234                   24029061.0354
        39.5004         17.2504
   -278751.25847   -205172.80144  21202895.8914                   21202891.4844
        43.0004         24.0004
   -283155.89856    -34008.02353  22610785.1724                   22610785.6914
        36.5004         21.0004
    -76619.85947    -50748.48044  21349970.3754                   21349966.9924
        46.5004         29.0004
 19  3  5  0 26 25.0000000  0  9G01G11G13G15G17G18G19G24G28
   -121327.18047    -81927.36344  22659805.9614                   22659806.6764
        45.0004         27.5004
     -5295.33246     -2988.28543  23446142.7344                   23446140.1484
        39.2504         19.7504
     19178.949 6                  23288852.352
        37.250
    -50707.35246    -22164.90642  23530573.5234                   23530571.8404
        40.0004         14.7504
   -225413.21148   -149315.10945  20625537.5234                   20625534.7774
        48.0004         32.0004
    -11643.01246     -6661.38342  24028934.0944                   24028931.8754
        39.7504         17.7504
   -306020.02347   -226421.18743  21197706.6094                   21197702.0164
        42.2504         22.7504
   -311095.30146    -55779.02043  22605468.1024                   22605468.7114
        37.2504         21.5004
    -82573.34047    -55387.57044  21348838.0944                   21348834.4924
        46.2504         28.7504
 19  3  5  0 26 30.0000000  0  9G01G11G13G15G17G18G19G24G28
   -130293.43747    -88914.05544  22658099.5944                   22658100.9384
        45.2504         28.5004
     -5496.00846     -3144.64843  23446105.1174                   23446101.7704
        40.5004         20.2504
     20879.371 6                  23289176.383
        37.750
    -54340.25446    -24995.67242  23529881.9384                   23529880.2894
        40.0004         13.7504
   -241901.19948   -162162.87945  20622400.3754                   20622397.2544
        48.7504         32.2504
    -12291.01246     -7166.35942  24028810.0084                   24028808.5904
        39.7504         17.7504
   -333258.90247   -247646.25843  21192523.6174                   21192519.1954
        42.5004         23.0004
   -339007.43046    -77528.69143  22600157.8754                   22600157.2584
        37.0004         21.2504
    -88502.95347    -60008.05544  21347709.3054                   21347705.9964
        46.7504         29.5004
 19  3  5  0 26 35.0000000  0  9G01G11G13G15G17G18G19G24G28
   -139225.09847    -95873.78944  22656399.9924                   22656401.3014
        45.0004         28.2504
     -5668.01646     -3278.66843  23446072.5004                   23446068.7194
        40.7504         19.7504
     22604.449 6                  23289505.180
        37.500
    -57944.551 6                  23529196.195
        38.750
   -258358.63748   -174986.87945  20619268.2734                   20619265.2584
        49.0004         32.0004
    -12909.18046     -7647.97743  24028692.7814                   24028690.6844
        39.7504         18.2504
   -360468.11347   -268848.25843  21187345.5944                   21187341.4304
        43.0004         23.5004
   -366892.62146    -99257.43043  22594851.3754                   22594851.1884
        37.0004         20.2504
    -94409.07447    -64610.21944  21346585.4614                   21346582.1884
        47.5004         29.5004
 19  3  5  0 26 40.0000000  0  9G01G11G13G15G17G18G19G24G28
   -148122.25447   -102806.64144  22654706.4844                   22654707.4534
        44.5004         27.2504
     -5811.47346     -3390.43743  23446044.3444                   23446041.3284
        40.5004         19.2504
     24354.039 6                  23289836.641
        37.250
    -61520.332 6                  23528515.977
        39.000
   -274785.59048   -187787.09445  20616142.4694                   20616139.5044
        48.7504         32.2504
    -13497.51646     -8106.45742  24028580.2034                   24028578.9574
        39.2504         16.7504
   -387647.86346   -290027.28543  21182173.0234                   21182169.4454
        41.7504         22.7504
   -394750.91846   -120965.16443  22589549.9694                   22589550.3714
        37.0004         19.5004
   -100291.67647    -69194.06244  21345465.3674                   21345462.2114
        46.5004         29.2504
 19  3  5  0 26 45.0000000  0  9G01G11G13G15G17G18G19G24G28
   -156985.08647   -109712.74644  22653020.2734                   22653021.3054
        45.0004         27.7504
     -5926.50046     -3480.07843  23446023.1254                   23446019.7034
        41.2504         19.0004
     26128.070 6                  23290174.656
        36.750
    -65067.809 6                  23527840.492
        39.250
   -291182.22348   -200563.69145  20613021.5004                   20613019.1644
        48.0004         32.2504
    -14056.16446     -8541.78142  24028474.1954                   24028472.5124
        39.5004         17.7504
   -414798.21147   -311183.38344  21177007.0004                   21177002.5594
        42.0004         24.0004
   -422582.58646   -142652.20343  22584253.5164                   22584253.8834
        36.7504         19.7504
   -106150.94947    -73759.73444  21344350.8674                   21344347.3794
        46.5004         28.7504
 19  3  5  0 26 50.0000000  0  9G01G11G13G15G17G18G19G24G28
   -165813.20347   -116591.78544  22651340.6094                   22651341.2194
        45.0004         28.0004
     -6012.80946     -3547.32443  23446006.2734                   23446003.4614
        40.5004         19.5004
     27926.777 6                  23290516.109
        36.750
    -68586.625 6                  23527170.945
        38.500
   -307548.23448   -213316.41845  20609907.8594                   20609904.7734
        48.2504         32.2504
    -14584.86346     -8953.71542  24028373.3284                   24028372.1294
        39.2504         17.7504
   -441918.84847   -332316.35244  21171846.5784                   21171841.7734
        42.5004         24.0004
   -450386.86746   -164317.87543  22578962.8054                   22578963.1214
        37.5004         19.7504
   -111986.62947    -78307.02044  21343240.3364                   21343237.0124
        47.2504         29.5004
 19  3  5  0 26 55.0000000  0  9G01G11G13G15G17G18G19G24G28
   -174607.19147   -123444.24644  22649666.9614                   22649668.0704
        45.0004         27.5004
     -6070.91446     -3592.56643  23445995.3754                   23445992.4344
        40.7504         20.0004
     29749.691 6                  23290863.555
        36.250
    -72077.344 6                  23526505.836
        38.250
   -323884.10948   -226045.67245  20606799.4924                   20606796.4064
        48.7504         32.2504
    -15084.21146     -9342.80143  24028279.0394                   24028276.8794
        40.0004         18.2504
   -469010.28147   -353426.55943  21166691.3054                   21166686.5164
        43.0004         23.0004
   -478164.66046   -185962.90243  22573677.1644                   22573677.1174
        37.2504         21.2504
   -117799.27747    -82836.34844  21342134.2814                   21342130.7344
        47.2504         29.5004
 19  3  5  0 27  0.0000000  0  9G01G11G13G15G17G18G19G24G28
   -183367.07047   -130270.11344  22648000.8834                   22648001.0234
        46.0004         28.5004
     -6100.85246     -3615.91443  23445989.5784                   23445986.7424
        40.7504         19.7504
     31596.645 6                  23291216.016
        37.250
    -75540.043 6                  23525847.789
        39.250
   -340189.91448   -238751.50445  20603696.3914                   20603693.1374
        49.0004         33.0004
    -15554.16846     -9709.03942  24028188.1484                   24028187.5984
        39.2504         16.7504
   -496072.57846   -374514.06244  21161540.2664                   21161536.8954
        41.2504         24.5004
   -505915.93746   -207587.27743  22568395.3524                   22568395.8714
        36.7504         20.2504
   -123588.84447    -87347.70344  21341032.1644                   21341029.1884
        46.2504         28.5004
 19  3  5  0 27  5.0000000  0  9G01G11G13G15G17G18G19G24G28
   -192093.14147   -137069.67244  22646338.7584                   22646340.7274
        45.0004         28.0004
     -6103.02346     -3617.61343  23445988.8914                   23445985.7814
        40.2504         19.0004
     33467.320 6                  23291571.398
        37.000
    -78975.027 6                  23525193.375
        37.000
   -356465.96948   -251434.15645  20600598.6884                   20600596.3014
        49.0004         32.2504
    -15995.08646    -10052.51242  24028106.1024                   24028103.5634
        41.0004         16.7504
   -523106.03947   -395579.09444  21156397.0784                   21156392.3444
        42.5004         24.7504
   -533640.92246   -229191.12943  22563120.4144                   22563120.1844
        37.2504         19.5004
   -129355.72347    -91841.37944  21339935.2734                   21339931.8324
        46.5004         29.0004
 19  3  5  0 27 10.0000000  0  9G01G11G13G15G17G18G19G24G28
   -200785.47347   -143842.86744  22644685.6564                   22644686.7154
        44.7504         26.2504
     -6077.42246     -3597.66043  23445994.5634                   23445991.0164
        39.7504         18.2504
     35361.758 6                  23291931.938
        37.000
    -82382.293 6                  23524545.906
        39.250
   -372712.21948   -264093.55545  20597507.2274                   20597504.4264
        48.5004         32.2504
    -16407.01646    -10373.53543  24028026.8284                   24028025.0944
        39.2504         18.2504
   -550110.63347   -416621.64144  21151258.0864                   21151253.6134
        42.5004         24.0004
   -561339.64145   -250774.58643  22557848.2034                   22557849.2424
        35.5004         19.5004
   -135099.85247    -96317.32444  21338842.4774                   21338838.6644
        47.0004         28.7504
 19  3  5  0 27 15.0000000  0  9G01G11G13G15G17G18G19G24G28
   -209444.19947   -150589.94544  22643038.1884                   22643038.4884
        45.7504         27.7504
     -6024.27746     -3556.23843  23446005.0634                   23446001.2384
        40.5004         19.2504
     37279.836 6                  23292297.203
        36.000
    -85762.031 6                  23523902.109
        38.250
   -388928.80148   -276729.85945  20594421.7814                   20594418.5824
        48.7504         32.5004
    -16790.12946    -10672.07442  24027953.3834                   24027952.0664
        39.5004         17.7504
   -577086.55147   -437641.83243  21146124.8054                   21146120.2194
        42.0004         23.5004
   -589012.30546   -272337.69943  22552583.4774                   22552583.5434
        36.2504         19.0004
   -140821.49647   -100775.75044  21337753.0864                   21337750.2734
        47.0004         29.5004
 19  3  5  0 27 20.0000000  0  9G01G11G13G15G17G18G19G24G28
   -218069.93047   -157311.30144  22641396.8674                   22641396.9414
        46.0004         28.0004
     -5944.16446     -3493.82843  23446019.4774                   23446016.7274
        41.2504         19.0004
     39220.789 6                  23292666.266
        36.250
    -89114.883 6                  23523264.047
        38.500
   -405116.43448   -289343.60945  20591341.1884                   20591338.5274
        48.7504         32.5004
    -17144.99246    -10948.55142  24027887.0784                   24027884.6914
        41.0004         16.7504
   -604034.40247   -458640.14543  21140996.6094                   21140992.3054
        42.2504         22.7504
   -616659.473 6                  22547322.727
        36.000
   -146521.17247   -105217.06244  21336668.5004                   21336665.6564
        46.7504         28.0004
 19  3  5  0 27 25.0000000  0  9G01G11G13G15G17G18G19G24G28
   -226662.37947   -164006.75044  22639761.1724                   22639762.1684
        45.5004         28.0004
     -5836.82846     -3410.17643  23446039.6024                   23446037.1764
        40.7504         19.5004
     41184.867 6                  23293039.781
        37.750
    -92440.605 6                  23522632.195
        39.500
   -421274.87948   -301934.60545  20588265.9924                   20588263.3404
        48.0004         32.2504
    -17471.43446    -11202.93742  24027823.9774                   24027823.0164
        39.0004         17.2504
   -630953.92647   -479616.39543  21135874.0234                   21135869.5394
        42.7504         22.7504
   -644280.801 5                  22542065.500
        34.500
   -152198.69547   -109641.10544  21335588.1254                   21335585.0474
        46.7504         29.2504
 19  3  5  0 27 30.0000000  0  9G01G11G13G15G17G18G19G24G28
   -235221.48847   -170676.14144  22638132.6644                   22638133.6644
        44.5004         28.0004
     -5701.98846     -3305.12943  23446065.9614                   23446062.7544
        41.2504         19.5004
     43172.352 6                  23293418.563
        37.500
    -95738.969 6                  23522003.523
        37.750
   -437403.83648   -314502.60545  20585197.5004                   20585194.4384
        48.0004         32.0004
    -17769.20746    -11434.94943  24027767.5704                   24027765.9964
        40.2504         18.2504
   -657844.83247   -500570.36344  21130757.0634                   21130752.5234
        42.5004         24.7504
   -671876.234 6                  22536814.781
        36.250
   -157853.74647   -114047.63344  21334512.1254                   21334508.4614
        47.0004         28.7504
 19  3  5  0 27 35.0000000  0  9G01G11G13G15G17G18G19G24G28
   -243746.97347   -177319.37944  22636511.1024                   22636511.0904
        46.5004         28.0004
     -5539.66046     -3178.66043  23446095.9064                   23446093.9924
        40.5004         19.5004
     45183.301 6                  23293801.289
        37.250
    -99009.863 6                  23521380.484
        38.500
   -453503.23448   -327047.59445  20582133.7584                   20582130.6454
        48.7504         32.0004
    -18038.23846    -11644.56642  24027715.9384                   24027714.5824
        39.7504         17.7504
   -684707.06246   -521501.95744  21125644.5704                   21125641.1524
        41.7504         24.5004
   -699445.543 6                  22531568.609
        36.000
   -163486.32847   -118436.65244  21333440.3594                   21333436.7934
        47.0004         29.5004
 19  3  5  0 27 40.0000000  0  9G01G11G13G15G17G18G19G24G28
   -252239.50447   -183936.95344  22634893.6954                   22634895.1604
        45.5004         27.5004
     -5350.48846     -3031.25043  23446132.2584                   23446129.9304
        40.7504         20.5004
     47217.180 6                  23294188.008
        37.500
   -102253.910 6                  23520764.297
        38.750
   -469573.70748   -339570.05945  20579075.5634                   20579073.0944
        49.0004         32.5004
    -18279.08246    -11832.23443  24027671.5704                   24027669.1334
        41.2504         18.2504
   -711541.18747   -542411.64544  21120539.3674                   21120534.4654
        43.5004         24.2504
   -726989.328 5                  22526325.164
        35.750
   -169096.97747   -122808.59444  21332372.4614                   21332369.4024
        47.0004         29.5004
 19  3  5  0 27 45.0000000  0  9G01G11G13G15G17G18G19G24G28
   -260698.66447   -190528.48444  22633284.5234                   22633284.7464
        45.7504         27.2504
     -5133.92646     -2862.44543  23446173.7664                   23446170.8444
        40.5004         19.7504
     49274.250 6                  23294579.273
        38.500
   -105470.699 6                  23520151.219
        40.000
   -485614.81248   -352069.62145  20576022.8594                   20576020.1414
        48.7504         32.2504
    -18491.39846    -11997.66042  24027630.0704                   24027628.5234
        39.5004         17.2504
   -738346.76247   -563299.12544  21115437.9534                   21115434.2304
        43.5004         24.7504
   -754507.07046   -288649.61753  22521090.6414                   22521088.6884
        36.2504         20.2504
   -174685.29347   -127163.13744  21331309.5634                   21331306.0234
        47.0004         29.0004
 19  3  5  0 27 50.0000000  0  9G01G11G13G15G17G18G19G24G28
   -269125.52747   -197094.89844  22631680.5784                   22631681.1844
        45.7504         27.5004
     -4891.10246     -2673.25443  23446219.7424                   23446217.3094
        40.7504         19.7504
     51353.594 6                  23294975.516
        38.000
   -108661.285 6                  23519545.039
        38.250
   -501627.62148   -364547.12945  20572975.4384                   20572972.4924
        48.5004         32.2504
    -18676.20746    -12141.71142  24027594.2344                   24027594.0434
        40.0004         17.2504
   -765124.86347   -584165.17243  21110341.8204                   21110338.2074
        42.2504         22.7504
   -781999.82846   -310072.52343  22515859.6094                   22515857.5044
        36.5004         19.2504
   -180252.36347   -131501.10244  21330249.3204                   21330246.2114
        46.7504         28.5004
 19  3  5  0 27 55.0000000  0  9G01G11G13G15G17G18G19G24G28
   -277520.23847   -203636.22344  22630083.3444                   22630083.9654
        46.2504         27.7504
     -4622.24646     -2463.77043  23446272.2034                   23446268.1214
        41.5004         20.5004
     53455.270 6                  23295374.961
        38.250
   -111825.816 6                  23518943.406
        40.750
   -517612.14148   -377002.59845  20569933.6564                   20569930.8164
        49.2504         32.7504
    -18833.77746    -12264.41842  24027565.9454                   24027564.2544
        41.7504         17.7504
   -791875.40247   -605009.74243  21105251.9224                   21105247.1214
        42.7504         23.0004
   -809467.65645   -331476.04743  22510632.0634                   22510630.8954
        35.0004         18.5004
   -185798.19147   -135822.52744  21329194.2274                   21329190.9924
        46.7504         29.2504
 19  3  5  0 28  0.0000000  0  9G01G11G13G15G17G18G19G24G28
   -285886.32447   -210155.26644  22628491.1024                   22628491.8524
        46.0004         29.2504
     -4331.30947     -2237.06643  23446327.3054                   23446323.6174
        43.0004         22.0004
     55577.680 5                  23295779.313
        35.000
   -114967.176 6                  23518344.773
        41.250
   -533570.43048   -389437.64145  20566897.2274                   20566893.9494
        48.0004         32.0004
    -18968.73446    -12369.57842  24027538.8914                   24027538.4224
        39.0004         17.7504
   -818599.79347   -625833.95744  21100166.6954                   21100161.9264
        43.0004         24.5004
   -836915.328 5                  22505408.461
        30.500
   -191325.21948   -140129.33245  21328143.0634                   21328140.0204
        48.0004         30.5004
 19  3  5  0 28  5.0000000  0  9G01G11G13G15G17G18G19G24G28
   -294221.36347   -216650.11344  22626905.7894                   22626906.2154
        47.2504         29.7504
     -4015.84847     -1991.21543  23446386.5314                   23446383.9384
        42.0004         22.5004
     57717.863 6                  23296186.672
        37.000
   -118088.660 6                  23517749.961
        38.250
   -549503.13747   -401852.74245  20563865.3834                   20563862.8914
        47.2504         31.0004
    -19078.54346    -12455.18042  24027518.0634                   24027517.2234
        40.5004         17.2504
   -845300.00047   -646639.29343  21095085.5704                   21095081.1844
        42.2504         22.0004
   -864344.633 5                  22500189.563
        33.500
   -196832.30147   -144420.55944  21327094.8364                   21327092.2664
        46.7504         29.7504
 19  3  5  0 28 10.0000000  0  9G01G11G13G15G17G18G19G24G28
   -302515.46947   -223113.03944  22625330.0944                   22625329.5004
        46.5004         29.7504
     -3666.89147     -1719.33243  23446455.2274                   23446449.9414
        42.2504         21.5004
     59891.855 6                  23296600.813
        36.500
   -121179.02746    -27149.02353  23517164.5314                   23517161.2344
        36.0004         20.0004
   -565396.22748   -414236.96545  20560843.6174                   20560839.6564
        48.5004         31.7504
    -19156.27346    -12515.71142  24027505.0704                   24027502.6994
        38.0004         17.7504
   -871959.94547   -667413.28543  21090012.8754                   21090007.8954
        42.7504         22.7504
   -891748.375 6                  22494977.469
        37.750
   -202306.34848   -148686.06245  21326056.7424                   21326051.8954
        48.0004         30.0004
 19  3  5  0 28 15.0000000  0  9G01G11G13G15G17G18G19G24G28
   -310769.65247   -229544.87945  22623756.5084                   22623758.4384
        47.0004         31.5004
     -3285.53947     -1422.15643  23446527.2424                   23446523.6134
        43.0004         21.5004
     62108.773 5                  23297023.281
        35.750
   -124226.595 6                  23516584.211
        39.750
   -581245.93048   -426587.36745  20557825.5704                   20557823.7304
        49.0004         32.5004
    -19201.61346    -12551.02043  24027495.8594                   24027494.8794
        39.7504         18.2504
   -898573.37947   -688150.98043  21084949.0944                   21084944.6954
        43.5004         22.2504
   -919116.66846   -352853.80953  22489767.0084                   22489765.2464
        37.0004         21.0004
   -207747.52047   -152925.90245  21325018.6644                   21325015.5004
        47.7504         31.5004
 19  3  5  0 28 20.0000000  0  9G01G11G13G15G17G18G19G24G28
   -318982.75047   -235944.68044  22622194.3444                   22622194.8404
        46.0004         29.7504
     -2868.98846     -1097.59843  23446605.8364                   23446602.7504
        41.5004         20.7504
     64358.602 6                  23297450.586
        38.000
   -127236.488 6                  23516011.297
        39.500
   -597057.79348   -438908.30145  20554816.4924                   20554814.0124
        48.7504         33.2504
    -19210.07046    -12557.62142  24027493.8754                   24027493.3954
        38.5004         17.2504
   -925149.32847   -708859.52044  21079891.9534                   21079887.0204
        44.2504         26.0004
   -946448.59846   -374151.41043  22484566.0554                   22484564.3594
        36.5004         20.2504
   -213158.58647   -157142.32845  21323989.0004                   21323986.0984
        47.2504         32.0004
 19  3  5  0 28 25.0000000  0  9G01G11G13G15G17G18G19G24G28
   -327156.78147   -242314.05544  22620638.5784                   22620638.6484
        47.0004         29.5004
     -2419.57446      -747.37543  23446690.6024                   23446688.2814
        41.5004         21.2504
     66638.613 6                  23297885.148
        38.500
   -130212.445 6                  23515444.508
        39.750
   -612833.84048   -451201.32445  20551814.6254                   20551812.0164
        49.5004         32.5004
    -19184.44546    -12537.61342  24027498.9534                   24027498.1024
        40.5004         17.2504
   -951689.87547   -729540.46144  21074840.5634                   21074836.4844
        44.0004         25.0004
   -973747.92646   -395423.64843  22479371.1724                   22479370.0474
        39.5004         19.2504
   -218541.25047   -161336.61345  21322964.5164                   21322960.5864
        47.5004         30.2504
 19  3  5  0 28 30.0000000  0  9G01G11G13G15G17G18G19G24G28
   -335292.59447   -248653.74645  22619091.8984                   22619092.0234
        47.0004         30.2504
     -1938.41047      -372.54743  23446783.4064                   23446780.1094
        42.7504         21.5004
     68944.227 6                  23298324.828
        38.000
   -133159.922 6                  23514885.070
        37.250
   -628576.31648   -463468.28545  20548820.3674                   20548817.7304
        50.0004         34.0004
    -19126.52346    -12492.58242  24027511.7274                   24027509.1334
        40.7504         17.2504
   -978198.22747   -750196.40244  21069798.3134                   21069792.8634
        44.0004         24.5004
  -1001019.91046   -416674.62943  22474183.2584                   22474180.8054
        39.0004         19.7504
   -223896.46548   -165509.60245  21321946.7114                   21321943.4024
        48.0004         31.2504
 19  3  5  0 28 35.0000000  0  9G01G11G13G15G17G18G19G24G28
   -343389.91047   -254963.36344  22617552.6884                   22617551.9734
        47.7504         28.2504
     -1423.98847        28.25443  23446884.0554                   23446878.6484
        43.0004         20.0004
     71273.930 6                  23298769.641
        40.000
   -136076.227 6                  23514331.695
        39.750
   -644286.77348   -475710.22745  20545832.4144                   20545829.0984
        51.0004         33.2504
    -19033.19946    -12419.88342  24027531.8364                   24027527.7504
        39.7504         16.7504
  -1004676.78547   -770829.06644  21064760.0634                   21064754.5274
        46.2504         26.5004
  -1028258.70346   -437899.64143  22469002.1644                   22468998.5744
        39.0004         21.0004
   -229225.92648   -169662.45345  21320933.9454                   21320929.9534
        49.0004         30.5004
 19  3  5  0 28 40.0000000  0  9G01G11G13G15G17G18G19G24G28
   -351453.59448   -261246.75044  22616017.9224                   22616017.7624
        48.0004         28.0004
      -882.39147       450.30143  23446987.3984                   23446981.9494
        44.5004         19.2504
     73627.84846       378.35252  23299217.6644                   23299212.7774
        39.2504         16.2504
   -138966.500 6                  23513781.945
        36.500
   -659967.15248   -487928.69945  20542849.1094                   20542843.5234
        50.2504         32.2504
    -18912.08246    -12325.48442  24027553.9304                   24027551.6024
        41.7504         16.2504
  -1031125.50847   -791438.46544  21059728.0944                   21059720.9494
        44.5004         24.2504
  -1055473.85946   -459106.30543  22463822.4224                   22463820.3054
        38.2504         20.2504
   -234532.01248   -173797.07844  21319925.3284                   21319920.0864
        49.0004         29.7504
 19  3  5  0 28 45.0000000  0  9G01G11G13G15G17G18G19G24G28
   -359485.65747   -267505.54244  22614493.4454                   22614488.2464
        47.7504         27.5004
      -315.19147       892.23843  23447099.7194                   23447089.9884
        43.7504         19.2504
     76002.48046      2228.65242  23299672.9144                   23299665.5634
        37.2504         14.7504
   -141831.793 6                  23513241.617
        36.000
   -675620.64548   -500126.25445  20539872.7504                   20539864.1094
        51.0004         32.2504
    -18764.03147    -12210.20342  24027586.2114                   24027579.7464
        42.5004         16.2504
  -1057548.18047   -812027.58243  21054703.9694                   21054692.7774
        45.0004         23.7504
  -1082664.93046   -480294.15243  22458651.6174                   22458645.7774
        40.2504         19.0004
   -239817.88348   -177915.96544  21318922.6254                   21318912.6414
        49.0004         29.5004
 19  3  5  0 28 50.0000000  0  9G01G11G13G15G17G18G19G24G28
   -367482.25448   -273736.63744  22612973.4224                   22612966.3554
        48.5004         27.5004
       280.69547      1356.57843  23447212.7814                   23447202.2074
        45.0004         19.2504
     78403.68046      4099.69542  23300131.4454                   23300122.3364
        38.2504         14.7504
   -144667.613 5                  23512701.586
        34.250
   -691240.43448   -512297.52045  20536901.8204                   20536892.2274
        51.0004         33.2504
    -18586.72346    -12072.00842  24027619.9694                   24027612.9304
        41.5004         16.2504
  -1083937.86347   -832590.98043  21049682.6174                   21049671.1844
        45.0004         23.0004
  -1109828.18446   -501460.38743  22453483.5474                   22453477.7154
        39.5004         19.7504
   -245077.69948   -182014.52345  21317922.5554                   21317912.0664
        49.7504         30.2504
 19  3  5  0 28 55.0000000  0  9G01G11G13G15G17G18G19G24G28
   -375446.94548   -279942.89544  22611457.7584                   22611450.3054
        49.0004         28.5004
       903.03147      1841.53143  23447333.1724                   23447320.9384
        44.5004         20.5004
     80823.83646      5985.64542  23300594.0944                   23300583.1994
        39.0004         16.2504
   -147478.926 5                  23512168.336
        31.000
   -706834.73048   -524448.92245  20533935.3134                   20533925.5474
        50.7504         31.7504
    -18381.07647    -11911.69942  24027660.8204                   24027652.0084
        42.2504         16.7504
  -1110303.39547   -853135.51643  21044667.6024                   21044654.3674
        45.0004         22.5004
  -1136966.44546   -522607.05543  22448320.9924                   22448313.2344
        38.7504         19.2504
   -250318.12548   -186097.96145  21316926.9064                   21316915.1454
        50.7504         30.5004
 19  3  5  0 29  0.0000000  0  9G01G11G13G15G17G18G19G24G28
   -383380.31247   -286124.49644  22609939.0164                   22609941.1994
        45.2504         27.7504
      1550.06347      2345.91043  23447446.8524                   23447444.3834
        42.5004         19.5004
     83265.25045      7888.11742  23301048.3444                   23301047.8484
        34.5004         15.5004
   -150265.879 5                  23511629.938
        33.000
   -722400.46548   -536577.84045  20530964.7344                   20530960.7304
        48.2504         33.0004
    -18150.10946    -11731.52442  24027694.6334                   24027695.4774
        38.5004         16.7504
  -1136641.25847   -873658.32444  21039646.0084                   21039641.1804
        43.5004         26.2504
  -1164081.61346   -543735.48843  22443151.8594                   22443153.2424
        38.2504         19.5004
   -255537.23847   -190164.59445  21315923.9064                   21315920.2544
        47.2504         30.0004
 19  3  5  0 29  5.0000000  0  9G01G11G13G15G17G18G19G24G28
   -391283.31647   -292282.82444  22608436.0084                   22608436.0474
        46.0004         28.7504
      2221.00846      2868.61343  23447575.3134                   23447571.4694
        41.5004         20.2504
     85726.91046      9806.20742  23301518.7194                   23301517.1294
        36.2504         14.7504
                                  23511103.211
        33.500
   -737939.66448   -548686.43745  20528008.5394                   20528004.9494
        49.0004         33.0004
    -17894.51646    -11532.49242  24027744.5474                   24027743.9804
        40.7504         16.7504
  -1162953.07847   -894161.18043  21034639.4844                   21034633.4494
        43.2504         23.7504
  -1191176.00846   -564848.18443  22437996.3134                   22437996.9844
        37.2504         19.5004
   -260736.37547   -194215.98845  21314935.3524                   21314931.1954
        47.7504         30.0004
 19  3  5  0 29 10.0000000  0  9G01G11G13G15G17G18G19G24G28
   -399157.05147   -298418.12944  22606937.6724                   22606938.0004
        45.5004         28.7504
      2915.25846      3409.62943  23447706.3594                   23447703.0354
        41.7504         20.2504
     88203.79346     11736.30542  23301989.2344                   23301988.2854
        37.5004         14.7504
   -155775.01214                  23510582.422
        28.500
   -753455.47348   -560776.62145  20525055.0084                   20525051.1174
        48.7504         33.7504
    -17614.50946    -11314.21942  24027797.7584                   24027797.1454
        38.2504         16.2504
  -1189243.25047   -914646.94944  21029635.7034                   21029630.7934
        43.7504         26.0004
  -1218250.55946   -585945.15643  22432844.6254                   22432845.1454
        39.0004         21.2504
   -265917.96947   -198253.54344  21313948.7584                   21313945.2974
        47.2504         29.5004
 19  3  5  0 29 15.0000000  0  9G01G11G13G15G17G18G19G24G28
   -407006.69147   -304534.74644  22605444.9384                   22605444.1374
        46.5004         28.5004
      3627.51247      3964.64143  23447842.4924                   23447838.3284
        42.0004         21.2504
     90698.47746     13680.25042  23302463.3524                   23302463.1914
        37.7504         14.7504
                                  23510064.156
        27.250
   -768949.48448   -572849.88345  20522107.2504                   20522103.5944
        49.0004         34.0004
    -17314.84046    -11080.75842  24027854.4224                   24027853.3554
        41.5004         17.7504
  -1215511.23047   -935115.50844  21024637.4384                   21024632.8164
        43.2504         24.7504
  -1245304.68446   -607026.30943  22427696.1254                   22427696.5004
        37.2504         20.5004
   -271086.09047   -202280.64845  21312965.5004                   21312961.8284
        47.5004         30.5004
 19  3  5  0 29 20.0000000  0  8G01G11G13G17G18G19G24G28
   -414829.86347   -310630.71944  22603954.8984                   22603954.9884
        45.5004         27.5004
      4359.96946      4535.37543  23447981.4064                   23447977.6844
        41.0004         22.0004
     93210.68846     15637.75842  23302941.3524                   23302941.4454
        38.7504         14.7504
   -784419.92248   -584904.76245  20519162.8444                   20519159.6454
        49.5004         34.5004
    -16993.78146    -10830.50442  24027915.7274                   24027914.4694
        36.7504         17.2504
  -1241756.10947   -955566.05944  21019643.2034                   21019638.4534
        43.7504         25.5004
  -1272338.19346   -628091.35743  22422550.9224                   22422552.1844
        38.0004         20.5004
   -276238.21547   -206295.29345  21311985.0164                   21311981.6484
        47.0004         30.0004
 19  3  5  0 29 25.0000000  0  8G01G11G13G17G18G19G24G28
   -422623.36347   -316703.58644  22602472.2894                   22602471.0354
        45.5004         28.5004
      5116.36347      5124.79343  23448125.5084                   23448121.4574
        43.0004         21.7504
     95740.52045     17609.08242  23303422.2734                   23303423.0744
        35.7504         15.5004
   -799866.07848   -596940.73445  20516224.0474                   20516220.1024
        48.7504         33.7504
    -16647.14646    -10560.49342  24027981.5864                   24027980.5274
        38.5004         16.7504
  -1267977.78147   -975998.52044  21014653.3444                   21014648.3284
        43.0004         24.5004
  -1299348.90646   -649138.66443  22417411.7274                   22417411.9534
        38.5004         19.5004
   -281372.52747   -210296.05545  21311007.9694                   21311004.1334
        47.2504         30.5004
 19  3  5  0 29 30.0000000  0  8G01G11G13G17G18G19G24G28
   -430388.98847   -322754.71945  22600994.5634                   22600994.2344
        46.2504         30.0004
      5894.36747      5731.02343  23448273.3204                   23448270.1254
        42.5004         22.7504
     98287.40246     19593.62142  23303907.0944                   23303907.0394
        37.0004         16.2504
   -815288.66448   -608958.33245  20513288.9694                   20513285.1134
        48.5004         33.5004
    -16277.84046    -10272.68442  24028052.3914                   24028050.3324
        40.5004         17.7504
  -1294176.53947   -996413.14544  21009667.7664                   21009662.6764
        42.7504         24.0004
  -1326339.95746   -670170.68043  22412275.7424                   22412275.3714
        38.0004         20.2504
   -286489.91447   -214283.63345  21310034.4614                   21310030.8984
        47.5004         30.5004
 19  3  5  0 29 35.0000000  0  8G01G11G13G17G18G19G24G28
   -438125.78947   -328783.40644  22599522.3834                   22599521.4654
        45.5004         28.5004
      6694.97346      6354.85943  23448425.7274                   23448421.8054
        41.5004         21.5004
    100853.60546     21593.29742  23304396.1414                   23304395.3984
        40.5004         15.5004
   -830685.80948   -620956.10945  20510359.0314                   20510355.3754
        49.2504         34.5004
    -15884.74246     -9966.33242  24028127.0864                   24028125.5554
        38.5004         17.7504
  -1320350.44547  -1016808.39544  21004687.1174                   21004681.5634
        43.7504         26.5004
  -1353308.62146   -691185.19943  22407143.7274                   22407142.8984
        38.7504         21.5004
   -291589.20347   -218257.11345  21309064.0394                   21309060.1524
        47.0004         30.0004
 19  3  5  0 29 40.0000000  0  8G01G11G13G17G18G19G24G28
   -445833.28647   -334789.24544  22598055.1484                   22598054.5274
        45.2504         28.2504
      7518.74247      6996.78143  23448583.1414                   23448578.5984
        42.0004         21.2504
    103440.85246     23609.28942  23304888.1254                   23304887.0314
        37.2504         16.2504
   -846056.65248   -632933.39545  20507433.6954                   20507430.4844
        48.7504         33.7504
    -15467.13746     -9640.97342  24028206.2114                   24028204.1294
        39.0004         17.2504
  -1346498.12147  -1037183.20744  20999711.2734                   20999706.5824
        43.0004         25.2504
  -1380253.23846   -712180.99243  22402015.9534                   22402015.9774
        39.0004         22.2504
   -296669.79347   -222216.01445  21308097.4064                   21308093.4924
        46.7504         30.5004
 19  3  5  0 29 45.0000000  0  8G01G11G13G17G18G19G24G28
   -453510.26647   -340771.29344  22596595.3914                   22596594.9344
        45.5004         28.0004
      8366.66447      7657.48043  23448743.8674                   23448739.9454
        42.5004         21.7504
    106045.63746     25639.05142  23305383.3914                   23305383.5434
        36.2504         15.5004
   -861401.75848   -644890.61345  20504513.8674                   20504509.8594
        48.5004         33.7504
    -15024.48446     -9296.00843  24028290.9774                   24028288.7734
        39.0004         18.5004
  -1372621.39547  -1057539.00044  20994740.3834                   20994735.1054
        42.5004         25.7504
  -1407176.44946   -733160.11343  22396892.9924                   22396892.0594
        37.2504         22.7504
   -301730.86347   -226159.70344  21307134.4694                   21307130.1994
        47.0004         29.7504
 19  3  5  0 29 50.0000000  0  8G01G11G13G17G18G19G24G28
   -461157.54347   -346730.21944  22595138.8834                   22595139.9574
        44.2504         28.7504
      9239.01246      8337.25843  23448909.8914                   23448905.9064
        41.5004         21.5004
    108668.67646     27682.94742  23305882.9064                   23305883.0354
        38.5004         14.7504
   -876722.66848   -656828.98845  20501598.5704                   20501595.1914
        49.0004         34.0004
    -14554.78946     -8929.99243  24028379.4534                   24028377.7504
        39.0004         18.2504
  -1398721.59847  -1077876.81244  20989773.3054                   20989768.3364
        43.5004         25.0004
  -1434072.74246   -754118.27343  22391774.2814                   22391774.1764
        37.5004         22.7504
   -306774.95347   -230090.16044  21306174.1334                   21306170.3244
        46.5004         29.7504
 19  3  5  0 29 55.0000000  0  8G01G11G13G17G18G19G24G28
   -468774.73447   -352665.68444  22593689.3674                   22593689.0784
        44.5004         29.7504
     10135.49247      9035.82043  23449080.9774                   23449076.7664
        42.5004         21.5004
    111311.66446     29742.37942  23306385.6644                   23306385.3054
        38.0004         14.7504
   -892017.10548   -668746.72745  20498688.1334                   20498684.5744
        48.7504         34.0004
    -14059.27046     -8543.91043  24028474.6884                   24028472.0984
        40.5004         18.2504
  -1424796.08247  -1098194.58644  20984811.4384                   20984805.7624
        42.7504         24.2504
  -1460943.43046   -775056.47743  22386661.8524                   22386660.2344
        37.5004         22.5004
   -311800.09447   -234005.84845  21305218.0554                   21305213.5084
        47.0004         30.2504
 19  3  5  0 30  0.0000000  0  8G01G11G13G17G18G19G24G28
   -476362.09047   -358577.93444  22592245.4774                   22592245.6884
        45.0004         29.2504
     11055.51246      9752.69943  23449256.1024                   23449251.7624
        41.5004         21.7504
    113973.67246     31816.71142  23306892.3054                   23306892.0514
        37.5004         16.7504
   -907285.80948   -680644.42245  20495782.4224                   20495779.1884
        48.7504         34.5004
    -13538.97346     -8138.43743  24028573.3284                   24028571.0044
        38.7504         18.5004
  -1450845.50447  -1118492.82444  20979854.5474                   20979848.9304
        43.5004         27.5004
  -1487791.30946   -795976.87943  22381552.2734                   22381551.5784
        38.0004         22.2504
   -316806.42647   -237906.88745  21304265.9454                   21304261.3754
        47.2504         30.0004
 19  3  5  0 30  5.0000000  0  8G01G11G13G17G18G19G24G28
   -483926.35547   -364472.12944  22590807.3674                   22590806.0784
        45.0004         27.5004
     11991.78147     10482.28543  23449433.6174                   23449429.6454
        42.0004         21.5004
    116650.82046     33902.75042  23307401.7894                   23307400.8324
        38.5004         16.7504
   -922533.74248   -692525.92645  20492880.6954                   20492876.9024
        48.7504         33.7504
    -13002.30946     -7720.29343  24028675.0164                   24028673.4654
        37.7504         18.2504
  -1476873.96147  -1138774.75444  20974902.0084                   20974896.8634
        43.7504         26.2504
  -1514625.72746   -816886.82043  22376445.5314                   22376445.2344
        38.5004         22.7504
   -321799.10247   -241797.27744  21303315.2034                   21303311.3954
        46.7504         29.7504
 19  3  5  0 30 10.0000000  0  8G01G11G13G17G18G19G24G28
   -491465.29347   -370346.64144  22589372.1334                   22589371.5944
        45.5004         27.7504
     12947.72746     11227.16043  23449615.9224                   23449611.7504
        41.7504         21.2504
    119340.78146     35998.92242  23307915.1024                   23307913.1294
        40.0004         16.2504
   -937761.86348   -704391.98045  20489983.5634                   20489979.5164
        49.0004         34.5004
    -12444.02746     -7285.27042  24028781.7274                   24028779.1174
        40.2504         16.7504
  -1502883.78547  -1159042.14544  20969952.6334                   20969946.7854
        43.5004         26.7504
  -1541440.81646   -837781.66043  22371343.1024                   22371342.2934
        37.5004         22.5004
   -326778.54747   -245677.36744  21302367.9694                   21302363.8134
        46.7504         29.5004
 19  3  5  0 30 15.0000000  0  8G01G11G13G17G18G19G24G28
   -498979.90247   -376202.18044  22587942.0394                   22587942.1334
        45.2504         27.2504
     13921.03946     11985.59843  23449800.6724                   23449796.7894
        40.0004         21.0004
    122049.28546     38109.41042  23308429.4774                   23308428.8984
        38.2504         16.2504
   -952966.55948   -716239.79345  20487089.9694                   20487086.8914
        48.5004         33.2504
    -11868.03946     -6836.43042  24028891.0474                   24028889.3094
        39.0004         16.7504
  -1528869.45747  -1179290.69944  20965007.0944                   20965002.0394
        43.5004         25.5004
  -1568238.62946   -858663.10543  22366242.5784                   22366243.1914
        37.5004         21.7504
   -331742.60247   -249545.46144  21301423.4384                   21301419.1374
        46.7504         28.7504
 19  3  5  0 30 20.0000000  0  8G01G11G13G17G18G19G24G28
   -506469.47747   -382038.19944  22586517.4224                   22586516.6564
        46.2504         29.2504
     14912.78146     12758.41843  23449990.3984                   23449985.7584
        41.7504         21.0004
    124777.20746     40235.07042  23308948.5234                   23308948.3874
        38.5004         15.5004
   -968147.69948   -728069.23445  20484201.3134                   20484197.4064
        49.0004         33.0004
    -11272.57046     -6372.43442  24029004.8674                   24029002.5904
        40.2504         16.7504
  -1554830.70747  -1199520.21944  20960068.3674                   20960062.8204
        43.2504         24.2504
  -1595016.40246   -879528.86343  22361148.2974                   22361147.6294
        38.2504         20.7504
   -336691.39147   -253401.64544  21300481.2344                   21300477.7584
        47.0004         28.5004
 19  3  5  0 30 25.0000000  0  8G01G11G13G17G18G19G24G28
   -513932.58247   -387853.59445  22585097.3444                   22585096.9414
        46.5004         30.0004
     15925.83247     13547.80143  23450182.4144                   23450178.0634
        42.7504         21.2504
    127518.03546     42370.72342  23309470.8834                   23309470.1764
        37.2504         14.7504
   -983308.98848   -739883.22345  20481316.2344                   20481312.5434
        48.5004         32.2504
    -10653.52046     -5890.01242  24029122.8364                   24029120.5904
        41.0004         16.7504
  -1580773.57447  -1219735.44144  20955130.6484                   20955125.8554
        42.2504         24.0004
  -1621772.56246   -900377.82043  22356057.0314                   22356055.9104
        37.7504         19.7504
   -341626.66447   -257247.31245  21299542.4694                   21299538.4184
        47.5004         30.5004
 19  3  5  0 30 30.0000000  0  8G01G11G13G17G18G19G24G28
   -521366.42347   -393646.19544  22583682.3444                   22583681.6414
        46.0004         27.5004
     16961.16447     14354.55543  23450379.6094                   23450375.8324
        42.5004         21.0004
    130274.84046     44518.94542  23309995.0944                   23309994.8444
        38.2504         15.5004
   -998445.26648   -751677.73045  20478436.1804                   20478431.9964
        49.0004         34.0004
    -10011.94146     -5390.09042  24029244.5474                   24029242.9304
        39.0004         17.2504
  -1606692.75847  -1239932.21144  20950198.7274                   20950193.8244
        43.0004         26.0004
  -1648511.68046   -921213.49643  22350968.7424                   22350967.5394
        38.0004         21.2504
   -346542.78147   -261078.04344  21298607.6094                   21298602.6254
        47.2504         29.5004
 19  3  5  0 30 35.0000000  0  8G01G11G13G17G18G19G24G28
   -528771.07047   -399416.06644  22582272.6644                   22582272.8364
        45.5004         29.2504
     18019.27747     15179.03943  23450581.0554                   23450577.3204
        42.0004         21.7504
    133053.88746     46684.36742  23310522.7974                   23310523.9384
        38.5004         14.7504
  -1013554.17648   -763450.91845  20475560.3594                   20475556.7154
        48.7504         32.5004
     -9346.37946     -4871.47343  24029371.0314                   24029369.2624
        39.5004         19.2504
  -1632584.22347  -1260107.38343  20945271.1724                   20945266.4304
        42.7504         22.5004
  -1675225.85246   -942029.73043  22345883.7034                   22345884.2034
        37.7504         20.5004
   -351439.78147   -264893.91045  21297674.7344                   21297671.0274
        47.2504         30.2504
 19  3  5  0 30 40.0000000  0  8G01G11G13G17G18G19G24G28
   -536148.98847   -405165.08245  22580869.4064                   22580869.0004
        45.7504         30.0004
     19098.01247     16019.60243  23450786.5554                   23450782.5944
        42.2504         21.7504
    135849.79646     48863.05642  23311055.3054                   23311055.8834
        39.0004         14.7504
  -1028640.37148   -775206.39145  20472689.8444                   20472686.7734
        49.0004         33.7504
     -8658.93446     -4335.76243  24029502.1024                   24029500.3094
        38.2504         18.5004
  -1658453.31547  -1280265.10643  20940348.7114                   20940343.7544
        43.2504         23.5004
  -1701919.93746   -962830.37543  22340805.4924                   22340804.3874
        38.0004         19.7504
   -356321.02047   -268697.46945  21296746.2114                   21296743.0084
        46.7504         30.0004
 19  3  5  0 30 45.0000000  0  8G01G11G13G17G18G19G24G28
   -543498.64547   -410892.09044  22579470.8364                   22579470.6804
        46.2504         28.2504
     20199.49046     16877.90443  23450995.2894                   23450991.8984
        40.7504         20.2504
    138660.55146     51053.29342  23311590.6644                   23311591.1134
        38.2504         14.7504
  -1043704.75048   -786944.87545  20469823.2424                   20469819.3484
        48.2504         33.2504
     -7946.85946     -3780.90242  24029637.2894                   24029636.0434
        39.2504         17.7504
  -1684301.84447  -1300406.82444  20935429.5554                   20935424.7734
        42.7504         25.5004
  -1728592.25845   -983613.95743  22335729.6334                   22335728.8954
        34.5004         21.0004
   -361186.57047   -272488.81245  21295820.4614                   21295815.8874
        47.7504         30.7504
 19  3  5  0 30 50.0000000  0  8G01G11G13G17G18G19G24G28
   -550819.73047   -416596.84445  22578077.2664                   22578077.7234
        45.7504         30.2504
     21322.59846     17753.05143  23451209.4694                   23451205.8634
        41.7504         20.7504
    141491.344 6                  23312129.141
        38.250
  -1058742.56648   -798662.66045  20466961.0944                   20466957.8054
        48.2504         33.5004
     -7212.62546     -3208.78142  24029777.1564                   24029775.6604
        38.5004         17.7504
  -1710123.78547  -1320527.83644  20930515.9144                   20930510.6024
        43.0004         24.7504
  -1755243.74245  -1004381.35543  22330658.3204                   22330657.3164
        35.5004         20.5004
   -366033.03147   -276265.28145  21294898.2344                   21294894.6644
        47.5004         31.0004
 19  3  5  0 30 55.0000000  0  8G01G11G13G17G18G19G24G28
   -558110.30947   -422277.82044  22576689.7114                   22576689.3524
        43.7504         28.0004
     22470.23846     18647.30943  23451427.4614                   23451424.0904
        37.5004         20.5004
    144340.59446     52917.21553  23312671.2034                   23312669.2664
        41.5004         19.5004
  -1073754.78548   -810360.49245  20464104.7424                   20464101.1764
        49.2504         35.0004
     -6452.62545     -2616.55942  24029922.0784                   24029920.4614
        35.2504         17.2504
  -1735921.07047  -1340629.60944  20925606.8914                   20925601.7734
        45.2504         29.0004
  -1781872.17646  -1025130.79743  22325590.8754                   22325590.2664
        38.2504         21.2504
   -370860.43747   -280026.87944  21293979.5704                   21293975.3094
        46.2504         29.2504
 19  3  5  0 31  0.0000000  0  8G01G11G13G17G18G19G24G28
   -565371.89147   -427936.17644  22575307.9144                   22575307.3014
        46.0004         29.7504
     23640.03146     19558.84043  23451650.7894                   23451646.5474
        41.5004         20.7504
    147212.24246     55154.90242  23313217.6954                   23313215.5004
        39.0004         16.7504
  -1088739.65648   -822037.00045  20461252.8204                   20461248.9304
        48.2504         32.7504
     -5669.67246     -2006.46142  24030070.7664                   24030069.1844
        41.0004         16.2504
  -1761690.33247  -1360709.53143  20920703.1414                   20920698.1414
        42.2504         23.2504
  -1808477.73446  -1045862.37943  22320527.0234                   22320526.9844
        37.2504         21.0004
   -375668.37547   -283773.33645  21293064.6644                   21293060.0904
        47.0004         30.0004
 19  3  5  0 31  5.0000000  0  8G01G11G13G17G18G19G24G28
   -572602.49647   -433570.42244  22573932.3914                   22573931.7034
        45.5004         29.0004
     24835.69546     20490.52743  23451877.3134                   23451873.5044
        40.5004         21.0004
    150099.13346     57404.38342  23313766.9454                   23313765.7194
        38.2504         14.7504
  -1103701.41848   -833695.52045  20458405.7194                   20458401.5664
        48.5004         32.5004
     -4858.18046     -1374.11342  24030225.7344                   24030223.9924
        38.2504         15.5004
  -1787438.46147  -1380773.02344  20915803.5164                   20915798.0664
        43.5004         26.5004
  -1835057.58646  -1066573.97343  22315469.5864                   22315468.9534
        36.2504         19.5004
   -380459.08647   -287506.34845  21292153.5004                   21292148.5084
        47.5004         30.0004
 19  3  5  0 31 10.0000000  0  8G01G11G13G17G18G19G24G28
   -579805.90647   -439183.46944  22572561.3914                   22572560.6604
        45.2504         28.2504
     26051.68846     21438.06343  23452109.0004                   23452105.1024
        41.5004         21.0004
    153003.809 6                  23314320.609
        39.500
  -1118638.22348   -845334.59845  20455563.8834                   20455559.8714
        49.0004         33.2504
     -4026.14546      -725.76242  24030383.9064                   24030381.3984
        38.2504         16.7504
  -1813161.87547  -1400817.24243  20910907.9144                   20910902.6374
        43.2504         23.0004
  -1861618.94946  -1087271.12743  22310414.6334                   22310414.2274
        39.2504         18.2504
   -385232.02047   -291225.53145  21291245.0164                   21291240.5984
        47.0004         30.0004
 19  3  5  0 31 15.0000000  0  8G01G11G13G17G18G19G24G28
   -586976.57447   -444771.01244  22571197.6334                   22571196.4454
        46.0004         29.0004
     27294.55547     22406.51643  23452346.5314                   23452341.9184
        42.5004         21.2504
    155929.172 6                  23314876.930
        40.250
  -1133547.50848   -856952.22345  20452728.1094                   20452722.7774
        50.2504         33.2504
     -3165.23046       -54.92642  24030548.0944                   24030545.2074
        41.0004         16.7504
  -1838858.78547  -1420840.80944  20906019.4064                   20906011.8244
        44.0004         25.0004
  -1888152.27346  -1107946.44143  22305366.6564                   22305365.2464
        39.7504         19.2504
   -389984.29747   -294928.60944  21290341.6884                   21290335.8094
        47.7504         29.7504
 19  3  5  0 31 20.0000000  0  8G01G11G13G17G18G19G24G28
   -594117.78547   -450335.60244  22569837.8754                   22569837.1804
        45.5004         28.7504
     28559.97746     23392.56343  23452586.8134                   23452582.1604
        41.2504         20.7504
    158876.95746     59683.21553  23315437.9614                   23315432.2074
        39.0004         20.0004
  -1148428.75448   -868548.01245  20449894.7974                   20449890.9494
        49.0004         34.0004
     -2281.12946       633.95342  24030715.7114                   24030713.5784
        36.5004         16.2504
  -1864527.19147  -1440842.17644  20901133.8834                   20901128.7704
        43.7504         27.5004
  -1914662.82046  -1128604.00043  22300321.5084                   22300320.6294
        37.5004         20.7504
   -394716.36347   -298615.93745  21289439.6954                   21289435.5084
        47.2504         30.5004
 19  3  5  0 31 25.0000000  0  2G13G17
                                  23316013.1174                   23315996.1484
        34.2504         16.7504
                                  20447078.3444                   20447063.2774
        44.0004         32.0004
 19  3  5  0 31 30.0000000  0  8G01G11G13G17G18G19G24G28
                                  22567135.0474                   22567132.3914
        46.7504         34.5004
                                  23453079.656
        42.250
                                  23316569.9844                   23316565.7304
        37.0004         16.2504
  -1178123.02348   -891686.51645  20444244.3674                   20444241.2894
        48.2504         34.5004
                                  24031063.609
        41.500
                                  20891377.594
        41.750
                                  22290243.656
        37.500
                                  21287647.7584                   21287643.7464
        47.5004         32.2504
 19  3  5  0 31 35.0000000  0  1G17
                                  20741228.1414                   20741214.7194
        42.0004         32.7504
 19  3  5  0 31 40.0000000  0  8G01G11G13G17G18G19G24G28
   1555730.46557    758625.23755  22864245.1414                   22864245.6954
        46.5004         32.5004
   1609238.97357   1253951.37153  23753380.7504                   23753377.4494
        43.7504         22.0004
   1746261.09016                  23617507.531
        36.750
    367701.37547    313313.12555  20738404.2664                   20738400.8134
        47.7504         31.5004
   1576889.62956   1230025.67253  24331221.7664                   24331219.7304
        40.0004         19.5004
   1497606.04356   -284276.09053  21181433.5234                   21181428.5904
        41.2504         22.0004
   1548994.95715                  22579976.070
        35.500
   1161933.51257    914649.58655  21585660.5234                   21585657.1414
        47.5004         32.0004
 19  3  5  0 31 45.0000000  0  8G01G11G13G17G18G19G24G28
   1548720.59847    753162.99044  22862911.6644                   22862910.7544
        44.7504         29.2504
   1610604.34846   1255015.32043  23753641.1334                   23753636.4844
        39.5004         21.2504
   1749289.727 6                  23618083.531
        40.500
    352932.90648    301805.20345  20735594.4614                   20735589.2154
        49.5004         34.5004
   1577879.98445   1230797.41043  24331410.3364                   24331408.2034
        35.5004         18.5004
   1472048.96147   -304190.61144  21176569.9614                   21176564.4964
        45.0004         28.5004
   1522584.91446     54470.89853  22574948.9614                   22574948.5394
        37.0004         21.0004
   1157278.63647    911022.39045  21584775.3364                   21584770.1764
        46.7504         30.7504
 19  3  5  0 31 50.0000000  0  8G01G11G13G17G18G19G24G28
   1541736.31647    747720.66444  22861585.8134                   22861580.6994
        47.2504         28.7504
   1611989.26647   1256094.44943  23753906.7584                   23753899.6054
        43.5004         21.0004
   1752332.074 6                  23618664.500
        40.000
    338185.28548    290313.52045  20732792.0394                   20732784.1094
        50.7504         33.2504
   1578891.41446   1231585.48442  24331604.5314                   24331600.3594
        37.5004         17.7504
   1446511.88347   -324089.64844  21171712.7894                   21171703.9024
        45.5004         25.2504
   1496194.26246     33906.74243  22569928.7344                   22569926.5354
        36.0004         19.5004
   1152637.75048    907406.08645  21583895.6094                   21583886.8324
        49.2504         31.5004
 19  3  5  0 31 55.0000000  0  8G01G11G13G17G18G19G24G28
   1534778.33247    742298.89844  22860257.8754                   22860258.6214
        45.5004         29.2504
                                  23754171.1724                   23754167.4184
        41.7504         21.5004
                                  23619244.758
        37.000
                                  20729985.9144                   20729983.3054
        49.0004         34.5004
                                  24331798.5704                   24331797.6484
        40.7504         17.2504
                                  21166855.4534                   21166851.5394
        43.0004         26.5004
                                  22564908.789
        39.000
                                  21583011.7424                   21583009.0004
        47.0004         31.7504
 19  3  5  0 32  0.0000000  0  8G01G11G13G17G18G19G24G28
   1527846.31647    736897.20744  22858940.7504                   22858940.8284
        47.0004         28.5004
   1614817.74646   1258298.35243  23754444.1644                   23754440.3794
        41.7504         21.0004
   1758469.837 6                  23619834.242
        39.250
    308761.17248    267385.57045  20727189.2344                   20727187.8674
        50.0004         34.0004
   1580975.58646   1233209.49642  24332002.3364                   24331998.8714
        39.0004         16.7504
   1395509.32947   -363831.98444  21162006.8594                   21162001.8794
        44.5004         26.5004
   1443472.40246     15830.66053  22559896.9924                   22559894.8984
        37.5004         19.2504
   1143404.68448    900211.41045  21582135.9694                   21582132.8364
        48.2504         30.5004
 19  3  5  0 32  5.0000000  0  8G01G11G13G17G18G19G24G28
   1520937.39147    731513.78544  22857624.7664                   22857625.6524
        45.7504         28.0004
   1616258.16846   1259420.94943  23754715.9694                   23754713.2504
        41.5004         20.5004
   1761561.598 6                  23620418.789
        39.500
    294081.35948    255946.90245  20724395.4694                   20724392.0744
        48.7504         33.5004
   1582045.125 6                  24332202.586
        40.500
   1370040.42247   -383677.72743  21157158.1644                   21157153.9414
        42.5004         22.7504
   1417138.35946     -4689.21942  22554882.8674                   22554883.9964
        37.5004         17.7504
   1138809.11747    896630.59445  21581260.0784                   21581257.4224
        46.5004         31.0004
 19  3  5  0 32 10.0000000  0  8G01G11G13G17G18G19G24G28
   1514047.49647    726144.97744  22856313.4384                   22856313.6174
        45.5004         28.0004
   1617711.66447   1260553.45743  23754992.9534                   23754990.1954
        42.0004         20.0004
   1764658.957 6                  23621008.148
        38.250
    279414.64148    244518.23845  20721604.7034                   20721600.9804
        49.0004         33.5004
   1583129.36446   1233914.83153  24332408.7974                   24332406.9104
        39.2504         19.0004
   1344583.61747   -403514.24644  21152313.9224                   21152309.4734
        43.0004         26.0004
   1390815.83646    -25200.30542  22549874.6094                   22549874.7344
        36.0004         17.7504
   1134220.53947    893055.03545  21580387.0634                   21580383.7384
        47.2504         31.0004
 19  3  5  0 32 15.0000000  0  8G01G11G13G17G18G19G24G28
   1507180.02347    720793.71944  22855006.8444                   22855006.6024
        44.5004         26.2504
   1619181.28146   1261698.64543  23755273.0784                   23755269.1294
        40.2504         20.5004
   1767767.94146   1296383.71953  23621600.1564                   23621596.2194
        39.5004         18.2504
    264766.21148    233103.89145  20718816.5784                   20718812.6684
        48.2504         33.5004
   1584231.07046   1234773.34042  24332618.5634                   24332616.8284
        38.0004         17.7504
   1319144.71547   -423336.77044  21147473.4224                   21147468.6024
        43.0004         25.7504
   1364509.32046    -45698.89843  22544868.8524                   22544868.6914
        37.7504         18.5004
   1129643.39847    889488.44145  21579515.9844                   21579512.4224
        46.2504         30.5004
 19  3  5  0 32 20.0000000  0  8G01G11G13G17G18G19G24G28
   1500338.77347    715462.89144  22853704.4064                   22853704.6994
        45.0004         28.5004
   1620669.84547   1262858.60143  23755556.7194                   23755552.7154
        42.2504         20.7504
   1770898.06446   1298822.85442  23622195.7034                   23622192.0784
        38.2504         16.7504
    250144.08658    221710.04755  20716034.8984                   20716031.5314
        48.0004         33.2504
   1585351.84546   1235646.68643  24332831.5784                   24332830.5554
        39.0004         18.5004
   1293733.36356   -443137.79353  21142638.3054                   21142632.9384
        41.7504         23.0004
   1338222.29745    -66182.26242  22539866.4454                   22539866.2344
        35.7504         17.2504
   1125084.43457    885936.01255  21578649.5634                   21578644.6884
        47.2504         31.2504
 19  3  5  0 32 25.0000000  0  8G01G11G13G17G18G19G24G28
   1493529.56347    710156.98044  22852408.9454                   22852409.1484
        44.5004         27.0004
   1622185.18046   1264039.32043  23755844.6334                   23755841.1374
        39.5004         19.7504
   1774042.64146   1301273.08242  23622793.1094                   23622791.2934
        38.2504         15.5004
    235545.27048    210334.31345  20713256.3054                   20713252.6914
        48.5004         34.5004
   1586502.16846   1236543.03542  24333051.0164                   24333049.7304
        37.0004         16.2504
   1268343.06547   -462922.46144  21137805.9614                   21137800.7424
        43.5004         28.5004
   1311961.78146    -86645.02742  22534869.2664                   22534868.9804
        36.5004         17.2504
   1120543.12947    882397.31345  21577784.1564                   21577780.0824
        46.2504         31.0004
 19  3  5  0 32 30.0000000  0  8G01G11G13G17G18G19G24G28
   1486744.18847    704869.70744  22851118.4064                   22851118.3244
        44.7504         27.2504
   1623717.35246   1265233.27743  23756136.7344                   23756133.1214
        40.7504         20.0004
   1777204.93046   1303737.22742  23623395.1334                   23623393.1644
        38.5004         16.2504
    220969.59848    198976.68445  20710482.8594                   20710480.0554
        48.0004         32.7504
   1587669.47546   1237452.65742  24333273.1174                   24333272.0514
        38.5004         17.2504
   1242976.72347   -482688.39844  21132979.6334                   21132974.1684
        42.5004         25.5004
   1285718.43445   -107094.35942  22529874.6884                   22529875.3284
        34.7504         16.7504
   1116017.07847    878870.55145  21576922.6414                   21576920.0164
        47.0004         30.5004
 19  3  5  0 32 35.0000000  0  8G01G11G13G17G18G19G24G28
                                  22849831.5704                   22849831.3014
        45.2504         29.0004
                                  23756431.2194                   23756428.1684
        40.5004         19.7504
                                  23624000.9064                   23623997.5634
        39.5004         14.7504
    206415.64148    187635.93845  20707713.0474                   20707710.0594
        48.2504         33.0004
                                  24333498.7974                   24333498.0044
        36.0004         16.2504
                                  21128156.7114                   21128151.6294
        42.7504         26.2504
   1259493.25046   -127529.57442  22524885.2424                   22524884.6484
        36.7504         16.7504
   1111506.11347    875355.50045  21576065.3204                   21576061.3714
        47.0004         30.5004
 19  3  5  0 32 40.0000000  0  8G01G11G13G17G18G19G24G28
   1473251.15247    694355.63744  22848550.5084                   22848551.2664
        45.5004         28.0004
   1626840.10256   1267666.57453  23756729.9384                   23756727.3364
        41.0004         19.5004
   1783575.70756   1308701.45352  23624607.1804                   23624605.9774
        40.2504         15.5004
    191884.41858    176312.90255  20704947.6414                   20704946.1644
        48.7504         32.5004
   1590065.72316                  24333728.742
        37.000
   1192309.71047   -522169.23343  21123337.0234                   21123333.8524
        43.5004         22.7504
   1233288.25816                  22519897.883
        39.000
   1107010.63747    871852.51645  21575209.3594                   21575206.1374
        47.2504         30.7504
 19  3  5  0 32 50.0000000  0  8G01G11G13G17G18G19G24G28
   1567928.94557    686632.03655  22846000.8594                   22846001.0314
        45.2504         30.0004
   1577215.45316                  23757337.672
        41.500
   1579037.16416                  23625831.391
        40.000
   1559188.41458    160042.69256  20699429.2424                   20699424.9774
        48.7504         36.5004
   1576811.00416                  24334199.586
        39.000
   1546102.44157   -548184.76554  21113711.8134                   21113706.3054
        43.5004         28.2504
   1546098.29716                  22509935.039
        37.750
   1570413.45757    866554.57955  21573505.8134                   21573501.2034
        47.5004         32.0004
 19  3  5  0 32 55.0000000  0  8G01G11G13G17G18G19G24G28
   1561258.28647    681434.12145  22844731.2974                   22844731.6994
        45.7504         31.2504
   1578829.54747   1270861.60253  23757645.2664                   23757642.1564
        42.7504         21.5004
   1582267.930 6                  23626446.242
        37.000
   1544712.63747    148762.86745  20696674.5234                   20696671.2274
        47.7504         34.2504
   1578065.57046   1239530.14153  24334438.0084                   24334436.5704
        39.5004         20.2504
   1520836.50847   -567872.49244  21108903.5474                   21108898.5704
        42.0004         25.5004
   1519939.59845   -154472.89553  22504956.0084                   22504954.8594
        35.2504         20.7504
   1565950.67247    863077.08245  21572657.3134                   21572652.3164
        47.7504         31.7504
 19  3  5  0 33  0.0000000  0  8G01G11G13G17G18G19G24G28
   1554612.04747    676255.23045  22843466.4144                   22843466.9454
        45.7504         31.0004
   1580462.35047   1272133.92243  23757955.8444                   23757952.6024
        42.7504         22.0004
   1585508.758 6                  23627062.336
        36.500
   1530254.75447    137496.99245  20693922.9454                   20693920.1724
        47.0004         33.0004
   1579340.70746   1240523.73043  24334680.5634                   24334679.8674
        41.5004         19.5004
   1495587.23846   -587547.23043  21104098.7664                   21104094.3364
        41.2504         22.5004
   1493798.80145   -174842.31243  22499981.8204                   22499981.5474
        35.0004         18.2504
   1561499.77847    859608.85445  21571809.4144                   21571805.8554
        47.5004         32.2504
 19  3  5  0 33  5.0000000  0  8G01G11G13G17G18G19G24G28
   1547990.37947    671095.50445  22842206.9694                   22842207.4884
        47.0004         31.0004
   1582113.02347   1273420.17643  23758269.9304                   23758266.5744
        43.7504         22.0004
   1588758.75446   1310606.85953  23627681.0474                   23627682.4344
        37.2504         20.0004
   1515815.89147    126245.94545  20691175.2274                   20691172.6214
        47.7504         34.2504
   1580634.32446   1241531.79743  24334926.9384                   24334926.1174
        40.2504         19.2504
   1470355.43846   -607208.36343  21099297.8364                   21099293.3134
        41.5004         23.0004
   1467671.44945   -195201.27743  22495010.3674                   22495009.7974
        34.7504         19.0004
   1557062.43847    856151.19545  21570965.1484                   21570962.4304
        47.5004         31.7504
 19  3  5  0 33 10.0000000  0  8G01G11G13G17G18G19G24G28
   1541392.47747    665954.26644  22840950.8984                   22840951.3324
        45.0004         28.0004
   1583781.07846   1274719.91843  23758587.4224                   23758584.1994
        41.5004         20.0004
   1592025.34046   1313152.26242  23628302.6954                   23628304.1524
        40.0004         17.2504
   1501398.77048    115011.80545  20688432.3754                   20688429.1414
        49.2504         35.7504
   1581946.60946   1242554.31643  24335176.4924                   24335175.8954
        39.0004         19.0004
   1445146.04747   -626852.06244  21094500.5474                   21094495.2664
        43.7504         27.0004
   1441564.55146   -215544.33642  22490042.2974                   22490041.9264
        38.7504         17.7504
   1552638.69547    852704.10545  21570123.8444                   21570119.7584
        47.2504         31.2504
 19  3  5  0 33 15.0000000  0  8G01G11G13G17G18G19G24G28
   1534824.46047    660836.32244  22839700.9304                   22839701.1174
        45.7504         29.2504
   1585472.88546   1276038.20843  23758908.8284                   23758906.2814
        41.0004         20.2504
   1595307.10546   1315709.50842  23628926.8834                   23628928.1684
        38.7504         16.2504
   1487005.89548    103796.57045  20685692.9774                   20685689.5554
        49.2504         35.5004
   1583284.05946   1243596.46842  24335431.4614                   24335430.0124
        39.0004         17.7504
   1419959.44947   -646477.98444  21089707.0704                   21089702.5744
        44.0004         28.0004
   1415480.20746   -235869.81143  22485078.2734                   22485078.3014
        38.5004         19.0004
   1548233.05947    849271.14145  21569284.7584                   21569281.2154
        47.0004         30.7504
 19  3  5  0 33 20.0000000  0  8G01G11G13G17G18G19G24G28
   1528277.72747    655735.00044  22838455.4144                   22838456.0744
        45.0004         28.5004
   1587179.35947   1277367.96543  23759233.8134                   23759231.1024
        42.5004         20.2504
   1598604.89846   1318279.16842  23629554.2344                   23629555.5004
        37.5004         16.2504
   1472632.69948     92596.71145  20682958.6094                   20682955.2704
        48.5004         34.7504
   1584637.52046   1244651.16442  24335688.7114                   24335687.4024
        37.7504         16.2504
   1394793.93847   -666087.44544  21084918.8984                   21084914.4144
        43.5004         27.0004
   1389413.71146   -256181.30542  22480118.0554                   22480118.0864
        37.5004         17.7504
   1543838.81347    845847.07445  21568449.8134                   21568445.3054
        47.2504         31.2504
 19  3  5  0 33 25.0000000  0  8G01G11G13G17G18G19G24G28
   1521751.37147    650649.53944  22837213.8524                   22837214.3984
        44.0004         28.2504
   1588898.99647   1278707.96143  23759561.5474                   23759557.8134
        42.0004         19.5004
   1601915.35946   1320858.77042  23630184.0164                   23630185.0864
        40.0004         15.5004
   1458278.81348     81411.85945  20680226.3984                   20680223.5944
        48.5004         35.5004
   1586004.43046   1245716.23842  24335948.6254                   24335947.5084
        38.5004         16.7504
   1369648.23847   -685681.49244  21080133.5164                   21080129.6024
        43.7504         27.2504
   1363360.73046   -276482.32442  22475160.8134                   22475160.0164
        38.0004         17.7504
   1539456.14147    842432.01245  21567615.2584                   21567612.1524
        46.7504         31.0004
 19  3  5  0 33 30.0000000  0  8G01G11G13G17G18G19G24G28
   1515249.64547    645583.23444  22835976.1334                   22835977.4884
        45.0004         27.0004
   1590637.56147   1280062.66843  23759891.7424                   23759889.0084
        42.0004         18.5004
   1605237.64846   1323447.52742  23630815.9454                   23630817.3984
        36.5004         14.7504
   1443943.83648     70241.73445  20677498.7114                   20677496.9184
        48.2504         34.7504
   1587392.69546   1246798.03142  24336212.7584                   24336212.3094
        40.0004         16.2504
   1344520.59447   -705261.48444  21075351.5394                   21075347.6604
        42.0004         25.5004
   1337328.64546   -296767.10942  22470206.8444                   22470206.7704
        37.0004         17.7504
   1535085.51647    839026.31345  21566783.2274                   21566780.5704
        46.5004         30.2504
 19  3  5  0 33 35.0000000  0  8G01G11G13G17G18G19G24G28
   1508770.23457    640534.35254  22834743.4224                   22834744.2384
        44.7504         28.0004
   1592391.33256   1281429.23453  23760225.9064                   23760222.9344
        41.2504         19.0004
   1608574.18856   1326047.44952  23631451.6024                   23631452.2154
        38.7504         14.7504
   1429629.93448     59088.04345  20674775.1334                   20674772.4454
        48.5004         35.5004
   1588796.29756   1247891.77052  24336480.5704                   24336479.4774
        38.7504         15.5004
   1319414.47747   -724824.69144  21070574.5704                   21070570.6174
        43.2504         27.0004
   1311311.90646   -317039.87142  22465256.0234                   22465256.2194
        38.0004         17.2504
   1530728.83247    835631.63745  21565954.6644                   21565950.6374
        47.0004         31.0004
 19  3  5  0 33 40.0000000  0  8G01G11G13G17G18G19G24G28
   1502312.98447    635502.71944  22833514.9304                   22833515.5904
        45.0004         28.7504
   1594160.96946   1282808.17243  23760562.5164                   23760559.5984
        41.5004         19.5004
   1611920.98846   1328655.34442  23632088.4614                   23632088.9884
        39.5004         13.7504
   1415333.35548     47947.84845  20672054.5474                   20672052.0824
        48.5004         35.5004
   1590217.21546   1248998.92642  24336750.5164                   24336749.5664
        39.0004         16.2504
   1294325.25447   -744374.74244  21065799.9534                   21065795.6724
        43.2504         25.7504
   1285310.33646   -337300.85243  22460308.0474                   22460308.0864
        37.0004         18.5004
   1526381.99257    832244.33255  21565127.5864                   21565123.9654
        47.0004         31.0004
 19  3  5  0 33 45.0000000  0  8G01G11G13G17G18G19G24G28
   1495875.47347    630486.47744  22832289.9224                   22832290.0824
        44.7504         27.7504
   1595943.70347   1284197.29743  23760901.7584                   23760898.8484
        42.5004         19.7504
   1615279.64846   1331272.45342  23632727.7664                   23632728.0664
        38.5004         15.5004
   1401054.37148     36821.37145  20669337.1254                   20669333.2734
        48.5004         35.2504
   1591652.18846   1250117.14142  24337023.2814                   24337022.7934
        40.0004         16.7504
   1269254.22747   -763910.59044  21061029.0864                   21061024.5394
        42.7504         27.0004
   1259323.73846   -357550.14543  22455362.3204                   22455362.6134
        38.5004         18.2504
   1522045.42647    828865.19945  21564301.6804                   21564297.9064
        47.0004         30.2504
 19  3  5  0 33 50.0000000  0  8G01G11G13G17G18G19G24G28
   1489461.43447    625488.50444  22831069.3524                   22831068.5824
        46.0004         28.2504
   1597743.68316                  23761244.422
        41.250
   1618646.54756   1333896.01252  23633368.6024                   23633368.6954
        37.5004         14.7504
   1386792.88358     25708.51255  20666623.3054                   20666619.1644
        49.5004         35.5004
   1593105.70846   1251249.72142  24337300.3054                   24337299.7274
        39.5004         17.2504
   1244199.26257   -783433.96554  21056262.1174                   21056255.9774
        44.5004         26.5004
   1233352.34456   -377787.62553  22450420.6644                   22450420.2734
        40.2504         19.0004
   1517720.65247    825495.23045  21563479.2584                   21563474.5984
        47.0004         30.5004
 19  3  5  0 33 55.0000000  0  8G01G11G13G17G18G19G24G28
   1483067.93447    620506.59044  22829852.3364                   22829852.9654
        45.5004         29.5004
   1599557.816 7                  23761589.711
        42.000
   1622025.86746   1336529.31342  23634010.7814                   23634011.7704
        37.0004         12.5004
   1372549.09448     14609.49245  20663912.8754                   20663910.2304
        48.2504         34.0004
   1594575.14546   1252394.80142  24337579.2274                   24337579.3794
        38.0004         15.5004
   1219162.60947   -802942.97744  21051497.0634                   21051491.9184
        43.0004         27.0004
   1207398.72746   -398011.17243  22445482.2034                   22445481.9844
        36.5004         19.0004
   1513405.49247    822132.80545  21562658.0084                   21562654.4064
        47.5004         30.7504
 19  3  5  0 34  0.0000000  0  8G01G11G13G17G18G19G24G28
   1476696.73047    615542.00844  22828640.3834                   22828639.9654
        45.7504         28.5004
   1601387.813 6                  23761937.719
        41.250
   1625412.203 6                  23634656.031
        39.000
   1358321.97748      3523.40245  20661205.5704                   20661201.9654
        48.5004         35.5004
   1596060.99246   1253552.56642  24337862.7194                   24337861.6604
        40.5004         16.2504
   1194141.16447   -822440.25444  21046735.7584                   21046731.1884
        43.0004         25.5004
   1181456.76246   -418225.70343  22440545.4064                   22440545.4494
        36.5004         19.5004
   1509101.64847    818779.12945  21561838.6884                   21561834.9884
        47.0004         31.0004
 19  3  5  0 34  5.0000000  0  8G01G11G13G17G18G19G24G28
   1470345.29347    610592.83244  22827431.5394                   22827431.7974
        44.7504         26.7504
   1603230.641 6                  23762288.367
        40.250
   1628812.547 6                  23635302.688
        40.000
   1344113.69148     -7547.98845  20658501.6484                   20658498.4264
        49.0004         35.7504
   1597560.74646   1254721.19142  24338148.3754                   24338147.1604
        38.2504         16.7504
   1169139.78547   -841921.82844  21041978.3134                   21041973.6334
        44.2504         27.5004
   1155531.03946   -438427.53943  22435611.4844                   22435611.6414
        38.2504         19.2504
   1504808.18447    815433.59044  21561021.5394                   21561018.3204
        46.2504         29.5004
 19  3  5  0 34 10.0000000  0  8G01G11G13G17G18G19G24G28
   1464018.63347    605662.96144  22826227.4144                   22826227.5434
        45.2504         28.0004
   1605091.949 6                  23762642.961
        41.500
   1632225.434 6                  23635952.703
        38.250
   1329925.43048    -18603.78545  20655801.6804                   20655798.4734
        48.5004         35.0004
   1599080.24646   1255905.21142  24338437.1254                   24338436.0554
        40.2504         17.2504
   1144157.98447   -861388.18744  21037224.0394                   21037219.1524
        42.5004         26.7504
   1129623.00446   -458615.63342  22430681.7424                   22430681.7074
        37.7504         17.7504
   1500528.41847    812098.68045  21560207.7424                   21560203.5984
        47.0004         30.7504
 19  3  5  0 34 15.0000000  0  8G01G11G13G17G18G19G24G28
   1457716.64147    600752.31344  22825027.8284                   22825028.3554
        45.5004         28.5004
   1606972.00047   1287182.80553  23763001.0864                   23762996.9804
        42.2504         21.0004
   1635647.92646   1338444.82853  23636603.5784                   23636599.2424
        37.2504         18.2504
   1315755.60948    -29645.19545  20653105.4614                   20653102.0474
        48.2504         34.2504
   1600620.25846   1257105.23842  24338730.1024                   24338729.2504
        41.2504         17.2504
   1119193.26647   -880841.18744  21032473.9844                   21032468.5554
        42.0004         24.5004
   1103733.37146   -478789.37943  22425755.0474                   22425754.8714
        36.5004         18.2504
   1496260.85947    808773.31645  21559396.0784                   21559391.7504
        47.5004         31.2504
 19  3  5  0 34 20.0000000  0  8G01G11G13G17G18G19G24G28
   1451436.17247    595858.44544  22823832.9144                   22823833.3134
        44.5004         28.2504
   1608866.71546   1288659.18443  23763361.1564                   23763357.6804
        41.2504         20.5004
   1639084.70346   1341122.89542  23637257.7504                   23637253.6884
        39.0004         16.7504
   1301605.58248    -40671.19145  20650412.7664                   20650409.6804
        48.5004         35.2504
   1602175.89546   1258317.48042  24339026.1564                   24339024.7854
        37.5004         17.2504
   1094249.23847   -900278.10244  21027726.4924                   21027721.7154
        43.5004         26.7504
   1077860.28946   -498950.21542  22420831.2584                   22420831.3444
        37.5004         17.2504
   1492005.22347    805457.24645  21558585.4924                   21558581.8014
        47.0004         31.5004
 19  3  5  0 34 25.0000000  0  8G01G11G13G17G18G19G24G28
   1445181.21147    590984.45744  22822643.0634                   22822643.6454
        45.0004         27.7504
   1610780.21946   1290150.29343  23763725.2034                   23763721.8484
        41.7504         20.5004
   1642536.28546   1343812.37142  23637915.0314                   23637911.1454
        37.7504         15.5004
   1287477.81648    -51679.83245  20647724.2424                   20647721.3134
        48.5004         35.0004
   1603751.19146   1259544.96142  24339326.1024                   24339325.1564
        38.7504         16.2504
   1069327.33647   -919697.75444  21022984.1724                   21022979.8874
        42.7504         24.5004
   1052006.07846   -519096.36743  22415911.3054                   22415911.5554
        38.7504         18.5004
   1487764.94547    802153.13745  21557778.6724                   21557775.4224
        46.5004         30.5004
 19  3  5  0 34 30.0000000  0  8G01G11G13G17G18G19G24G28
   1438950.06647    586129.01244  22821457.2194                   22821457.9104
        44.2504         26.2504
   1612711.56646   1291655.20343  23764092.4064                   23764089.8324
        40.5004         20.2504
   1646000.66846   1346511.92242  23638574.3594                   23638570.7934
        39.0004         15.5004
   1273369.14848    -62673.60245  20645039.4454                   20645036.8834
        48.5004         35.0004
   1605346.33646   1260787.93442  24339629.5944                   24339629.0234
        37.5004         15.5004
   1044424.45747   -939102.60244  21018245.1334                   21018241.0124
        43.5004         28.0004
   1026172.12146   -539226.72342  22410995.9304                   22410996.1604
        38.2504         17.7504
   1483536.52747    798858.27344  21556973.7504                   21556970.5904
        46.5004         29.5004
 19  3  5  0 34 35.0000000  0  8G01G11G13G17G18G19G24G28
   1432742.65647    581292.07044  22820276.0084                   22820275.7974
        45.0004         27.2504
   1614659.89146   1293173.39543  23764463.4844                   23764460.3594
        41.2504         20.2504
   1649478.19546   1349221.60542  23639234.3754                   23639231.9614
        38.0004         15.5004
   1259281.30148    -73651.15246  20642359.0084                   20642355.0634
        49.0004         36.2504
   1606959.25846   1262044.81642  24339936.6334                   24339935.9804
        38.2504         16.2504
   1019542.18047   -958491.37944  21013510.5234                   21013505.9614
        43.5004         28.0004
   1000355.48946   -559343.55543  22406082.9384                   22406082.9924
        38.5004         19.0004
   1479321.75447    795574.03145  21556172.3524                   21556167.7814
        47.0004         30.5004
 19  3  5  0 34 40.0000000  0  8G01G11G13G17G18G19G24G28
   1426558.18047    576473.00444  22819099.0944                   22819098.7664
        44.7504         28.5004
   1616623.80946   1294703.72743  23764837.1804                   23764833.9924
        40.7504         20.2504
   1652970.32846   1351942.78942  23639899.8364                   23639897.4344
        39.2504         14.7504
   1245215.03548    -84611.88346  20639681.6954                   20639678.4144
        49.2504         36.0004
   1608587.90246   1263313.82442  24340246.6174                   24340246.0554
        36.5004         16.7504
    994682.12547   -977862.83644  21008780.2664                   21008775.0474
        44.5004         27.7504
    974554.17646   -579448.48443  22401173.1884                   22401172.7424
        37.2504         18.5004
   1475121.34847    792300.97745  21555372.5944                   21555368.5824
        46.7504         31.2504
 19  3  5  0 34 45.0000000  0  8G01G11G13G17G18G19G24G28
   1420398.26347    571673.03944  22817926.8134                   22817927.1604
        43.5004         27.0004
   1618607.01546   1296249.04843  23765214.5234                   23765211.0864
        38.0004         19.5004
   1656470.50446   1354670.18842  23640565.9844                   23640563.5904
        41.2504         14.7504
   1231165.08648    -95559.91445  20637008.5164                   20637004.7384
        50.0004         35.5004
   1610238.53945   1264600.07442  24340559.9774                   24340560.2704
        33.5004         16.2504
    969836.84447   -997222.83644  21004052.3984                   21004046.9224
        46.0004         29.0004
    948772.39546   -599538.20343  22396267.3444                   22396266.3404
        37.2504         19.0004
   1470931.42647    789036.07445  21554575.3134                   21554571.1374
        46.5004         30.2504
 19  3  5  0 34 50.0000000  0  1G17
                                  20634347.2664                   20634334.1214
        28.0004         31.5004
 19  3  5  0 35  0.0000000  0  1G01
                                  22814437.828
        36.000
 19  3  5  0 35  5.0000000  0  8G01G11G13G17G18G19G24G28
                                  22813283.680
        40.500
                                  23766757.078
        36.000
                                  23643270.391
        37.000
                                  20626351.9144                   20626336.1254
        45.7504         33.0004
                                  24341854.438
        32.500
                                  20985183.5864                   20985165.8094
        41.2504         25.2504
                                  22376687.664
        33.000
   1566255.41857    780453.60954  21551407.6804                   21551392.5864
        43.7504         27.0004
 19  3  5  0 35 10.0000000  0  6G01G11G13G17G19G28
                                  22812129.5394                   22812118.0124
        45.0004         34.5004
                                  23767146.500
        42.750
                                  23643944.047
        38.500
                                  20623722.813
        47.500
                                  20980476.0474                   20980457.1994
        43.2504         22.7504
   1562110.75857    778127.90155  21550622.2274                   21550605.7194
        47.0004         32.2504
 19  3  5  0 35 20.0000000  0  4G01G17G24G28
   1570355.80516                  22809824.891
        37.500
   1563731.18816                  20618382.828
        41.250
   1561473.94515                  22362009.930
        32.250
   1571980.54316                  21549042.742
        38.750
 19  3  5  0 35 25.0000000  0  5G01G17G19G24G28
                                  22808680.4924                   22808673.3834
        40.0004         22.2504
   1549811.86347   -146537.89855  20615737.3594                   20615726.3674
        44.0004         32.0004
   1551690.96116                  20966354.844
        39.750
   1535810.89115                  22357128.094
        34.250
   1567857.64847    776326.30154  21548260.0084                   21548248.3874
        42.7504         28.0004
 19  3  5  0 35 30.0000000  0  8G01G11G13G17G18G19G24G28
                                  22807534.5634                   22807532.8834
        44.5004         22.0004
                                  23768710.398
        41.000
                                  23646652.875
        39.750
                                  20613086.2194                   20613082.6094
        49.0004         32.2504
                                  24343498.172
        40.000
                                  20961649.2344                   20961643.4774
        44.0004         31.5004
                                  22352239.922
        39.500
                                  21547470.0784                   21547465.2854
        48.0004         28.2504
 19  3  5  0 35 35.0000000  0  8G01G11G13G17G18G19G24G28
   1552390.46947    547930.35243  22806398.7974                   22806400.0634
        42.0004         22.0004
   1578706.004 6                  23769113.297
        39.750
   1580762.289 6                  23647340.734
        39.750
   1522033.52048   -168183.64545  20610445.2584                   20610442.6884
        48.5004         32.5004
                                  24343839.375
        28.750
   1536931.57447  -1095419.25854  20956955.0314                   20956949.7584
        44.5004         29.2504
   1484541.215 6                  22347363.352
        36.750
   1559651.58647    769932.08144  21546692.2504                   21546688.5434
        46.7504         26.0004
 19  3  5  0 35 40.0000000  0  8G01G11G13G17G18G19G24G28
   1546442.84447    543295.88743  22805265.5314                   22805266.8874
        43.5004         22.7504
   1580828.16446   1299265.64853  23769514.9694                   23769512.6724
        40.2504         19.2504
   1584390.719 6                  23648030.805
        39.750
   1508173.53948   -178983.61745  20607806.5084                   20607803.9654
        48.5004         32.5004
   1580013.53916                  24344180.898
        38.250
   1512285.45347  -1114623.99644  20952263.0704                   20952258.7424
        44.0004         26.7504
   1458935.172 6                  22342489.633
        37.500
   1555562.91447    766746.12944  21545911.1094                   21545908.4064
        47.0004         27.5004
 19  3  5  0 35 45.0000000  0  8G01G11G13G17G18G19G24G28
   1540522.12547    538682.38743  22804139.5634                   22804140.2034
        42.2504         22.2504
   1582971.12946   1300935.52743  23769922.5004                   23769920.1884
        39.5004         18.2504
   1588025.875 6                  23648722.273
        41.250
   1494332.18448   -189769.06245  20605172.7504                   20605169.5044
        49.2504         33.5004
   1581840.094 5                  24344529.648
        33.500
   1487655.46947  -1133816.15644  20947576.6564                   20947571.6914
        45.0004         26.5004
   1433346.89546   -653944.19953  22337620.3984                   22337618.8364
        37.7504         20.0004
   1551487.98847    763570.89144  21545136.6334                   21545132.9184
        47.0004         27.7504
 19  3  5  0 35 50.0000000  0  8G01G11G13G17G18G19G24G28
   1534617.89247    534081.65843  22803015.4844                   22803016.1254
        42.5004         22.0004
   1585123.73946   1302612.85742  23770332.2194                   23770330.2974
        38.7504         17.7504
   1591672.235 6                  23649415.430
        41.250
   1480506.64148   -200542.22345  20602541.9924                   20602538.4384
        49.2504         33.5004
   1583677.383 6                  24344878.039
        36.500
   1463042.81847  -1152994.84444  20942892.7894                   20942888.0474
        45.0004         27.2504
   1407772.81646   -673872.00443  22332754.1884                   22332752.7504
        37.0004         19.2504
   1547420.20047    760401.18144  21544362.5474                   21544358.5744
        47.0004         28.0004
 19  3  5  0 35 55.0000000  0  8G01G11G13G17G18G19G24G28
   1528737.14547    529499.28143  22801896.7274                   22801897.2814
        43.0004         21.7504
   1587293.99646   1304303.93442  23770745.7034                   23770743.1094
        39.5004         17.2504
   1595323.16846   1358065.35253  23650110.9614                   23650108.5784
        40.0004         20.0004
   1466696.05148   -211303.70745  20599913.5234                   20599910.3404
        48.7504         32.7504
   1585533.879 5                  24345231.578
        35.750
   1438443.19547  -1172163.37144  20938211.4534                   20938207.0044
        44.5004         27.2504
   1382212.29746   -693789.31243  22327890.2664                   22327889.1374
        37.7504         19.2504
   1543362.85247    757239.62544  21543590.8054                   21543586.4924
        47.2504         28.2504
 19  3  5  0 36  0.0000000  0  8G01G11G13G17G18G19G24G28
   1522873.51247    524930.19143  22800783.0944                   22800781.1134
        42.2504         22.0004
   1589474.22346   1306002.82442  23771162.2114                   23771158.3134
        38.5004         15.5004
   1598984.85246   1360918.53543  23650808.3444                   23650805.0824
        40.5004         18.2504
   1452901.76248   -222052.53945  20597292.3364                   20597285.1414
        49.2504         32.7504
   1587401.277 5                  24345587.859
        33.000
   1413861.19947  -1191318.21144  20933536.7274                   20933528.1724
        45.0004         25.7504
   1356665.14846   -713696.21543  22323031.2114                   22323027.3874
        39.7504         20.5004
   1539313.52347    754084.26644  21542823.4844                   21542815.9494
        46.2504         27.2504
 19  3  5  0 36  5.0000000  0  8G01G11G13G17G18G19G24G28
   1517034.59847    520380.39143  22799669.9224                   22799669.9734
        43.5004         22.7504
   1591672.930 6                  23771579.164
        39.750
   1602655.58246   1363778.90242  23651505.2344                   23651503.5864
        40.5004         16.7504
   1439125.89848   -232786.94545  20594667.6564                   20594663.2114
        49.7504         33.5004
                                  24345947.234
        28.000
   1389296.40247  -1210459.58244  20928859.6564                   20928854.3364
        45.5004         27.7504
   1331135.30946   -733589.56243  22318170.7034                   22318170.2544
        38.7504         20.0004
   1535276.76647    750938.77044  21542051.6804                   21542047.0514
        47.0004         26.5004
 19  3  5  0 36 10.0000000  0  7G01G11G13G17G19G24G28
   1511213.96947    515844.83243  22798562.1414                   22798562.0594
        42.2504         22.5004
   1593883.46146   1307655.62553  23771999.5234                   23771993.6524
        39.0004         19.2504
   1606337.68846   1366648.03542  23652206.4774                   23652204.5004
        40.7504         14.7504
   1425366.62948   -243508.45745  20592049.1174                   20592045.3244
        49.5004         34.0004
   1364749.27347  -1229587.21144  20924188.0004                   20924183.1684
        45.0004         28.5004
   1305623.18446   -753469.16043  22313315.7664                   22313315.2854
        36.7504         19.0004
   1531247.77747    747799.31644  21541284.8134                   21541280.2304
        47.0004         27.5004
 19  3  5  0 36 15.0000000  0  7G01G11G13G17G19G24G28
   1505415.89517                  22797461.391
        44.500
                                  23772424.336
        39.500
   1610029.67256   1369524.82052  23652910.5314                   23652907.9064
        41.5004         14.7504
   1411626.00058   -254215.27055  20589436.5704                   20589430.2384
        49.0004         32.0004
   1340220.79757  -1248700.14554  20919521.5394                   20919515.0824
        45.2504         27.0004
   1280126.50456   -773336.49252  22308465.6254                   22308463.1094
        39.2504         17.2504
   1527230.87957    744669.44154  21540523.2274                   21540515.3874
        46.2504         24.7504
 19  3  5  0 36 20.0000000  0  8G01G11G13G17G18G19G24G28
   1499637.60547    511689.51453  22796358.8914                   22796358.9734
        42.2504         22.5004
   1598347.563 6                  23772849.578
        39.250
   1613734.05146   1372411.44542  23653613.3204                   23653612.4574
        40.5004         15.5004
   1397902.33648   -264908.97345  20586822.7424                   20586818.4804
        49.2504         33.0004
                                  24347040.281
        34.250
   1315710.06647  -1267799.35244  20914856.2734                   20914850.7424
        45.5004         27.2504
   1254647.32446   -793190.37542  22303615.7114                   22303614.8404
        38.5004         16.7504
   1523222.98447    741546.44944  21539757.1254                   21539753.5354
        46.2504         26.5004
 19  3  5  0 36 25.0000000  0  8G01G11G13G17G18G19G24G28
   1493879.33647    507202.57843  22795262.1884                   22795263.3324
        43.2504         22.0004
   1600600.039 6                  23773277.984
        41.000
   1617451.60946   1375308.25842  23654321.5864                   23654319.2934
        39.2504         15.5004
   1384198.09448   -275587.60545  20584214.9924                   20584211.1134
        49.0004         32.7504
   1596985.34415                  24347411.250
        32.000
   1291219.90647  -1286882.59444  20910195.6954                   20910190.4344
        44.5004         25.7504
   1229183.83646   -813032.05542  22298769.5474                   22298769.0204
        38.2504         17.2504
   1519226.30147    738432.14144  21538997.1414                   21538992.6024
        47.2504         27.7504
 19  3  5  0 36 30.0000000  0  8G01G11G13G17G18G19G24G28
   1488149.60947    502737.80143  22794173.6724                   22794173.1484
        44.2504         22.7504
   1602874.828 6                  23773710.938
        40.250
   1621178.51646   1378212.25842  23655031.1954                   23655028.2544
        40.7504         14.7504
   1370514.61348   -286250.10245  20581611.4144                   20581607.4264
        49.7504         33.5004
                                  24347785.797
        31.750
   1266748.36747  -1305951.35944  20905539.5704                   20905534.2664
        45.5004         27.0004
   1203738.62946   -832859.51643  22293927.5944                   22293927.2774
        38.7504         19.0004
   1515245.66847    735330.31344  21538240.3834                   21538235.1884
        47.7504         27.2504
 19  3  5  0 36 35.0000000  0  8G01G11G13G17G18G19G24G28
   1482437.47747    498286.76643  22793086.5164                   22793086.0234
        42.2504         22.7504
   1605160.43046   1310605.60553  23774146.5084                   23774140.1374
        38.5004         19.2504
   1624918.31346   1381126.39142  23655743.0234                   23655740.3674
        40.7504         14.7504
   1356847.89848   -296899.52045  20579010.8204                   20579007.3094
        49.7504         32.7504
                                  24348164.180
        32.000
   1242295.57047  -1325005.52044  20900886.3054                   20900880.7504
        45.7504         27.5004
   1178309.73046   -852674.25443  22289089.6254                   22289088.0944
        37.7504         20.2504
   1511273.03147    732234.71544  21537484.2114                   21537479.3054
        46.7504         26.0004
 19  3  5  0 36 40.0000000  0  8G01G11G13G17G18G19G24G28
   1476741.78547    493848.64143  22792002.4534                   22792001.9574
        43.0004         22.0004
   1607455.93446   1312394.32042  23774582.3204                   23774577.6764
        38.5004         17.2504
   1628663.00446   1384044.34842  23656455.7894                   23656452.3164
        41.7504         14.7504
   1343193.77748   -307539.03145  20576412.3524                   20576407.8244
        50.0004         34.0004
   1602929.777 5                  24348542.391
        35.750
   1217855.35247  -1344049.78144  20896235.3914                   20896229.2424
        46.2504         29.0004
   1152892.10946   -872480.16043  22284252.0314                   22284251.1094
        39.0004         19.5004
   1507305.95347    729143.55544  21536728.4924                   21536723.6134
        46.7504         26.7504
 19  3  5  0 36 45.0000000  0  8G01G11G13G17G18G19G24G28
   1471059.59847    489420.93443  22790921.1414                   22790920.8594
        43.2504         21.5004
   1609758.17246   1314188.37542  23775021.0004                   23775015.9654
        40.0004         16.7504
   1632410.50046   1386964.42242  23657168.4694                   23657165.5204
        40.7504         14.7504
   1329549.65648   -318170.82445  20573815.8834                   20573811.4844
        49.5004         33.0004
   1604930.402 5                  24348923.313
        35.000
   1193425.41047  -1363086.11344  20891586.3914                   20891580.3984
        45.2504         28.5004
   1127481.11746   -892280.91043  22279416.1334                   22279415.6024
        39.5004         19.7504
   1503342.28947    726054.96944  21535974.5554                   21535970.1294
        47.0004         27.5004
 19  3  5  0 36 50.0000000  0  8G01G11G13G17G18G19G24G28
   1465395.28547    485007.18043  22789842.9224                   22789842.1024
        42.0004         21.5004
   1612071.41846   1315990.84442  23775460.6334                   23775456.2734
        38.7504         14.7504
   1636164.85947   1389890.02742  23657882.6414                   23657880.2504
        42.0004         15.5004
   1315920.28148   -328791.10245  20571222.1484                   20571217.7464
        49.5004         33.5004
   1606943.141 5                  24349305.109
        32.250
   1169010.32447  -1382110.84444  20886940.3594                   20886934.3594
        45.7504         29.0004
   1102082.57046   -912072.03543  22274583.2894                   22274582.1684
        39.2504         20.2504
   1499386.12947    722972.27344  21535221.6884                   21535216.8674
        46.2504         26.7504
 19  3  5  0 36 55.0000000  0  8G01G11G13G17G18G19G24G28
   1459751.94947    480609.71943  22788774.6094                   22788770.7464
        42.5004         20.7504
   1614398.97746   1317804.55142  23775912.2344                   23775901.5904
        37.0004         14.7504
   1639929.64147   1392823.53542  23658605.0084                   23658598.6804
        42.5004         16.7504
   1302308.46348   -339397.77645  20568633.0554                   20568626.9144
        51.0004         32.5004
                                  24349698.484
        31.250
   1144613.12947  -1401121.67144  20882300.0314                   20882291.6954
        47.2504         29.2504
   1076700.31346   -931850.43743  22269758.2734                   22269753.6174
        40.5004         20.7504
   1495440.36947    719897.58744  21534474.1024                   21534467.4454
        47.0004         25.5004
 19  3  5  0 37  0.0000000  0  8G01G11G13G17G18G19G24G28
   1454130.26247    476229.24243  22787699.2814                   22787698.4104
        42.5004         20.2504
   1616741.87946   1319630.14142  23776349.8284                   23776345.6334
        39.2504         12.5004
   1643704.07846   1395764.65242  23659317.5004                   23659314.5594
        41.2504         16.2504
   1288713.71548   -349991.04345  20566044.8204                   20566040.5164
        49.7504         34.0004
                                  24350081.469
        34.250
   1120232.96147  -1420119.18444  20877658.6564                   20877652.0904
        46.0004         29.0004
   1051334.19546   -951616.18743  22264925.8834                   22264924.8134
        38.7504         19.0004
   1491504.99247    716831.10544  21533721.6414                   21533716.8164
        47.2504         26.2504
 19  3  5  0 37  5.0000000  0  8G01G11G13G17G18G19G24G28
   1448524.97747    471861.44943  22786633.0634                   22786632.5474
        43.0004         21.5004
   1619094.016 6                  23776797.875
        40.000
   1647486.67247   1398712.11342  23660037.3984                   23660034.7154
        42.0004         15.5004
   1275133.75448   -360572.87145  20563460.9844                   20563458.0354
        49.5004         33.0004
                                  24350473.359
        35.500
   1095868.50847  -1439104.48844  20873021.7274                   20873016.5164
        45.5004         27.7504
   1025979.87546   -971372.85542  22260101.7344                   22260100.4804
        38.0004         17.7504
   1487576.68447    713770.03944  21532974.2034                   21532969.8324
        47.5004         29.0004
 19  3  5  0 37 10.0000000  0  8G01G11G13G17G18G19G24G28
   1442941.27347    467510.57043  22785570.1724                   22785569.5354
        42.5004         21.2504
   1621461.598 6                  23777247.766
        39.750
   1651277.59047   1401666.09842  23660758.9384                   23660756.2034
        42.0004         16.2504
   1261569.96948   -371141.98845  20560879.6724                   20560876.0434
        49.7504         33.7504
   1615143.738 5                  24350865.945
        34.000
   1071519.90247  -1458077.38744  20868388.6804                   20868382.6684
        46.0004         28.5004
   1000641.75446   -991116.75843  22255280.1644                   22255278.7704
        38.0004         18.2504
   1483658.07447    710716.64844  21532228.5704                   21532224.5354
        47.2504         26.5004
