     2.11           OBSERVATION DATA    G (GPS)             RINEX VERSION / TYPE
teqc  2019Feb25     Martin Truffer      20190308 01:06:03UTCPGM / RUN BY / DATE
Linux 2.6.32-573.12.1.x86_64|x86_64|gcc|Linux 64|=+         COMMENT
BIT 2 OF LLI FLAGS DATA COLLECTED UNDER A/S CONDITION       COMMENT
51890661                                                    MARKER NAME
5189                                                        MARKER NUMBER
-Unknown-           -Unknown-                               OBSERVER / AGENCY
0220315189          TRIMBLE 5700        2.30                REC # / TYPE / VERS
-Unknown-           TRM41249.00     NONE                    ANT # / TYPE
 -1794076.9466 -3484053.5487  5017996.9640                  APPROX POSITION XYZ
        0.0530        0.0000        0.0000                  ANTENNA: DELTA H/E/N
     1     1                                                WAVELENGTH FACT L1/2
     7    L1    L2    C1    P1    P2    S1    S2            # / TYPES OF OBSERV
    18                                                      LEAP SECONDS
 SNR is mapped to RINEX snr flag value [0-9]                COMMENT
  L1 & L2: min(max(int(snr_dBHz/6), 0), 9)                  COMMENT
  2019     3     7     0    37   20.0000000     GPS         TIME OF FIRST OBS
                                                            END OF HEADER
 19  3  7  0 37 20.0000000  0  3G01G17G28
     -7819.24657     -3509.51253  22834243.1174                   22834241.8674
        44.5004         23.2504
    -37351.85958    -17060.95755  20452772.7664                   20452768.3984
        50.5004         34.0004
     -5589.19557     -2758.75854  21599497.8834                   21599492.1644
        46.0004         28.5004
 19  3  7  0 37 25.0000000  0  3G01G17G28
     -9974.31647     -5188.75444  22833833.1724                   22833832.0744
        44.5004         25.7504
    -47860.00048    -25249.10545  20450773.0784                   20450768.4774
        49.7504         32.7504
     -7136.80947     -3964.66444  21599202.9454                   21599197.5554
        46.2504         28.2504
 19  3  7  0 37 30.0000000  0  3G01G17G28
    -12107.62147     -6851.07844  22833426.8834                   22833425.8134
        43.7504         24.5004
    -58349.35548    -33422.64145  20448776.8754                   20448772.8014
        50.0004         32.7504
     -8672.42647     -5161.25444  21598910.5784                   21598905.6024
        46.0004         28.0004
 19  3  7  0 37 35.0000000  0  3G01G17G28
    -14218.01247     -8495.54744  22833025.6564                   22833024.4344
        43.7504         24.0004
    -68818.78548    -41580.62145  20446784.5864                   20446780.2894
        49.7504         32.7504
    -10194.97747     -6347.65644  21598620.6024                   21598615.9224
        46.0004         27.2504
 19  3  7  0 37 40.0000000  0  3G01G17G28
    -16305.02747    -10121.77744  22832628.6414                   22832627.2464
        44.2504         24.5004
    -79267.75448    -49722.67645  20444796.3754                   20444791.8054
        50.0004         33.0004
    -11703.99647     -7523.50444  21598333.5234                   21598329.1884
        45.7504         27.2504
 19  3  7  0 37 45.0000000  0  4G01G17G28G19
    -18367.46947    -11728.88344  22832235.8204                   22832234.9884
        44.2504         25.2504
    -89695.09048    -57847.87145  20442812.0634                   20442807.9064
        50.0004         33.0004
    -13198.32447     -8687.93044  21598049.1174                   21598044.5084
        46.5004         27.5004
   -148321.36357    -99684.89855  20534282.2424                   20534276.2544
        44.5004         30.0004
 19  3  7  0 37 50.0000000  0  5G01G17G28G19G18
    -20404.91447    -13316.49644  22831847.9304                   22831847.4304
        44.0004         25.7504
   -100100.35948    -65955.87545  20440832.1804                   20440827.6954
        50.0004         33.2504
    -14677.46147     -9840.51644  21597768.5784                   21597763.2504
        46.5004         27.5004
   -169420.85547   -116126.07045  20530267.4774                   20530260.9884
        44.5004         30.2504
     27508.70715                  24540509.555
        34.500
 19  3  7  0 37 55.0000000  0  5G01G17G28G19G18
    -22416.82447    -14884.23844  22831465.3204                   22831464.4414
        44.2504         24.2504
   -110482.98848    -74046.22745  20438856.1644                   20438851.8484
        50.0004         33.0004
    -16140.91047    -10980.84844  21597489.1564                   21597484.6254
        46.0004         27.2504
   -190496.46947   -132548.61744  20526256.3754                   20526250.3754
        45.0004         29.5004
     32516.109 5                  24541461.727
        32.750
 19  3  7  0 38  0.0000000  0  5G01G17G28G19G18
    -24403.39147    -16432.19544  22831086.7894                   22831086.3834
        44.0004         24.2504
   -120843.23448    -82119.15645  20436884.4224                   20436880.3914
        50.0004         32.7504
    -17588.84447    -12109.11344  21597213.4694                   21597209.2154
        46.0004         27.0004
   -211548.41047   -148952.73045  20522250.8834                   20522244.4884
        44.7504         30.2504
     37542.762 5                  24542418.328
        33.500
 19  3  7  0 38  5.0000000  0  5G01G17G28G19G18
   1549056.34847   1209640.32043  23130506.9304                   23130505.2074
        44.5004         22.7504
   1444241.63748   1137427.49645  20734710.3984                   20734706.1254
        49.7504         32.7504
   1556399.68447   1214375.44944  21896733.3364                   21896729.3754
        45.5004         28.0004
   1342848.16847   1062265.37945  20818042.1724                   20818036.3874
        44.5004         30.5004
   1618008.137 5                  24843171.336
        34.250
 19  3  7  0 38 10.0000000  0  5G01G17G28G19G18
   1547121.63347   1208132.75044  23130138.1644                   23130137.4534
        44.0004         25.5004
   1433927.52048   1129390.52745  20732747.5084                   20732743.6524
        49.7504         32.7504
   1554984.09047   1213272.40244  21896463.4844                   21896459.8834
        45.2504         26.2504
   1321844.90247   1045899.20345  20814046.0164                   20814039.1134
        44.5004         31.2504
   1623074.340 5                  24844134.789
        34.000
 19  3  7  0 38 15.0000000  0  5G01G17G28G19G18
   1545212.97747   1206645.46944  23129775.0004                   23129774.3164
        44.0004         24.5004
   1423636.61748   1121371.63745  20730789.2034                   20730785.1684
        49.7504         32.5004
   1553584.91847   1212182.12944  21896197.8834                   21896193.3674
        46.5004         27.0004
   1300866.18047   1029552.14845  20810053.5634                   20810047.7114
        44.5004         30.7504
   1628160.457 5                  24845102.125
        35.500
 19  3  7  0 38 20.0000000  0  6G01G17G28G19G11G18
   1543330.60247   1205178.67244  23129417.0004                   23129416.0514
        44.0004         26.0004
   1413369.03948   1113370.91845  20728835.8984                   20728831.4024
        50.0004         32.5004
   1552202.12147   1211104.60544  21895935.3204                   21895930.2304
        46.5004         27.5004
   1279912.05547   1013224.24645  20806065.9144                   20806060.1564
        44.5004         30.2504
   1603293.39856   1236968.83652  24280542.3284                   24280537.0784
        40.7504         17.7504
   1633266.746 6                  24846073.930
        36.250
 19  3  7  0 38 25.0000000  0  6G01G17G28G19G11G18
   1541480.55947   1203737.09444  23129065.2274                   23129063.5904
        44.2504         24.5004
   1403126.37948   1105389.61745  20726886.5234                   20726882.4184
        49.5004         32.0004
   1550842.43047   1210045.12144  21895676.2734                   21895670.9774
        46.7504         27.2504
   1258980.93447    996914.28144  20802082.6884                   20802077.1524
        43.7504         29.2504
   1608603.31646   1241106.43842  24281552.6414                   24281548.0354
        40.5004         17.2504
   1638397.348 6                  24847050.703
        37.250
 19  3  7  0 38 30.0000000  0  6G01G17G28G19G11G18
   1539661.44947   1202319.60244  23128718.7274                   23128717.7344
        44.0004         25.0004
   1392908.28548   1097427.48845  20724942.2504                   20724938.0554
        49.5004         32.0004
   1549503.19147   1209001.54344  21895421.5394                   21895416.6454
        46.5004         28.7504
   1238073.72347    980622.95345  20798105.1414                   20798098.5824
        44.7504         30.2504
   1613937.28146   1245262.73842  24282567.5474                   24282562.8204
        39.5004         16.7504
   1643552.359 5                  24848032.016
        34.750
 19  3  7  0 38 35.0000000  0  6G01G17G28G19G11G18
   1537861.76247   1200917.25044  23128376.4384                   23128374.6414
        44.0004         24.2504
   1382710.43848   1089481.10945  20723001.6024                   20722996.5944
        49.5004         33.0004
   1548174.37947   1207966.10944  21895169.0784                   21895163.7464
        47.0004         29.5004
   1217190.63347    964350.42244  20794131.1804                   20794124.4844
        44.5004         29.7504
   1619283.34846   1249428.54342  24283585.2114                   24283580.7194
        40.5004         16.2504
   1648721.336 5                  24849015.383
        35.500
 19  3  7  0 38 40.0000000  0  6G01G17G28G19G11G18
   1536089.46547   1199536.25043  23128039.3594                   23128037.7154
        43.5004         22.7504
   1372536.83248   1081553.61745  20721065.3984                   20721060.5004
        49.2504         32.5004
   1546863.85247   1206944.94544  21894919.9454                   21894914.0004
        45.5004         25.5004
   1196332.59847    948097.42644  20790161.3054                   20790155.1174
        44.2504         29.0004
   1624649.48446   1253609.97342  24284606.9774                   24284601.4654
        40.7504         16.2504
   1653910.973 5                  24850003.242
        35.750
 19  3  7  0 38 45.0000000  0  6G01G17G28G19G11G18
   1534350.34047   1198181.07844  23127708.6954                   23127706.6174
        44.5004         24.7504
   1362396.96148   1073652.42245  20719136.4064                   20719130.7074
        50.0004         33.0004
   1545579.36747   1205944.03944  21894674.5474                   21894669.3954
        45.5004         27.2504
   1175510.45347    931872.37544  20786199.3204                   20786191.9844
        44.5004         28.7504
   1630040.61346   1257810.84042  24285632.6334                   24285627.4654
        40.0004         16.2504
   1659125.789 5                  24850995.727
        35.750
 19  3  7  0 38 50.0000000  0  6G01G17G28G19G11G18
   1532641.28947   1196849.34844  23127383.2734                   23127380.9414
        44.5004         25.7504
   1352281.11348   1065769.94145  20717211.2894                   20717206.0164
        49.7504         33.0004
   1544313.94947   1204957.98044  21894434.4774                   21894428.6564
        46.5004         27.7504
   1154712.26247    915666.00045  20782241.5554                   20782234.3014
        44.5004         30.0004
   1635455.39246   1262030.14442  24286662.9844                   24286658.0634
        40.5004         16.2504
   1664364.980 5                  24851992.813
        34.750
 19  3  7  0 38 55.0000000  0  6G01G17G28G19G11G18
   1530951.59047   1195532.70744  23127062.0474                   23127059.8554
        44.7504         26.0004
   1342181.77348   1057900.31645  20715289.2664                   20715284.0354
        49.2504         31.5004
   1543058.71947   1203979.89544  21894194.7584                   21894189.6454
        45.5004         26.5004
   1133931.77047    899473.39844  20778287.7194                   20778280.2664
        44.5004         27.5004
   1640882.10246   1266258.74642  24287695.3284                   24287690.0984
        40.5004         16.2504
   1669616.840 6                  24852992.586
        37.500
 19  3  7  0 39  0.0000000  0  6G01G17G28G19G11G18
   1529288.76247   1194236.94943  23126745.0394                   23126742.4574
        44.7504         22.7504
   1332105.75448   1050048.84045  20713372.1174                   20713365.7664
        50.0004         31.0004
   1541822.21947   1203016.32844  21893959.7664                   21893952.8164
        46.7504         27.0004
   1113174.96947    883299.22344  20774337.5864                   20774329.1564
        44.5004         28.7504
   1646328.33346   1270502.53842  24288731.2894                   24288726.1054
        40.7504         16.2504
   1674887.809 6                  24853994.289
        36.500
 19  3  7  0 39  5.0000000  0  6G01G17G28G19G11G18
   1527646.34847   1192957.18044  23126432.7894                   23126430.1374
        43.5004         24.0004
   1322044.79748   1042209.16845  20711457.0394                   20711452.2194
        49.5004         31.2504
   1540595.28947   1202060.30944  21893725.3834                   21893720.4264
        44.5004         26.7504
   1092433.64847    867137.19144  20770390.2584                   20770382.8554
        44.5004         28.7504
   1651788.12546   1274756.95342  24289770.6174                   24289765.4924
        39.5004         16.7504
   1680173.391 5                  24855000.609
        35.500
 19  3  7  0 39 10.0000000  0  6G01G17G28G19G11G18
   1526021.35947   1191690.94544  23126123.0784                   23126121.1374
        43.5004         25.5004
   1311998.78948   1034381.11345  20709545.2504                   20709540.4144
        48.7504         31.5004
   1539375.87547   1201110.13344  21893493.3444                   21893488.4574
        44.5004         28.0004
   1071708.76647    850987.92244  20766445.8524                   20766439.3834
        43.2504         29.0004
   1657258.17646   1279019.29342  24290811.1094                   24290805.7154
        40.5004         16.7504
   1685470.516 5                  24856008.461
        35.000
 19  3  7  0 39 15.0000000  0  6G01G17G28G19G11G18
   1524421.10947   1190443.99244  23125818.9454                   23125817.0474
        43.7504         24.5004
   1301975.72348   1026570.90645  20707638.2274                   20707632.9734
        49.2504         31.7504
   1538173.64147   1200173.30144  21893266.3524                   21893260.2584
        45.5004         27.2504
   1051008.08647    834857.52044  20762507.8204                   20762500.4414
        44.2504         27.5004
   1662745.35546   1283295.04442  24291856.7734                   24291850.6604
        39.0004         17.7504
   1690784.676 5                  24857021.039
        34.000
 19  3  7  0 39 20.0000000  0  6G01G17G28G19G11G18
   1522846.87947   1189217.29743  23125519.1884                   23125518.4694
        43.0004         22.2504
   1291974.55948   1019088.80455  20705735.0704                   20705731.3714
        48.7504         31.5004
   1536986.17647   1199284.99254  21893039.4694                   21893034.9384
        44.0004         27.0004
   1030330.50847    818745.12543  20758572.3284                   20758565.5944
        44.0004         23.0004
   1668251.77346   1287585.82042  24292902.7814                   24292898.4694
        37.7504         17.2504
   1696119.83215                  24858035.273
        32.250
 19  3  7  0 39 25.0000000  0  6G01G17G28G19G11G18
   1521292.91447   1188006.43844  23125223.0474                   23125222.0354
        43.2504         24.5004
   1281991.25048   1011309.64845  20703836.0314                   20703830.7274
        48.7504         30.7504
   1535809.28147   1198367.95744  21892815.4844                   21892810.2154
        45.0004         27.0004
   1009672.71547    802648.13744  20754641.8524                   20754634.7114
        43.5004         29.5004
   1673771.33246   1291886.64542  24293953.6564                   24293949.4774
        39.0004         16.7504
   1701469.273 5                  24859052.172
        34.500
 19  3  7  0 39 30.0000000  0  2G17G11
                                  20701937.8204                   20701931.6804
        41.5004         30.7504
                                  24295008.9614                   24295002.0354
        31.0004         17.7504
 19  3  7  0 39 35.0000000  0  6G01G17G28G19G11G18
   1518249.01257   1185635.19953  23124644.1804                   23124643.0434
        43.0004         23.2504
   1262080.89547    995795.09445  20700046.3204                   20700041.1484
        47.7504         31.2504
   1533492.73057   1196635.02354  21892374.7504                   21892370.1254
        44.7504         28.5004
    968419.01657    771787.62955  20746790.7974                   20746782.2234
        43.0004         31.0004
   1684854.48816                  24296062.383
        37.500
   1712209.71115                  24861098.195
        34.750
 19  3  7  0 39 40.0000000  0  6G01G17G28G19G11G18
   1516770.79747   1184483.27343  23124365.9924                   23124360.6724
        43.5004         22.7504
   1252164.50048    988068.00845  20698163.9774                   20698154.4614
        48.7504         31.0004
   1532363.41447   1195755.08244  21892162.4694                   21892152.0394
        46.0004         27.2504
    947832.34447    755746.06645  20742876.5554                   20742865.6294
        44.2504         30.5004
   1690428.246 6                  24297125.523
        40.250
   1717615.895 5                  24862127.867
        33.750
 19  3  7  0 39 45.0000000  0  6G01G17G28G19G11G18
   1515321.34847   1183353.86343  23124087.8134                   23124086.3674
        43.5004         22.2504
   1242273.59848    980360.82445  20696277.5554                   20696272.2814
        48.7504         32.2504
   1531252.87147   1194889.71544  21891947.7734                   21891943.4304
        44.5004         25.2504
    927272.40247    739725.35545  20738960.7584                   20738954.0434
        43.7504         31.0004
   1696023.727 6                  24298188.641
        38.250
   1723044.789 5                  24863160.203
        34.750
 19  3  7  0 39 50.0000000  0  6G01G17G28G19G11G18
   1513903.65247   1182249.13343  23123817.7344                   23123816.7154
        43.2504         23.7504
   1232412.93848    972677.18845  20694401.1724                   20694396.0984
        48.2504         31.2504
   1530164.57847   1194041.69544  21891741.3754                   21891736.4264
        45.0004         27.5004
    906744.80147    723729.79344  20735054.6724                   20735048.2074
        43.2504         29.7504
   1701643.61346   1298993.11753  24299257.9924                   24299251.7704
        38.7504         18.2504
   1728499.492 5                  24864198.805
        35.750
 19  3  7  0 39 55.0000000  0  6G01G17G28G19G11G18
   1512518.11747   1181169.50843  23123553.7504                   23123553.2584
        42.0004         22.5004
   1222582.10548    965016.78545  20692530.0314                   20692525.6684
        48.2504         31.7504
   1529099.94947   1193212.10544  21891538.4064                   21891534.2584
        43.5004         26.0004
    886248.52747    707758.68444  20731154.3754                   20731148.1024
        43.5004         28.5004
   1707288.27346   1303391.56342  24300332.0164                   24300326.4614
        38.5004         16.7504
   1733979.398 5                  24865239.867
        32.000
 19  3  7  0 40  0.0000000  0  6G01G17G28G19G11G18
   1511164.52747   1180114.75843  23123297.4614                   23123295.0904
        43.7504         23.0004
   1212779.53948    957378.43445  20690666.0084                   20690660.7704
        49.7504         31.5004
   1528057.17647   1192399.55544  21891340.4534                   21891335.1334
        45.7504         26.2504
    865780.75047    691809.77745  20727260.9534                   20727253.1884
        45.0004         30.0004
   1712957.46546   1307809.10542  24301412.1414                   24301405.3794
        39.5004         16.7504
   1739484.543 5                  24866288.625
        32.250
 19  3  7  0 40  5.0000000  0  6G01G17G28G19G11G18
   1509838.36747   1179081.35244  23123044.3674                   23123043.0664
        43.7504         25.5004
   1203003.73448    949760.88745  20688804.6094                   20688800.2894
        48.7504         32.0004
   1527034.25047   1191602.45744  21891145.7734                   21891140.6884
        45.7504         27.0004
    845342.35947    675883.72744  20723370.3984                   20723363.7274
        43.7504         28.7504
   1718646.62146   1312242.19942  24302493.1024                   24302488.1334
        40.0004         16.7504
   1745010.203 5                  24867340.180
        35.000
 19  3  7  0 40 10.0000000  0  6G01G17G28G19G11G18
   1508539.69947   1178069.43444  23122796.8364                   23122796.1374
        43.2504         24.5004
   1193250.98448    942161.35945  20686948.2734                   20686943.9924
        48.5004         31.7504
   1526027.18447   1190817.73444  21890953.6724                   21890949.0204
        44.5004         28.0004
    824928.02047    659976.46144  20719485.3134                   20719478.5784
        43.5004         28.5004
   1724356.43446   1316691.39542  24303580.2664                   24303574.8834
        39.0004         16.2504
   1750558.379 5                  24868395.938
        32.750
 19  3  7  0 40 15.0000000  0  6G01G17G28G19G11G18
   1507261.50447   1177073.43443  23122554.0554                   23122552.6414
        43.5004         23.0004
   1183516.33648    934575.92645  20685096.3134                   20685090.5124
        48.5004         31.5004
   1525030.77347   1190041.30944  21890764.1094                   21890758.8244
        45.5004         27.5004
    804533.45747    644084.59844  20715604.1804                   20715597.6994
        43.0004         28.0004
   1730079.48046   1321150.93042  24304669.0634                   24304663.6134
        40.5004         15.5004
   1756121.012 5                  24869454.281
        35.000
 19  3  7  0 40 20.0000000  0  6G01G17G28G19G11G18
   1506007.89147   1176096.62543  23122315.3284                   23122313.6374
        43.0004         22.7504
   1173804.70348    927008.43845  20683248.1334                   20683241.8834
        48.7504         31.2504
   1524050.29747   1189277.32444  21890577.7664                   21890571.8014
        45.2504         26.2504
    784164.05947    628212.36344  20711728.4384                   20711720.9494
        43.7504         29.2504
   1735819.76246   1325623.91042  24305761.8914                   24305756.1134
        38.5004         16.2504
   1761701.758 5                  24870516.641
        33.250
 19  3  7  0 40 25.0000000  0  6G01G17G28G19G11G18
   1504779.19147   1175139.19944  23122080.5394                   23122078.9494
        42.0004         25.2504
   1164114.67248    919457.78145  20681403.9924                   20681398.3324
        48.5004         32.5004
   1523083.76247   1188524.18844  21890394.2424                   21890388.0354
        45.2504         28.0004
    763817.84047    612358.17645  20707856.6334                   20707849.3324
        44.0004         30.5004
   1741578.00046   1330110.85542  24306857.6254                   24306851.9414
        39.2504         16.2504
   1767302.176 5                  24871581.984
        32.500
 19  3  7  0 40 30.0000000  0  6G01G17G28G19G11G18
   1503571.31347   1174197.98044  23121851.7814                   23121850.1024
        43.7504         24.5004
   1154444.37548    911922.47345  20679563.6564                   20679558.1454
        48.5004         32.5004
   1522129.71947   1187780.77044  21890212.5704                   21890206.7974
        45.2504         29.2504
    743493.93047    596521.36344  20703988.6484                   20703982.0004
        43.5004         28.7504
   1747349.67246   1334608.23042  24307955.5084                   24307950.4344
        38.5004         14.7504
   1772916.789 5                  24872650.547
        35.250
 19  3  7  0 40 35.0000000  0  6G01G17G28G19G11G18
   1502393.58647   1173280.27044  23121627.4534                   23121625.9224
        43.5004         25.0004
   1144801.37948    904408.42645  20677729.0704                   20677724.4534
        48.7504         33.0004
   1521197.16047   1187054.08644  21890035.0004                   21890030.0274
        44.7504         26.5004
    723197.75447    580706.14545  20700126.8524                   20700119.8834
        44.2504         30.0004
   1753143.78546   1339123.14842  24309058.2894                   24309053.2704
        37.7504         15.5004
   1778554.000 5                  24873724.148
        35.750
 19  3  7  0 40 40.0000000  0  6G01G17G28G19G11G18
   1501241.63747   1172382.64144  23121408.1724                   23121406.9304
        43.7504         27.7504
   1135183.67448    896914.12945  20675898.6644                   20675894.2504
        48.5004         31.5004
   1520280.31947   1186339.66844  21889859.5704                   21889855.6174
        45.5004         29.5004
    702930.19947    564913.25044  20696269.4144                   20696263.4344
        42.5004         28.0004
   1758956.50046   1343652.53542  24310163.7274                   24310159.5514
        40.7504         16.2504
   1784211.805 6                  24874800.086
        39.000
 19  3  7  0 40 45.0000000  0  6G01G17G28G19G11G18
   1500119.10947   1171507.94544  23121194.2664                   23121193.6254
        42.2504         25.5004
   1125590.53548    889438.95345  20674073.1564                   20674068.6334
        48.5004         32.5004
   1519384.07447   1185641.28944  21889689.4924                   21889684.6024
        45.0004         26.5004
    682687.15647    549139.45744  20692417.4384                   20692411.0634
        43.2504         29.0004
   1764791.46546   1348199.23042  24311274.2034                   24311270.1174
        38.7504         15.5004
   1789891.938 5                  24875881.000
        35.500
 19  3  7  0 40 50.0000000  0  6G01G17G28G19G11G18
   1499017.83247   1170649.78143  23120983.9694                   23120983.8484
        42.7504         22.0004
   1116013.46148    881976.27744  20672249.9844                   20672246.1684
        48.2504         28.0004
   1518498.07847   1184950.89543  21889520.8754                   21889516.2274
        45.0004         23.0004
    662460.56647    533378.41444  20688568.6484                   20688562.3714
        44.0004         28.0004
   1770640.73846   1352757.09842  24312387.5314                   24312383.4454
        38.0004         16.2504
   1795587.34015                  24876964.570
        31.000
 19  3  7  0 40 55.0000000  0  6G01G17G28G19G11G18
   1497932.86747   1169804.38743  23120778.8284                   23120777.2664
        43.5004         22.7504
   1106451.99648    874525.80945  20670430.9304                   20670425.7114
        48.5004         31.5004
   1517619.60947   1184266.37544  21889353.7424                   21889348.3054
        44.7504         27.5004
    642252.41447    517631.86744  20684722.8134                   20684716.5004
        43.2504         29.2504
   1776498.99646   1357322.03942  24313501.6334                   24313498.3364
        38.2504         16.2504
   1801293.070 5                  24878050.391
        34.250
 19  3  7  0 41  0.0000000  0  6G01G17G28G19G11G18
   1496871.79747   1168977.56643  23120576.6804                   23120574.9384
        42.2504         23.5004
   1096912.52348    867092.44945  20668616.0864                   20668610.0744
        48.5004         31.2504
   1516756.70747   1183593.97744  21889189.8834                   21889183.9844
        44.5004         26.7504
    622067.69947    501903.52044  20680882.0164                   20680875.0984
        44.5004         28.2504
   1782373.52346   1361899.52342  24314621.1174                   24314615.8484
        37.7504         15.5004
   1807015.496 5                  24879139.141
        31.750
 19  3  7  0 41  5.0000000  0  6G01G17G28G19G11G18
   1495836.30947   1168170.68843  23120379.8204                   23120377.7384
        43.0004         22.7504
   1087398.02748    859678.53945  20666805.3914                   20666799.2304
        48.7504         32.5004
   1515912.07047   1182935.80544  21889028.7504                   21889023.1094
        45.0004         27.7504
    601910.39147    486196.50444  20677046.1334                   20677039.1374
        44.2504         29.5004
   1788266.03146   1366491.10542  24315741.3524                   24315737.4344
        39.0004         14.7504
   1812755.957 5                  24880231.477
        33.500
 19  3  7  0 41 10.0000000  0  6G01G17G28G19G11G18
   1494825.90247   1167383.36343  23120187.2504                   23120185.6054
        44.0004         22.7504
   1077902.47748    852279.41845  20664998.4774                   20664993.2624
        48.7504         30.7504
   1515079.79347   1182287.28944  21888869.9144                   21888864.9344
        45.0004         26.5004
    581772.01647    470504.27744  20673214.3134                   20673207.1094
        43.5004         28.5004
   1794176.83246   1371096.91842  24316866.8204                   24316862.8204
        38.2504         15.5004
   1818516.926 5                  24881327.742
        34.250
 19  3  7  0 41 15.0000000  0  6G01G17G28G19G11G18
   1493833.348 7                  23119998.352
        42.000
   1068422.699 7                  20663194.484
        47.250
   1514256.043 7                  21888713.922
        44.500
    561651.945 7                  20669386.008
        43.500
   1800098.391 6                  24317994.039
        37.750
   1824289.824 5                  24882426.742
        33.500
 19  3  7  0 41 20.0000000  0  6G01G17G28G19G11G18
   1492859.90647   1166034.41955  23119813.1334                   23119806.1764
        44.0004         31.7504
   1058959.46548    838109.70355  20661393.4774                   20661387.2544
        49.0004         33.0004
   1513441.61347   1181086.76254  21888558.7584                   21888551.8484
        45.2504         28.7504
    541549.95747    444176.35455  20665559.5004                   20665548.5514
        43.7504         31.5004
   1806031.770 6                  24319122.953
        39.000
   1830075.633 5                  24883527.008
        34.750
 19  3  7  0 41 25.0000000  0  6G01G17G28G19G11G18
   1491904.57847   1165290.02054  23119631.8594                   23119629.3794
        43.0004         25.0004
   1049510.09448    830746.48845  20659595.7974                   20659591.6954
        49.0004         32.7504
   1512634.90647   1180458.19144  21888405.1724                   21888400.2274
        44.7504         28.5004
    521463.01247    428524.27745  20661737.5554                   20661731.0554
        44.5004         32.0004
   1811976.42646   1375712.75853  24320254.2274                   24320247.4654
        37.5004         20.7504
   1835873.961 5                  24884630.156
        33.250
 19  3  7  0 41 30.0000000  0  6G01G17G28G19G11G18
   1490967.59847   1164559.88744  23119453.3364                   23119451.2074
        44.0004         25.7504
   1040077.39548    823396.33245  20657800.5234                   20657795.9384
        49.0004         32.5004
   1511837.48847   1179886.84854  21888253.1254                   21888248.5784
        45.0004         29.0004
    501394.93047    412886.78145  20657919.3674                   20657912.3284
        43.7504         31.2504
   1817932.02046   1380353.45343  24321386.6954                   24321380.9184
        39.7504         18.5004
   1841684.281 6                  24885736.969
        36.750
 19  3  7  0 41 35.0000000  0  6G01G17G28G19G11G18
   1490063.20547   1164023.21955  23119280.9454                   23119277.4534
        43.2504         30.0004
   1030674.85048    816069.64045  20656011.3674                   20656006.7934
        49.0004         30.7504
   1511063.71947   1179283.89144  21888105.9774                   21888100.6094
        45.0004         25.5004
    481358.25847    398522.90055  20654106.2344                   20654095.2974
        44.2504         32.0004
   1823912.64146   1385013.72742  24322524.6954                   24322519.8754
        39.5004         17.7504
   1847520.215 6                  24886847.109
        37.500
 19  3  7  0 41 40.0000000  0  6G01G17G28G19G11G18
   1489189.74647   1163397.56854  23119114.9614                   23119112.1844
        43.5004         25.0004
   1021301.50448    808765.84045  20654227.6024                   20654222.4574
        49.2504         31.5004
   1510311.70747   1178698.01644  21887962.1644                   21887957.3794
        45.7504         27.7504
    461353.13347    382934.39845  20650299.8524                   20650290.9694
        45.0004         30.0004
   1829916.941 6                  24323667.516
        38.500
   1853381.059 5                  24887963.328
        35.000
 19  3  7  0 41 45.0000000  0  6G01G17G28G19G11G18
   1488336.93447   1162733.03544  23118952.6884                   23118950.5124
        43.7504         24.0004
   1011945.73048    801475.55945  20652446.8984                   20652441.6094
        48.5004         30.5004
   1509571.25047   1178120.93844  21887821.6644                   21887816.8714
        44.5004         27.7504
    441366.98447    367360.80144  20646496.1024                   20646488.8594
        43.0004         27.7504
   1835934.754 6                  24324811.633
        38.500
   1859255.895 6                  24889080.523
        37.000
 19  3  7  0 41 50.0000000  0  6G01G17G28G19G11G18
   1487503.051 6                  23118793.883
        41.250
   1002606.246 7                  20650669.953
        45.500
   1508839.430 6                  21887683.109
        41.750
    421398.906 7                  20642696.625
        42.750
   1841964.129 6                  24325960.727
        37.250
   1865143.96115                  24890200.016
        32.500
 19  3  7  0 41 55.0000000  0  6G01G17G28G19G11G18
   1486690.33247   1162326.09254  23118639.9694                   23118631.9924
        43.0004         25.2504
    993283.52748    793626.65655  20648896.1254                   20648890.3404
        48.0004         30.0004
   1508117.430 7                  21887546.289
        45.250
    401448.523 7                  20638900.102
        43.750
   1848007.883 6                  24327110.664
        38.250
   1871047.789 6                  24891324.859
        36.250
 19  3  7  0 42  0.0000000  0  6G01G17G28G19G11G18
   1485891.12147   1161703.21544  23118487.2504                   23118483.3404
        44.0004         25.2504
    983971.51648    786370.49255  20647123.8204                   20647118.3914
        49.0004         33.0004
   1507400.47747   1177332.41854  21887408.9614                   21887401.3874
        45.0004         29.7504
    381510.605 7                  20635105.664
        43.750
   1854057.85246   1393651.46553  24328261.3834                   24328254.9844
        39.0004         20.2504
   1876958.367 6                  24892448.984
        37.000
 19  3  7  0 42  5.0000000  0  6G01G17G28G19G11G18
   1485113.27047   1161097.10244  23118338.8444                   23118336.9844
        44.2504         25.0004
    974679.73048    779130.13745  20645355.7584                   20645350.1174
        49.5004         31.5004
   1506696.79747   1176784.09844  21887275.9924                   21887268.7074
        45.7504         27.2504
    361594.61347    344374.46554  20631315.5704                   20631308.4774
        43.7504         26.2504
   1860121.461 6                  24329415.234
        40.500
   1882882.914 6                  24893576.375
        39.000
 19  3  7  0 42 10.0000000  0  6G01G17G28G19G11G18
   1484362.17247   1160511.80544  23118196.8914                   23118194.3404
        43.7504         26.7504
    965412.35548    771908.79745  20643592.5864                   20643587.2344
        49.0004         32.2504
   1506009.81647   1176248.77044  21887144.6484                   21887138.7664
        45.2504         28.7504
    341705.37147    328876.39844  20627531.0704                   20627523.9614
        44.2504         28.2504
   1866204.64846   1397432.52053  24330572.9614                   24330565.6954
        39.0004         21.2504
   1888828.691 5                  24894707.656
        34.750
 19  3  7  0 42 15.0000000  0  6G01G17G28G19G11G18
   1483632.65647   1159943.30144  23118058.2584                   23118055.7114
        44.5004         25.0004
    956163.21948    764701.60944  20641832.5314                   20641827.0434
        49.0004         29.2504
   1505335.44947   1175723.23844  21887016.9454                   21887011.2504
        46.5004         27.5004
    321835.65647    313393.43844  20623750.6414                   20623742.8244
        44.0004         24.0004
   1872302.20346   1402183.80143  24331733.2734                   24331726.9384
        40.2504         19.2504
   1894789.344 6                  24895842.844
        37.000
 19  3  7  0 42 20.0000000  0  6G01G17G28G19G11G18
   1482927.70747   1159461.02754  23117923.0474                   23117920.5744
        43.5004         26.0004
    946936.31348    757511.90645  20640075.9774                   20640070.6414
        49.2504         32.2504
   1504676.41047   1175209.78144  21886889.8594                   21886885.1524
        45.0004         28.0004
    301990.00447    297929.39544  20619973.6024                   20619966.3404
        44.5004         27.5004
   1878417.06346   1406948.69942  24332897.1024                   24332890.9804
        40.0004         16.7504
   1900768.25416                  24896979.594
        36.000
 19  3  7  0 42 25.0000000  0  6G01G17G28G19G11G18
   1482244.56647   1158928.71544  23117793.1644                   23117790.1764
        45.2504         26.7504
    937730.68848    750338.66445  20638324.6024                   20638318.4534
        49.0004         30.5004
   1504030.99247   1174706.82044  21886768.3984                   21886762.8674
        46.5004         27.7504
    282168.57847    282484.07444  20616201.6254                   20616194.5824
        44.0004         25.0004
   1884546.08647   1411724.53542  24334063.7034                   24334056.8754
        42.0004         17.7504
   1906762.344 6                  24898120.898
        38.500
 19  3  7  0 42 30.0000000  0  6G01G17G28G19G11G18
   1481588.83647   1158458.79954  23117668.1484                   23117666.0044
        43.5004         27.2504
    928547.20748    743182.71945  20636577.0554                   20636572.0124
        49.5004         30.5004
   1503401.22747   1174216.10944  21886648.5784                   21886642.9144
        45.7504         27.5004
    262369.89547    268290.55854  20612433.7814                   20612426.1884
        45.0004         29.0004
                                  24335232.820
        38.500
                                  24899265.227
        35.250
 19  3  7  0 42 35.0000000  0  6G01G17G28G19G11G18
   1480951.96547   1157962.51644  23117547.3834                   23117545.3094
        44.2504         24.5004
    919380.40648    736039.73045  20634832.6254                   20634826.5234
        49.2504         31.7504
   1502782.22747   1173733.74244  21886530.7114                   21886524.1604
        45.5004         27.0004
    242589.30547    252877.09044  20608669.7114                   20608662.2234
        44.0004         26.2504
   1896856.82446   1415753.28953  24336405.4304                   24336400.3164
        39.2504         21.2504
   1918805.586 5                  24900412.453
        35.750
 19  3  7  0 42 40.0000000  0  6G01G17G28G19G11G18
   1480335.68447   1157482.27044  23117430.3444                   23117427.1524
        44.0004         26.0004
    910232.80548    728911.73045  20633091.7814                   20633085.9264
        49.0004         31.0004
   1502174.39147   1173260.10244  21886414.7504                   21886408.2704
        45.7504         29.0004
    222830.55147    237480.64544  20604909.3834                   20604902.3524
        44.7504         26.2504
   1903031.06346   1420564.40643  24337580.4614                   24337575.1914
        38.7504         19.5004
   1924848.109 5                  24901562.648
        33.250
 19  3  7  0 42 45.0000000  0  6G01G17G28G19G11G18
   1479742.98047   1157020.43044  23117317.8444                   23117315.2504
        43.5004         25.2504
    901105.73848    721799.73445  20631355.1334                   20631349.4804
        48.7504         31.5004
   1501581.02347   1172797.73844  21886301.8594                   21886296.4924
        45.2504         27.5004
    203094.08247    222101.59044  20601154.3134                   20601146.8014
        44.2504         26.7504
   1909221.78146   1425388.34443  24338758.5864                   24338753.4384
        38.5004         19.0004
   1930907.875 5                  24902716.602
        33.500
 19  3  7  0 42 50.0000000  0  6G01G17G28G19G11G24
   1479173.22347   1156681.62155  23117208.0314                   23117200.5514
        44.0004         33.0004
    891998.05148    714702.06943  20629621.3834                   20629616.9454
        48.5004         23.7504
   1501000.52747   1172489.42355  21886190.8444                   21886184.0904
        45.5004         32.5004
    183378.25747    209810.60255  20597402.0554                   20597388.7854
        44.7504         32.7504
   1915428.199 6                  24339939.000
        40.500
   1052380.56216                  21951823.313
        40.250
 19  3  7  0 42 55.0000000  0  7G01G17G28G19G11G24G18
   1478625.38747   1156289.53154  23117104.5554                   23117099.2624
        43.0004         24.5004
    882910.64548    708187.73455  20627892.3134                   20627886.6564
        48.5004         31.0004
   1500433.30547   1172083.39754  21886083.5164                   21886076.0314
        45.0004         28.0004
    163684.76247    194465.05544  20593654.2734                   20593646.2384
        43.5004         28.5004
   1921648.99646   1428484.84453  24341123.0944                   24341117.9534
        38.2504         20.7504
   1031376.31346    951781.20753  21947826.3674                   21947822.6374
        39.7504         22.5004
                                  24905030.219
        30.750
 19  3  7  0 43  0.0000000  0  7G01G17G28G19G11G24G18
   1478100.00847   1155880.21144  23117004.1024                   23117001.6374
        43.0004         25.2504
    873844.71148    701123.39545  20626167.1254                   20626161.3444
        48.5004         31.2504
   1499879.91047   1171652.19944  21885978.2504                   21885971.2894
        44.7504         26.7504
    144015.31347    179138.20744  20589911.5944                   20589903.7304
        44.7504         26.7504
   1927884.74246   1433343.93043  24342310.3524                   24342304.9454
        38.0004         18.5004
   1010394.46946    935431.73043  21943834.0084                   21943830.5784
        40.5004         22.7504
                                  24906192.242
        30.000
 19  3  7  0 43  5.0000000  0  6G01G17G28G19G11G24
   1477599.48047   1155583.18754  23116909.0554                   23116906.1954
        43.0004         27.0004
    864800.95748    696049.36155  20624446.1644                   20624439.7304
        48.7504         33.0004
   1499341.74647   1171316.86755  21885875.6804                   21885864.8244
        45.0004         30.2504
    124369.79347    166892.04455  20586173.5864                   20586162.0234
        44.7504         30.2504
                                  24343499.898
        39.000
    989435.586 6                  21939845.297
        41.000
 19  3  7  0 43 10.0000000  0  6G01G17G28G19G11G24
   1477117.78947   1155238.80554  23116818.0394                   23116815.0084
        44.5004         27.5004
    855774.58648    689015.75845  20622728.7034                   20622722.5984
        48.0004         30.7504
   1498813.68847   1170905.39545  21885775.0864                   21885768.6724
        46.0004         30.0004
    104744.32847    151599.45744  20582438.7504                   20582430.7814
        43.5004         25.5004
   1940402.824 6                  24344691.633
        40.750
    968495.29646    921065.99153  21935860.7974                   21935857.5984
        38.2504         22.0004
 19  3  7  0 43 15.0000000  0  6G01G17G28G19G11G24
   1476660.57147   1154882.55743  23116730.5394                   23116727.8874
        42.0004         22.7504
    846767.77748    681997.47745  20621014.4144                   20621009.1884
        48.0004         31.5004
   1498299.99347   1170505.08544  21885677.3524                   21885671.3094
        44.5004         27.7504
     85138.46947    136322.14844  20578707.7894                   20578700.5984
        43.7504         28.5004
   1946684.75846   1437837.29353  24345887.2814                   24345880.4844
        36.2504         19.7504
    947572.95746    904762.87943  21931879.3134                   21931876.4884
        39.0004         21.7504
 19  3  7  0 43 20.0000000  0  6G01G17G28G19G11G24
   1476216.14447   1154536.23643  23116647.9144                   23116643.8054
        43.0004         22.5004
    837771.94948    674987.73945  20619306.0474                   20619296.3594
        48.7504         30.0004
   1497790.08447   1170107.76144  21885583.3984                   21885574.4414
        45.0004         26.5004
     65546.09647    121055.36944  20574981.3444                   20574971.4064
        44.0004         26.0004
   1952972.40246   1442736.71043  24347085.8444                   24347077.2704
        40.0004         18.2504
    926662.77346    888469.20643  21927902.5084                   21927897.3634
        39.2504         21.2504
 19  3  7  0 43 25.0000000  0  6G01G17G28G19G11G24
   1475788.62546   1154203.10943  23116564.0784                   23116561.9964
        41.5004         22.0004
    828790.79348    667989.44145  20617593.5474                   20617587.5044
        48.0004         30.5004
   1497287.79347   1169716.35944  21885484.2194                   21885478.2894
        44.5004         27.5004
     45970.50047    105801.65244  20571253.7584                   20571246.5394
        44.5004         26.5004
   1959269.54346   1447643.59842  24348281.6954                   24348275.3954
        37.0004         16.7504
    905768.45746    872187.97343  21923924.2894                   21923921.3324
        39.2504         20.7504
 19  3  7  0 43 30.0000000  0  6G01G17G28G19G11G24
   1475384.50047   1153888.19543  23116487.2194                   23116485.2384
        42.0004         22.7504
    819831.32848    661008.02345  20615888.8674                   20615883.0044
        48.0004         31.0004
   1496801.58247   1169337.47744  21885391.8444                   21885385.9844
        44.5004         29.2504
     26418.85547     90566.60944  20567533.7274                   20567525.9574
        44.0004         27.0004
   1965582.60946   1452562.85242  24349484.1024                   24349477.7234
        36.7504         17.2504
    884893.39846    855921.67243  21919952.0474                   21919948.7114
        39.5004         20.2504
 19  3  7  0 43 35.0000000  0  6G01G17G28G19G11G24
   1475009.46147   1153595.96143  23116416.2734                   23116414.0124
        42.2504         22.7504
    810897.59848    654046.66445  20614188.7114                   20614183.4494
        48.0004         31.5004
   1496334.09047   1168973.20344  21885303.2194                   21885297.1564
        44.5004         27.0004
      6894.10547     75352.50444  20563818.3134                   20563811.2734
        43.5004         26.5004
   1971917.41046   1457499.09042  24350689.6254                   24350683.2774
        37.7504         17.2504
    864045.27046    839676.36343  21915984.6334                   21915982.0274
        39.5004         21.2504
 19  3  7  0 43 40.0000000  0  6G01G17G28G19G11G24
   1474659.63746   1153323.33643  23116348.8054                   23116348.0164
        37.2504         23.0004
    801987.59347    647103.84944  20612493.8674                   20612488.1484
        42.5004         28.2504
   1495882.83746   1168621.62944  21885217.8524                   21885211.7344
        39.5004         24.2504
    -12604.54746     60158.72343  20560108.6414                   20560100.8554
        37.7504         22.7504
   1978270.03945   1462449.12542  24351898.0554                   24351892.2544
        34.2504         16.2504
    843222.17245    823450.54743  21912022.7664                   21912019.4494
        33.2504         21.5004
 19  3  7  0 43 45.0000000  0  6G01G17G28G19G11G24
   1474332.80957   1153179.75555  23116287.3984                   23116276.9224
        44.0004         33.0004
    793096.64158    640730.53055  20610802.0004                   20610796.6524
        50.0004         32.0004
   1495445.32047   1168375.59855  21885134.4774                   21885124.7114
        45.5004         30.5004
    -32082.13357     48016.20354  20556402.0004                   20556389.8754
        44.5004         29.0004
   1984638.43416                  24353110.039
        40.000
    822418.44116                  21908063.523
        40.750
 19  3  7  0 43 50.0000000  0  6G01G17G28G19G11G24
   1474025.00047   1152958.82854  23116228.8524                   23116222.4654
        43.7504         27.5004
    784224.76248    633817.34454  20609113.1484                   20609108.9614
        48.5004         29.0004
   1495017.89547   1168042.59044  21885052.4384                   21885046.7734
        45.5004         27.5004
    -51538.24247     34675.57054  20552699.2194                   20552689.7894
        44.5004         27.0004
   1991018.230 6                  24354323.258
        38.250
    801635.34046    809838.06653  21904108.6254                   21904105.8364
        39.7504         22.0004
 19  3  7  0 43 55.0000000  0  6G01G17G28G19G11G24
   1473735.824 6                  23116173.063
        40.750
    775367.81647    628295.87755  20607426.9384                   20607420.3484
        47.2504         34.5004
   1494600.23847   1167744.12953  21884973.0474                   21884966.5664
        43.7504         23.5004
    -70978.13247     19527.65543  20548999.3364                   20548992.0744
        43.5004         23.2504
   1997409.551 6                  24355539.242
        36.500
    780865.691 6                  21900155.438
        40.750
 19  3  7  0 44  0.0000000  0  6G01G17G28G19G11G24
   1473466.129 7                  23116122.789
        42.250
    766528.48448    621408.11744  20605745.8284                   20605740.3014
        48.0004         27.5004
   1494192.95747   1167426.80544  21884895.8674                   21884889.3554
        44.0004         25.2504
    -90398.42247      4394.93844  20545304.6174                   20545296.4454
        44.0004         24.5004
   2003812.824 6                  24356758.523
        39.250
    760114.53546    796246.15653  21896207.4534                   21896204.8444
        40.0004         21.5004
 19  3  7  0 44  5.0000000  0  6G01G17G28G19G11G24
   1473213.68447   1152428.62554  23116074.2734                   23116069.3874
        43.0004         28.0004
    757703.16848    614531.22345  20604066.3444                   20604061.8204
        48.2504         33.0004
   1493792.68847   1167114.86344  21884819.2034                   21884814.1914
        45.0004         29.7504
   -109803.03547    -10725.55944  20541611.2584                   20541604.6884
        43.2504         27.2504
   2010226.172 6                  24357978.906
        38.250
    739379.04746    780088.62543  21892261.7274                   21892259.4574
        39.5004         22.0004
 19  3  7  0 44 10.0000000  0  6G01G17G28G19G11G24
   1472978.50447   1152245.37153  23116030.3524                   23116027.8714
        42.5004         23.7504
    748892.92248    607666.09045  20602390.0084                   20602385.5704
        48.2504         33.0004
   1493401.83647   1166810.28144  21884745.4224                   21884740.2274
        45.2504         29.2504
   -129190.66847    -25832.81644  20537922.4064                   20537915.7854
        44.5004         29.2504
   2016649.348 6                  24359202.063
        38.000
    718656.87546    763941.48043  21888318.1174                   21888316.5394
        39.5004         22.0004
 19  3  7  0 44 15.0000000  0  6G01G17G28G19G11G24
   1472757.88347   1152073.47343  23115988.0084                   23115986.8284
        42.2504         22.7504
    740094.01648    600809.81345  20600715.7664                   20600711.5944
        48.5004         33.0004
   1493015.82847   1166509.51644  21884671.5234                   21884667.6294
        44.5004         28.7504
   -148565.37947    -40929.97344  20534235.6414                   20534229.6994
        44.5004         29.2504
   2023079.875 6                  24360425.578
        36.750
    697946.92646    747803.86743  21884377.1884                   21884375.5944
        40.5004         23.0004
 19  3  7  0 44 20.0000000  0  6G01G17G28G19G11G24
   1472553.77747   1151914.43043  23115949.2424                   23115948.2544
        42.2504         22.7504
    731309.39548    593964.65245  20599044.6024                   20599040.0664
        48.7504         33.0004
   1492636.75847   1166214.13344  21884600.5704                   21884595.1764
        45.2504         29.0004
   -167923.68047    -56014.36344  20530552.3914                   20530546.1564
        45.0004         29.5004
   2029519.605 6                  24361650.859
        37.250
    677252.98446    731678.70743  21880439.6484                   21880437.9924
        40.2504         21.7504
 19  3  7  0 44 25.0000000  0  6G01G17G28G19G11G24
   1472367.29347   1151769.11343  23115913.7034                   23115913.4494
        42.7504         22.5004
    722540.93848    587132.09045  20597375.3204                   20597371.8244
        48.7504         33.0004
   1492267.07047   1165926.05944  21884529.4844                   21884525.6914
        44.7504         27.7504
   -187263.55547    -71084.40644  20526871.9064                   20526866.0394
        44.7504         28.5004
   2035969.31646   1468465.62553  24362878.8134                   24362874.9184
        38.5004         19.0004
    656574.80146    715565.82843  21876504.4774                   21876502.9924
        41.2504         22.7504
 19  3  7  0 44 30.0000000  0  6G01G17G28G19G11G24
   1472206.70347   1151643.94944  23115882.3834                   23115882.3444
        42.5004         24.7504
    713796.48448    580318.19145  20595712.1804                   20595708.4774
        48.7504         32.5004
   1491913.72747   1165650.71844  21884461.3914                   21884457.4694
        45.0004         28.5004
   -206577.00847    -86133.86744  20523196.6724                   20523191.1724
        44.0004         27.2504
   2042437.59446   1473505.83242  24364109.3594                   24364105.7624
        37.5004         17.7504
    635923.24246    699473.69143  21872574.3444                   21872573.5984
        40.2504         22.5004
 19  3  7  0 44 35.0000000  0  6G01G17G28G19G11G24
   1472072.16046   1151539.12543  23115856.6334                   23115857.1954
        40.7504         22.5004
    705075.77848    573522.85445  20594051.8914                   20594048.1994
        49.0004         32.5004
   1491577.69947   1165388.86744  21884399.0394                   21884393.5474
        46.0004         26.5004
   -225864.66847   -101163.19944  20519525.7504                   20519520.2814
        46.0004         28.2504
   2048924.48845   1478560.52742  24365344.3834                   24365340.5944
        35.7504         15.5004
    615295.25946    683399.95443  21868649.3524                   21868648.3404
        41.0004         22.7504
 19  3  7  0 44 40.0000000  0  6G01G17G28G19G11G24
   1471952.05547   1151445.53144  23115835.0164                   23115834.5514
        44.0004         24.2504
    696366.33248    566736.27745  20592394.9844                   20592391.6604
        49.7504         34.2504
   1491246.69147   1165130.97744  21884335.7974                   21884331.2544
        46.5004         28.2504
   -245139.56647   -116182.59444  20515858.4304                   20515853.0004
        45.5004         29.7504
   2055418.62146   1483620.91842  24366579.3134                   24366576.6094
        38.0004         16.2504
    594678.87146    667335.24643  21864726.8984                   21864725.3954
        41.0004         23.7504
 19  3  7  0 44 45.0000000  0  6G01G17G28G19G11G24
   1471845.28547   1151362.34044  23115814.9844                   23115814.2114
        43.7504         24.2504
    687667.86348    559958.26245  20590739.6024                   20590736.1914
        50.0004         34.7504
   1490919.57847   1164876.07444  21884273.9694                   21884269.5864
        46.7504         28.5004
   -264401.23047   -131191.66845  20512193.0554                   20512187.3914
        46.0004         30.2504
   2061918.77346   1488685.97742  24367815.6254                   24367813.7274
        37.7504         16.2504
    574074.99646    651280.28443  21860806.0944                   21860804.7074
        41.2504         22.0004
 19  3  7  0 44 50.0000000  0  6G01G17G28G19G11G24
   1471757.33247   1151293.78943  23115796.9384                   23115797.6374
        42.7504         22.7504
    678986.52048    553193.55145  20589086.7584                   20589083.7704
        49.5004         34.2504
   1490603.09047   1164629.44144  21884212.3054                   21884209.2074
        46.2504         28.7504
   -283643.44147   -146185.62545  20508530.9304                   20508525.6024
        45.7504         30.2504
   2068430.16046   1493759.74242  24369055.3834                   24369053.1414
        36.5004         16.2504
    553488.10946    635238.53543  21856887.5164                   21856887.3054
        40.0004         22.7504
 19  3  7  0 44 55.0000000  0  6G01G17G28G19G11G24
   1471692.72747   1151243.44843  23115785.0394                   23115785.2544
        42.5004         22.5004
    670326.04548    546445.12245  20587439.3914                   20587436.4414
        49.2504         32.7504
   1490300.64847   1164393.76444  21884155.7034                   21884151.1684
        45.7504         28.0004
   -302862.73447   -161161.70644  20504874.1884                   20504868.2854
        45.5004         28.7504
   2074957.65246   1498846.12542  24370297.5004                   24370295.5164
        37.7504         16.2504
    532923.42146    619214.08643  21852974.6174                   21852973.6024
        40.7504         22.0004
 19  3  7  0 45  0.0000000  0  6G01G17G28G19G11G24
   1471648.33846   1151208.75543  23115777.1954                   23115775.4024
        41.2504         21.5004
    661683.77447    539710.81444  20585795.3284                   20585788.7854
        47.0004         27.7504
   1490009.54947   1164166.84443  21884100.3594                   21884093.8984
        44.7504         22.7504
   -322061.64147   -176121.97544  20501221.3914                   20501212.4184
        44.2504         24.0004
   2081497.87945   1503942.30142  24371541.1954                   24371539.6844
        35.5004         15.5004
    512377.43446    603204.15243  21849064.3524                   21849062.8404
        38.5004         20.5004
 19  3  7  0 45  5.0000000  0  6G01G17G28G19G11G24
   1471619.09046   1151186.08243  23115768.8364                   23115772.3204
        39.5004         21.2504
    653053.51047    532986.01745  20584150.3134                   20584147.9774
        46.0004         31.5004
   1489724.12147   1163944.52344  21884043.9924                   21884041.0704
        42.0004         26.0004
   -341246.98647   -191071.49844  20497568.1724                   20497564.0354
        42.2504         27.2504
                                  24372787.9454                   24372786.0664
        34.5004         14.7504
    491844.13346    587204.28543  21845155.0634                   21845155.9924
        38.2504         21.2504
 19  3  7  0 45 10.0000000  0  6G01G17G28G19G11G24
   1471604.21947   1151174.49643  23115768.2424                   23115768.1524
        42.5004         21.5004
    644436.78148    526271.70345  20582512.5784                   20582509.2894
        49.2504         32.7504
   1489444.34847   1163726.53144  21883992.7424                   21883988.3134
        45.7504         26.5004
   -360415.71147   -206008.14144  20493922.2664                   20493916.5514
        45.2504         29.5004
   2094600.94146   1514152.64842  24374034.9144                   24374033.4844
        38.0004         14.7504
    471326.77046    571216.73443  21841252.5164                   21841251.6024
        40.5004         22.0004
 19  3  7  0 45 15.0000000  0  6G01G17G28G19G11G24
   1471613.52747   1151181.74243  23115769.9694                   23115769.4844
        42.5004         22.5004
    635842.85948    519575.12945  20580876.8914                   20580873.3094
        49.0004         33.2504
   1489181.14847   1163521.43444  21883943.0234                   21883937.8634
        44.7504         26.5004
   -379559.55147   -220925.44144  20490279.2194                   20490273.6054
        45.2504         29.2504
   2101172.32046   1519273.12942  24375285.5084                   24375283.8834
        37.0004         14.7504
    450830.54746    555245.64543  21837352.1024                   21837351.6174
        41.2504         22.7504
 19  3  7  0 45 20.0000000  0  6G01G17G28G19G11G24
   1471644.64146   1151205.96943  23115775.4924                   23115776.0634
        40.0004         22.0004
    627267.32048    512892.88345  20579245.0394                   20579242.0084
        48.7504         32.5004
   1488929.37947   1163325.23844  21883894.0394                   21883890.5234
        45.0004         26.7504
   -398683.10547   -235826.91044  20486639.8984                   20486634.7384
        46.5004         29.5004
   2107758.50445   1524405.18442  24376539.1954                   24376537.4844
        35.0004         14.7504
    430355.27046    539290.87943  21833456.6174                   21833455.8134
        40.7504         22.0004
 19  3  7  0 45 25.0000000  0  6G01G17G28G19G11G24
   1471686.89147   1151238.91443  23115784.0314                   23115784.2194
        43.0004         22.0004
    618701.33648    506218.10245  20577615.1334                   20577611.5704
        49.2504         33.0004
   1488680.52047   1163131.32844  21883847.4614                   21883842.5084
        45.7504         28.0004
   -417794.66447   -250719.03144  20483003.0474                   20482997.1524
        45.2504         28.2504
   2114348.36746   1529540.20742  24377792.6254                   24377791.8674
        38.2504         14.7504
    409889.84846    523343.81343  21829561.6564                   21829561.1414
        40.5004         21.2504
 19  3  7  0 45 30.0000000  0  6G01G17G28G19G11G24
   1471746.05147   1151284.97743  23115795.3594                   23115795.1054
        42.5004         21.5004
    610148.86748    499553.80545  20575987.9694                   20575983.7734
        49.0004         32.5004
   1488438.28147   1162942.54744  21883800.6334                   21883795.8674
        45.2504         27.0004
   -436891.01647   -265599.32044  20479369.2974                   20479362.9144
        44.7504         28.5004
   2120947.965 6                  24379049.328
        38.750
    389439.96546    507408.81343  21825670.5164                   21825668.4804
        40.7504         21.5004
 19  3  7  0 45 35.0000000  0  6G01G17G28G19G11G24
   1471825.79346   1151347.11743  23115810.5704                   23115810.2424
        41.2504         22.5004
    601614.73048    492903.84045  20574364.2424                   20574359.6054
        48.5004         33.0004
   1488208.40247   1162763.43044  21883757.3674                   21883751.9534
        45.0004         28.0004
   -455967.30147   -280463.95744  20475739.2504                   20475732.4414
        45.5004         28.5004
   2127560.547 5                  24380307.992
        35.500
    369007.44946    491487.35943  21821782.9224                   21821780.9184
        40.7504         22.5004
 19  3  7  0 45 40.0000000  0  6G01G17G28G19G11G24
   1471926.14846   1151425.32443  23115829.4924                   23115829.1524
        40.7504         22.5004
    593098.21948    486267.60245  20572743.0084                   20572739.3204
        48.2504         33.0004
   1487989.33247   1162592.73444  21883715.7894                   21883710.8444
        45.0004         27.2504
   -475024.00847   -295313.33644  20472112.3984                   20472106.2384
        46.0004         29.0004
   2134186.520 5                  24381567.313
        35.750
    348594.16446    475580.93443  21817897.3444                   21817896.5634
        40.2504         22.0004
 19  3  7  0 45 45.0000000  0  6G01G17G28G19G11G24
   1472043.50447   1151516.84443  23115852.4694                   23115851.4804
        43.0004         22.0004
    584596.03548    479642.56345  20571125.7034                   20571121.7544
        49.7504         34.0004
   1487777.39847   1162427.62545  21883676.0864                   21883670.8094
        46.5004         30.0004
   -494064.11347   -310149.74245  20468490.0394                   20468483.6684
        45.7504         30.5004
   2140822.26616                  24382831.250
        38.500
    328197.65746    459687.58143  21814017.0554                   21814015.0394
        40.5004         22.0004
 19  3  7  0 45 50.0000000  0  6G01G17G28G19G11G24
   1472180.65247   1151623.68043  23115877.6954                   23115878.2934
        42.5004         22.7504
    576112.29748    473031.84445  20569510.6564                   20569508.2504
        49.0004         34.0004
   1487577.64847   1162271.96544  21883636.8914                   21883633.9774
        45.0004         29.7504
   -513083.60547   -324970.12945  20464870.2814                   20464865.2274
        45.2504         31.5004
   2147470.125 5                  24384095.586
        34.750
    307818.39346    443807.61143  21810137.7664                   21810137.5704
        39.7504         23.2504
 19  3  7  0 45 55.0000000  0  1G01
                                  23115907.5084                   23115907.9654
        38.5004         22.0004
 19  3  7  0 46  0.0000000  0  6G01G17G28G19G11G24
                                  23115942.2584                   23115940.2034
        43.7504         28.5004
                                  20566292.8914                   20566289.5124
        49.5004         34.7504
   1487218.77057   1162002.84455  21883568.0004                   21883562.7934
        46.0004         30.5004
                                  20457643.3834                   20457635.8284
        45.0004         32.7504
                                  24386634.031
        38.250
                                  21802393.906
        41.000
 19  3  7  0 46  5.0000000  0  6G01G17G28G19G11G24
   1472716.11347   1152012.78155  23115978.5704                   23115972.7664
        42.0004         32.2504
    550762.09848    454596.50845  20564687.3284                   20564684.4454
        49.2504         32.2504
   1487046.25057   1161868.29754  21883535.5004                   21883531.2464
        45.5004         27.0004
   -570030.68447   -367570.82045  20454034.2274                   20454028.3554
        45.5004         31.5004
   1587443.715 5                  24387905.422
        35.250
   1535558.09846    419058.85253  21798524.8754                   21798523.7814
        40.2504         22.7504
 19  3  7  0 46 10.0000000  0  6G01G17G28G19G11G24
   1472910.99647   1152164.60253  23116016.7424                   23116013.3404
        43.2504         22.5004
    542324.68448    448021.90245  20563082.6564                   20563078.2344
        49.5004         31.7504
   1486867.27747   1161728.81344  21883502.1644                   21883496.9844
        45.5004         26.7504
   -588996.45747   -382349.37545  20450426.2974                   20450419.4184
        45.5004         31.0004
   1594119.07416                  24389176.344
        39.000
   1515228.25056    403217.40253  21794657.5234                   21794655.2194
        41.7504         22.7504
 19  3  7  0 46 15.0000000  0  6G01G17G28G19G11G24
   1473119.51247   1152327.15644  23116056.7344                   23116054.0664
        43.0004         26.5004
    533898.57048    441456.17645  20561479.1484                   20561475.0164
        50.0004         34.7504
   1486693.08247   1161593.16044  21883468.7664                   21883463.9184
        46.0004         29.0004
   -607949.12547   -397117.59845  20446819.5554                   20446812.9414
        46.2504         32.0004
   1600801.430 6                  24390447.945
        38.250
   1494909.91846    387385.02043  21790791.0234                   21790789.0354
        41.0004         23.7504
 19  3  7  0 46 20.0000000  0  6G01G17G28G19G11G24
   1473347.37547   1152504.70744  23116098.8444                   23116098.1214
        42.7504         24.2504
    525491.29748    434905.03545  20559878.7734                   20559875.4144
        49.7504         33.7504
   1486529.62547   1161465.76644  21883437.5634                   21883433.3794
        45.7504         28.0004
   -626879.25447   -411868.37545  20443216.7274                   20443211.3094
        46.0004         31.5004
   1607495.781 6                  24391721.820
        37.500
   1474613.86346    371569.87943  21786928.8204                   21786927.2424
        41.5004         23.5004
 19  3  7  0 46 25.0000000  0  6G01G17G28G19G11G24
   1473599.21947   1152700.94544  23116147.5084                   23116146.7854
        43.5004         25.5004
    517105.71548    428370.81345  20558283.3754                   20558280.1564
        49.7504         34.0004
   1486382.02047   1161350.74244  21883408.7114                   21883405.8444
        45.7504         28.2504
   -645785.77047   -426600.72745  20439619.2194                   20439613.8014
        45.5004         31.2504
   1614206.621 6                  24392998.727
        38.000
   1454338.62146    355771.01643  21783070.0944                   21783069.2464
        41.2504         22.5004
 19  3  7  0 46 30.0000000  0  6G01G17G28G19G11G24
   1473874.35247   1152915.31344  23116199.7344                   23116199.4104
        42.7504         26.0004
    508741.66448    421853.34445  20556691.7034                   20556688.5434
        49.5004         33.5004
   1486248.40647   1161246.60944  21883383.2424                   21883380.0554
        45.0004         27.7504
   -664668.00447   -441314.18745  20436025.8364                   20436019.9734
        45.5004         30.0004
   1620933.367 6                  24394278.477
        38.000
   1434087.78546    339991.08643  21779215.7504                   21779215.1174
        40.7504         22.7504
 19  3  7  0 46 35.0000000  0  6G01G17G28G19G11G24
   1474168.35947   1153144.39544  23116254.4384                   23116255.6054
        44.5004         29.5004
    500394.62948    415349.14545  20555102.4304                   20555100.0354
        49.0004         33.0004
   1486124.96547   1161150.41844  21883359.6174                   21883356.3404
        45.0004         27.2504
   -683530.99647   -456012.63344  20432435.9694                   20432430.4884
        43.2504         28.2504
   1627671.398 6                  24395559.953
        41.250
   1413854.71146    324225.06343  21775365.3674                   21775365.7504
        41.0004         22.7504
 19  3  7  0 46 40.0000000  0  6G01G17G28G19G11G24
   1474477.64546   1153385.38344  23116312.9844                   23116314.4414
        41.7504         24.0004
    492059.03148    408853.87945  20553515.8284                   20553513.8674
        48.5004         32.2504
   1486005.48447   1161057.30544  21883336.2274                   21883333.1454
        44.2504         26.5004
   -702380.74647   -470700.74244  20428848.0704                   20428843.3134
        44.7504         29.2504
   1634417.60946   1534100.81353  24396842.9774                   24396841.4924
        36.5004         20.5004
   1393636.99246    308470.99243  21771518.1174                   21771517.9264
        40.5004         22.0004
 19  3  7  0 46 45.0000000  0  6G01G17G28G19G11G24
   1474794.18047   1153632.04543  23116374.1414                   23116375.0594
        42.0004         22.5004
    483728.53548    402362.59045  20551931.6724                   20551928.3794
        49.0004         32.5004
   1485884.22347   1160962.83244  21883314.7194                   21883310.3164
        45.5004         27.2504
   -721222.99247   -485382.98845  20425263.7734                   20425258.0044
        45.2504         30.7504
   1641163.82846   1539357.60943  24398128.6414                   24398125.7424
        36.0004         18.2504
   1373425.95746    292722.14143  21767672.7974                   21767672.2344
        40.2504         21.5004
 19  3  7  0 46 50.0000000  0  6G01G17G28G19G11G24
   1475116.91447   1153883.53544  23116437.0784                   23116436.2274
        42.5004         24.7504
    475402.25048    395874.57845  20550347.6954                   20550343.2304
        49.0004         33.0004
   1485761.58647   1160867.26644  21883291.7194                   21883287.1334
        45.7504         27.7504
   -740059.13747   -500060.50445  20421679.7664                   20421673.4574
        45.0004         30.7504
   1647908.52046   1544613.32442  24399411.9384                   24399409.3914
        36.7504         16.2504
   1353217.55146    276975.33243  21763827.2584                   21763826.4414
        39.2504         21.5004
 19  3  7  0 46 55.0000000  0  6G01G17G28G19G11G24
   1475459.32847   1154150.40244  23116501.6884                   23116501.6914
        43.5004         26.5004
    467093.02748    389399.90645  20548766.4064                   20548762.8284
        49.7504         34.7504
   1485647.99647   1160778.81144  21883269.3204                   21883265.8874
        45.5004         28.5004
   -758875.63747   -514722.67245  20418098.9224                   20418093.4024
        46.5004         32.0004
   1654665.64546   1549878.67642  24400698.7194                   24400695.8164
        37.7504         16.7504
   1333030.62546    261245.31343  21759986.7424                   21759985.3444
        41.5004         22.7504
 19  3  7  0 47  0.0000000  0  6G01G17G28G19G11G24
   1475820.98847   1154432.21144  23116570.1024                   23116570.2704
        43.5004         25.0004
    458801.81348    382939.21145  20547188.3204                   20547184.9574
        50.2504         34.2504
   1485542.72747   1160696.75044  21883250.3524                   21883245.8404
        46.2504         27.2504
   -777670.82047   -529368.28945  20414522.4064                   20414517.0864
        45.7504         31.2504
   1661434.57046   1555152.96542  24401985.6484                   24401983.4884
        37.7504         16.2504
   1312867.84046    245534.05143  21756148.8364                   21756148.6764
        41.5004         22.5004
 19  3  7  0 47  5.0000000  0  6G01G17G28G19G11G24
   1476202.24647   1154729.26243  23116643.0864                   23116642.5004
        42.7504         22.5004
    450528.20348    376492.24245  20545614.2504                   20545610.5314
        50.0004         34.0004
   1485447.06647   1160622.20344  21883231.9064                   21883227.3754
        46.0004         27.2504
   -796445.98047   -543998.26245  20410949.3134                   20410943.6134
        46.0004         31.5004
   1668215.62945   1560437.10542  24403276.2664                   24403274.5474
        35.7504         15.5004
   1292726.21147    229839.25043  21752316.8204                   21752315.2734
        42.0004         22.5004
 19  3  7  0 47 10.0000000  0  7G01G17G28G19G11G24G13
   1476601.36147   1155040.28043  23116719.0084                   23116718.5864
        43.0004         22.7504
    442270.14748    370057.38745  20544043.1484                   20544039.5984
        50.2504         34.5004
   1485359.94947   1160554.33244  21883215.2504                   21883211.1334
        46.0004         28.5004
   -815203.10947   -558614.20645  20407380.2894                   20407374.4884
        46.2504         32.0004
   1675007.15246   1565729.11742  24404568.8364                   24404567.1844
        36.5004         16.2504
   1272602.07446    214158.13643  21748486.2274                   21748485.9144
        40.7504         22.0004
   1629295.84016                  24328019.180
        38.500
 19  3  7  0 47 15.0000000  0  7G01G17G28G19G11G24G13
   1477018.52347   1155365.39843  23116798.1564                   23116797.9574
        44.0004         22.5004
    434028.46148    363635.32045  20542474.3204                   20542470.4384
        50.0004         34.5004
   1485283.10947   1160494.46944  21883200.5004                   21883196.0234
        46.5004         28.2504
   -833941.70347   -573215.69945  20403814.4924                   20403808.6414
        45.7504         31.2504
   1681809.156 6                  24405862.766
        37.500
   1252493.80946    198489.36743  21744660.4304                   21744659.2934
        40.0004         21.7504
   1636490.129 5                  24329387.031
        35.750
 19  3  7  0 47 20.0000000  0  7G01G17G28G19G11G24G13
   1477455.70747   1155706.03544  23116880.9384                   23116880.8164
        44.7504         29.0004
    425805.35248    357227.68045  20540909.0314                   20540905.8324
        49.7504         33.5004
   1485220.72647   1160445.85544  21883188.1174                   21883184.2894
        45.5004         28.2504
   -852659.25847   -587800.81244  20400252.5784                   20400247.0274
        44.5004         29.7504
   1688623.727 6                  24407158.813
        39.750
   1232400.25046    182832.03143  21740836.0004                   21740835.7384
        41.2504         22.0004
   1643694.352 5                  24330759.492
        33.500
 19  3  7  0 47 25.0000000  0  7G01G17G28G19G11G24G13
   1477918.60646   1156066.65244  23116969.7114                   23116968.9964
        41.2504         24.7504
    417603.50848    350836.60545  20539348.8524                   20539344.0864
        49.0004         33.5004
   1485176.81647   1160411.58344  21883179.9144                   21883174.9144
        44.7504         27.5004
   -871355.69547   -602369.50445  20396694.5234                   20396688.7234
        45.7504         30.5004
   1695456.598 6                  24408459.531
        37.500
   1212321.81446    167186.45643  21737016.0004                   21737014.7304
        41.5004         22.5004
   1650904.536 6                  24332131.484
        38.250
 19  3  7  0 47 30.0000000  0  7G01G17G28G19G11G24G13
   1478389.39147   1156433.60943  23117058.0164                   23117059.9574
        42.5004         22.7504
    409407.43448    344450.11345  20537788.2814                   20537786.5594
        48.5004         32.2504
   1485132.82047   1160377.37144  21883170.7424                   21883168.2544
        45.0004         25.5004
   -890043.69947   -616931.51644  20393137.3984                   20393133.6954
        44.2504         29.7504
   1702290.016 6                  24409760.094
        38.000
   1192249.66846    151545.88343  21733194.5084                   21733195.6724
        39.0004         21.5004
   1658112.109 6                  24333501.492
        36.000
 19  3  7  0 47 35.0000000  0  7G01G17G28G19G11G24G13
   1478869.40246   1156807.64143  23117150.0234                   23117151.2974
        41.0004         22.7504
    401222.21148    338072.00845  20536230.9384                   20536229.5664
        48.7504         32.5004
   1485092.51647   1160345.93844  21883164.1094                   21883161.4844
        45.0004         27.0004
   -908716.92247   -631482.10544  20389584.3984                   20389580.6334
        45.2504         29.7504
   1709124.711 5                  24411060.867
        34.500
   1172187.90246    135913.34843  21729378.2734                   21729378.5824
        41.2504         22.0004
   1665323.641 5                  24334874.063
        35.750
 19  3  7  0 47 40.0000000  0  7G01G17G28G19G11G24G13
   1479365.61347   1157194.29743  23117244.2894                   23117246.1844
        42.2504         22.5004
    393054.50848    331707.57445  20534676.5474                   20534675.4734
        48.7504         32.2504
   1485061.35247   1160321.66044  21883157.5234                   21883155.9574
        45.0004         26.7504
   -927367.66047   -646015.14545  20386035.0084                   20386031.4734
        45.0004         30.2504
   1715967.906 5                  24412362.344
        34.250
   1152147.13346    120297.19143  21725564.4224                   21725565.4734
        40.7504         22.5004
   1672548.949 6                  24336248.742
        36.250
 19  3  7  0 47 45.0000000  0  7G01G17G28G19G11G24G13
   1479872.72746   1157589.50443  23117340.6644                   23117342.7194
        41.2504         21.0004
    384903.34848    325356.03145  20533125.5004                   20533124.2544
        48.7504         32.2504
   1485036.59047   1160302.38744  21883152.8524                   21883150.7274
        45.2504         26.2504
   -945994.76547   -660529.74345  20382490.7114                   20382487.1724
        45.5004         31.2504
   1722813.805 5                  24413664.852
        35.000
   1132127.40246    104697.39543  21721754.4844                   21721755.9694
        40.5004         21.5004
   1679791.160 6                  24337627.133
        38.500
 19  3  7  0 47 50.0000000  0  7G01G17G28G19G11G24G13
   1480388.82046   1157991.59443  23117438.4144                   23117441.0044
        41.0004         20.5004
    376767.25448    319016.23045  20531577.2894                   20531575.9024
        48.5004         33.5004
   1485012.57047   1160283.69544  21883148.0164                   21883146.2974
        43.5004         25.7504
   -964598.48847   -675026.12545  20378950.2974                   20378946.6724
        46.0004         33.2504
   1729660.36715                  24414968.484
        34.750
   1112134.96946     89118.90643  21717950.6024                   21717951.5784
        41.0004         22.2504
   1687051.008 6                  24339009.039
        36.250
 19  3  7  0 47 55.0000000  0  7G01G17G28G19G11G24G13
   1480917.97746   1158403.96143  23117539.6484                   23117542.3674
        40.5004         20.5004
    368646.53948    312688.39545  20530031.7114                   20530029.8244
        48.0004         34.0004
   1484992.94147   1160268.39144  21883144.9064                   21883142.7974
        43.0004         24.5004
   -983181.79747   -689506.61745  20375413.7734                   20375410.1994
        45.7504         34.7504
   1736511.828 6                  24416271.844
        36.000
   1092164.70746     73557.65644  21714149.9224                   21714151.3484
        41.0004         25.0004
   1694320.816 6                  24340392.102
        37.000
 19  3  7  0 48  0.0000000  0  7G01G17G28G19G11G24G13
   1481459.83646   1158826.13343  23117642.7734                   23117645.0864
        39.7504         20.2504
    360535.59048    306368.17645  20528488.4064                   20528486.9414
        48.0004         34.0004
   1484974.46947   1160254.00844  21883141.1414                   21883138.9104
        43.0004         25.5004
  -1001752.54347   -703977.32045  20371880.1174                   20371877.0664
        46.0004         35.2504
   1743368.813 5                  24417577.047
        35.000
   1072210.37546     58008.77743  21710352.7274                   21710354.0084
        40.7504         22.5004
   1701591.656 6                  24341775.313
        36.750
 19  3  7  0 48  5.0000000  0  2G17G28
                                  20526945.1414                   20526943.9844
        40.5004         30.7504
                                  21883136.3134                   21883135.1484
        35.5004         22.7504
 19  3  7  0 48 10.0000000  0  7G01G17G28G19G11G24G13
   1482563.92216                  23117854.039
        40.000
    344337.01248    293745.90645  20525406.0864                   20525402.6374
        48.2504         33.0004
   1484935.62947   1160223.73844  21883133.7664                   21883130.2424
        43.5004         24.5004
  -1038859.24257   -732891.64155  20364819.4694                   20364814.1254
        46.2504         33.5004
   1757087.05116                  24420185.508
        36.500
   1032336.19556     26937.99253  21702764.6334                   21702765.0984
        41.0004         23.2504
   1716133.87116                  24344543.680
        36.500
 19  3  7  0 48 15.0000000  0  7G01G17G28G19G11G24G13
   1483123.988 6                  23117960.180
        40.000
    336237.87547    287434.89145  20523863.6644                   20523861.0474
        47.0004         32.2504
   1484906.32047   1160200.89844  21883127.3674                   21883124.2274
        42.7504         25.2504
  -1057410.19547   -747346.93045  20361288.7814                   20361283.9964
        44.5004         31.7504
   1763939.734 6                  24421490.367
        36.750
   1012403.41746     11405.99543  21698971.1564                   21698971.4964
        38.7504         22.0004
   1723388.574 6                  24345923.719
        37.500
 19  3  7  0 48 25.0000000  0  7G01G17G28G19G11G24G13
                                  23118174.195
        40.000
                                  20520781.8284                   20520780.5084
        47.0004         33.7504
                                  21883112.4064                   21883111.1054
        43.0004         27.0004
                                  20354229.8594                   20354227.4804
        45.0004         34.5004
                                  24424096.438
        37.000
    972546.32356    -19651.70154  21691386.9384                   21691388.0704
        40.0004         25.0004
                                  24348679.852
        37.500
 19  3  7  0 48 30.0000000  0  6G01G17G28G19G11G13
                                  23118281.7894                   23118282.2384
        38.2504         21.7504
                                  20519241.7274                   20519239.4924
        46.2504         32.0004
                                  21883105.4614                   21883100.1914
        40.7504         22.5004
                                  20350702.5864                   20350699.5514
        44.0004         33.0004
                                  24425396.320
        34.000
                                  24350056.453
        34.500
 19  3  7  0 48 35.0000000  0  7G01G17G28G19G11G24G13
                                  23118392.2664                   23118392.8094
        42.2504         21.2504
    303860.29757    262710.00355  20517702.5394                   20517701.1764
        47.7504         34.2504
                                  21883096.1024                   21883090.7704
        43.5004         31.5004
  -1131569.88357   -805133.21555  20347176.2664                   20347172.9654
        46.0004         35.5004
                                  24426699.672
        36.500
                                  21683805.219
        42.000
   1752321.21916                  24351431.117
        36.000
 19  3  7  0 48 40.0000000  0  6G01G17G28G19G11G24
   1485991.13356   1160780.14153  23118503.7664                   23118505.9924
        38.5004         20.2504
                                  20516163.6564                   20516162.4184
        46.5004         30.5004
                                  21883086.4224                   21883083.7274
        41.7504         23.2504
                                  20343650.4224                   20343646.6334
        45.0004         31.7504
                                  24428001.180
        34.000
                                  21680014.7424                   21680015.9534
        42.5004         23.0004
 19  3  7  0 48 45.0000000  0  7G01G17G28G19G11G24G13
   1486597.02346   1161252.18843  23118619.5944                   23118620.9614
        40.0004         19.5004
    287702.46947    250119.77745  20514627.3834                   20514625.3014
        47.5004         32.2504
   1484788.08247   1160075.47344  21883079.0864                   21883075.3834
        42.5004         24.0004
  -1168612.57847   -833997.66045  20340126.7114                   20340122.6254
        45.2504         34.0004
   1805019.742 6                  24429304.648
        36.000
    892893.71946    -64956.14143  21676229.1174                   21676229.9224
        40.2504         23.7504
   1766746.69916                  24354174.836
        37.750
 19  3  7  0 48 50.0000000  0  7G01G17G28G19G11G24G13
   1487217.89547   1161736.00443  23118738.3914                   23118739.7624
        42.0004         19.5004
    279642.18447    243839.05145  20513093.6174                   20513091.4614
        47.7504         33.5004
   1484754.30547   1160049.18044  21883071.7034                   21883068.9534
        42.0004         24.7504
  -1187112.24247   -848412.96145  20336606.1884                   20336602.1024
        45.5004         35.2504
   1811881.92215                  24430611.336
        34.750
    873007.12947    -80452.21544  21672444.9454                   21672445.4884
        42.2504         26.2504
   1773961.305 6                  24355548.648
        38.250
 19  3  7  0 49 10.0000000  0  2G17G24
   1570934.93857    236818.67556  20506980.7974                   20506978.6374
        47.5004         37.5004
   1561926.68416                  21657332.508
        41.500
 19  3  7  0 49 15.0000000  0  4G01G17G19G24
   1576225.12116                  23119367.063
        39.500
   1562917.54747    230571.42246  20505455.2584                   20505453.6724
        47.5004         36.0004
   1559929.77057   -865677.74255  20319041.0314                   20319037.8054
        45.2504         35.7504
   1542096.34846   -112626.45354  21653558.9224                   21653559.8794
        40.5004         26.7504
 19  3  7  0 49 20.0000000  0  7G01G17G28G19G11G24G13
   1576919.37146   1162543.38753  23119499.8834                   23119500.2234
        38.7504         19.2504
   1554915.18847    224335.82045  20503932.4694                   20503930.2074
        47.0004         34.7504
   1575396.04716                  21883047.680
        41.000
   1541501.98047   -880036.99645  20315534.4924                   20315530.5354
        45.0004         34.2504
   1585062.00415                  24438470.555
        33.750
   1522282.50446   -128065.80544  21649789.8054                   21649790.0234
        41.5004         26.0004
   1582647.58216                  24363783.969
        38.000
 19  3  7  0 49 25.0000000  0  7G01G17G28G19G11G24G13
   1577625.65446   1163093.71343  23119634.6414                   23119635.2114
        40.5004         18.2504
   1546929.27347    218113.03145  20502412.8134                   20502410.6914
        47.2504         34.5004
   1575384.35946   1160010.24253  21883046.3984                   21883043.2664
        41.2504         22.5004
   1523097.18447   -894378.40645  20312032.4064                   20312028.1724
        44.7504         34.2504
   1591956.559 5                  24439781.094
        35.000
   1502490.77346   -143487.92244  21646022.6174                   21646023.3524
        41.7504         27.0004
   1589872.395 5                  24365159.180
        35.750
 19  3  7  0 49 30.0000000  0  7G01G17G28G19G11G24G13
   1578360.90247   1163666.63342  23119774.2274                   23119774.7384
        42.7504         17.7504
   1538962.53547    211905.18845  20500896.5634                   20500895.0394
        47.0004         33.5004
   1575386.75046   1160012.09043  21883046.1644                   21883043.9494
        41.7504         22.0004
   1504710.00447   -908706.07045  20308533.0394                   20308529.1374
        44.2504         32.7504
   1598873.828 6                  24441098.367
        37.000
   1482720.88347   -158893.05544  21642260.4844                   21642261.4024
        42.7504         28.0004
   1597097.902 6                  24366533.359
        38.500
 19  3  7  0 49 35.0000000  0  7G01G17G28G19G11G24G13
   1579112.20347   1164252.06343  23119916.3984                   23119918.0944
        42.5004         19.2504
                                  20499383.1334                   20499382.1214
        47.7504         32.2504
                                  21883047.6884                   21883045.8134
        42.2504         22.0004
                                  20305037.7344                   20305033.7504
        44.5004         30.7504
                                  24442415.492
        38.750
                                  21638503.0864                   21638503.6374
        43.0004         30.0004
                                  24367910.234
        38.250
 19  3  7  0 49 40.0000000  0  7G01G17G28G19G11G24G13
   1579890.62156   1164858.65653  23120064.8524                   23120066.7584
        41.0004         18.5004
   1523078.53957    199528.08655  20497874.2344                   20497872.3054
        46.5004         34.5004
   1575415.07056   1160034.18053  21883051.5314                   21883049.4924
        40.5004         22.5004
   1467991.66857   -937317.73855  20301546.3594                   20301541.9694
        44.0004         32.0004
   1612744.23416                  24443736.938
        37.000
   1443246.36757   -189652.56655  21634749.1564                   21634750.3244
        43.0004         31.2504
   1611563.98415                  24369286.133
        34.750
 19  3  7  0 49 45.0000000  0  7G01G17G28G19G11G24G13
   1580696.37147   1165486.52343  23120218.2114                   23120219.5044
        42.5004         20.2504
   1515164.10947    193361.01845  20496367.4384                   20496365.3524
        45.2504         33.2504
   1575448.10256   1160059.93453  21883058.0234                   21883055.2814
        40.5004         22.5004
   1449658.59747   -951603.21245  20298056.6564                   20298052.3954
        42.5004         31.0004
   1619710.74016                  24445063.461
        38.500
   1423541.92246   -205006.67344  21630999.4534                   21630999.1414
        40.5004         28.7504
   1618798.53115                  24370664.125
        34.000
 19  3  7  0 49 50.0000000  0  7G01G17G28G19G11G24G13
   1581529.70747   1166135.86743  23120377.5634                   23120377.2664
        43.5004         22.0004
   1507270.13747    187209.86745  20494865.9844                   20494862.0944
        46.5004         33.7504
   1575496.85546   1160097.93443  21883067.6254                   21883064.1764
        40.5004         22.0004
   1431345.59447   -965873.09045  20294572.6174                   20294566.6254
        44.5004         31.7504
   1626698.016 6                  24446393.305
        39.500
   1403858.35547   -220344.51244  21627253.9384                   21627253.2544
        42.5004         29.5004
   1626037.37515                  24372040.344
        33.750
 19  3  7  0 49 55.0000000  0  7G01G17G28G19G11G24G13
   1582386.89147   1166803.81343  23120540.1414                   23120540.6484
        42.5004         22.7504
   1499398.68847    181076.26645  20493368.5864                   20493364.9774
        45.5004         34.2504
   1575562.39146   1160148.98843  21883080.4064                   21883076.4534
        41.2504         22.2504
   1413058.09047   -980123.09845  20291092.5784                   20291086.9654
        43.5004         31.2504
   1633701.574 6                  24447725.992
        37.500
   1384197.32447   -235664.80144  21623513.1804                   21623512.3524
        43.0004         29.0004
   1633290.035 5                  24373420.461
        33.250
 19  3  7  0 50  0.0000000  0  7G01G17G28G19G11G24G13
   1583271.21947   1167492.87943  23120708.8204                   23120709.4774
        42.0004         22.5004
   1491553.21547    174962.89145  20491875.3834                   20491872.7504
        46.7504         35.0004
   1575657.45746   1160223.05944  21883097.8054                   21883094.7074
        41.7504         25.7504
   1394797.11747   -994352.44945  20287617.8284                   20287612.5474
        44.5004         33.0004
   1640724.730 6                  24449062.703
        36.500
   1364543.94147   -250979.11744  21619773.0314                   21619772.8134
        42.7504         29.2504
   1640555.070 5                  24374803.055
        35.750
 19  3  7  0 50  5.0000000  0  7G01G17G28G19G11G24G13
   1584185.61746   1168205.39543  23120882.8054                   23120883.3324
        41.5004         22.5004
   1483736.00047    168871.56645  20490387.9144                   20490385.2114
        46.0004         35.2504
   1575775.76646   1160315.23844  21883121.1564                   21883116.9454
        41.5004         26.2504
   1376566.44547  -1008558.16045  20284148.4454                   20284143.7234
        44.5004         33.0004
   1647770.375 5                  24450403.469
        35.750
   1344917.09847   -266272.77044  21616038.0554                   21616037.9144
        42.5004         28.5004
   1647837.242 5                  24376189.031
        35.500
 19  3  7  0 50 10.0000000  0  7G01G17G28G19G11G24G13
   1585122.50846   1168935.45343  23121060.7504                   23121061.9964
        41.5004         22.7504
   1475939.19947    162796.13345  20488904.1024                   20488901.3404
        46.0004         35.0004
   1575907.99646   1160418.27044  21883145.7034                   21883142.5004
        41.7504         26.0004
   1358358.81347  -1022745.92245  20280683.7974                   20280678.8364
        43.5004         32.5004
   1654831.000 5                  24451746.445
        35.750
   1325312.21547   -281549.28544  21612308.0634                   21612307.0234
        43.5004         29.0004
   1655129.746 6                  24377577.727
        36.250
 19  3  7  0 50 15.0000000  0  7G01G17G28G19G11G24G13
   3161494.71947   2397277.41043  23421034.5784                   23421035.5204
        42.0004         22.5004
   3043577.41047   1384332.40245  20787215.6724                   20787213.1724
        46.7504         35.0004
   3151467.10946   2388126.67244  22182964.2974                   22182961.1724
        41.7504         26.7504
   2915590.86747    190681.65645  20577015.6414                   20577009.9414
        44.5004         32.5004
   3237318.242 5                  24752883.500
        35.750
   2881146.39846    930789.01244  21908372.4384                   21908373.1054
        41.7504         29.2504
   3237844.039 6                  24678757.844
        36.500
 19  3  7  0 50 20.0000000  0  7G01G17G28G19G11G24G13
   3162460.07047   2398029.65243  23421218.1094                   23421219.8834
        42.0004         22.2504
   3035804.98447   1378275.96545  20785736.6484                   20785733.8324
        46.0004         35.2504
   3151610.63346   2388238.52344  22182992.8674                   22182988.3634
        41.0004         25.0004
   2897412.82047    176516.94945  20573555.8984                   20573550.8954
        44.2504         33.0004
   3244392.344 6                  24754228.961
        36.500
   2861569.31347    915534.16444  21904647.2344                   21904647.2814
        42.2504         28.7504
   3245140.605 6                  24680146.453
        36.000
 19  3  7  0 50 25.0000000  0  7G01G17G28G19G11G24G13
   3163437.86346   2398791.56343  23421404.2034                   23421405.2934
        41.7504         22.5004
   3028042.93847   1372227.61345  20784259.6484                   20784256.9494
        46.0004         35.2504
   3151758.25845   2388353.53543  22183020.0554                   22183016.6844
        35.7504         22.2504
   2879247.76247    162362.35245  20570099.4144                   20570093.9384
        44.0004         33.0004
   3251471.293 6                  24755577.336
        36.250
   2842004.25447    900288.66044  21900924.3674                   21900924.3634
        42.2504         29.2504
   3252437.441 5                  24681534.453
        35.750
 19  3  7  0 50 30.0000000  0  7G01G17G28G19G11G24G13
   3164428.17247   2399563.22343  23421593.2894                   23421593.9734
        42.2504         22.0004
   3020291.46947   1366187.49646  20782784.9224                   20782781.6684
        47.2504         36.5004
   3151909.75415                  22183048.164
        34.250
   2861095.95347    148218.10945  20566645.3054                   20566639.7114
        45.2504         33.7504
   3258555.430 6                  24756926.461
        37.000
   2822451.49647    885052.73445  21897203.3594                   21897203.4024
        43.0004         30.2504
   3259734.652 6                  24682924.164
        36.250
 19  3  7  0 50 35.0000000  0  7G01G17G28G19G11G24G13
   3165431.66046   2400345.16443  23421783.5164                   23421785.3874
        40.0004         20.5004
   3012551.18447   1360156.11345  20781311.9614                   20781308.1684
        45.0004         33.0004
   3152065.750 5                  22183078.813
        34.500
   2842957.88747    134084.54345  20563193.5394                   20563188.0554
        44.0004         33.2504
   3265645.156 5                  24758273.305
        33.250
   2802911.37547    869826.67644  21893485.4534                   21893485.0744
        42.2504         29.0004
   3267032.793 6                  24684312.547
        36.500
 19  3  7  0 50 40.0000000  0  7G01G17G28G19G11G24G13
   3166448.14546   2401137.20743  23421977.2274                   23421978.7894
        39.0004         19.5004
   3004821.82447   1354133.23045  20779840.6094                   20779837.6994
        47.5004         34.7504
   3152226.180 6                  22183108.898
        36.250
   2824833.34447    119961.52345  20559744.4454                   20559738.7664
        44.2504         33.0004
   3272740.441 5                  24759624.328
        33.250
   2783384.01247    854610.53545  21889769.5164                   21889769.1134
        43.0004         30.0004
   3274331.652 6                  24685701.758
        36.250
 19  3  7  0 50 45.0000000  0  7G01G17G28G19G11G24G13
   3167478.03146   2401939.73843  23422173.7814                   23422174.4654
        41.5004         20.0004
   2997103.98047   1348119.32846  20778372.3984                   20778368.9884
        46.0004         36.2504
   3152391.512 6                  22183140.922
        38.500
   2806722.93847    105849.55145  20556298.5234                   20556292.9454
        42.5004         32.7504
   3279841.563 5                  24760975.078
        35.750
   2763869.85947    839404.73044  21886056.0784                   21886055.4224
        42.7504         28.7504
   3281631.75816                  24687090.680
        36.250
 19  3  7  0 50 50.0000000  0  7G01G17G28G19G11G24G13
   3168521.88747   2402753.12543  23422372.0554                   23422372.5434
        42.7504         21.0004
   2989398.09847   1342114.75046  20776906.0944                   20776902.6174
        46.5004         36.0004
   3152562.199 6                  22183173.477
        37.500
   2788627.14547     91748.89545  20552855.1484                   20552849.6884
        43.7504         33.5004
   3286949.223 6                  24762328.367
        36.250
   2744369.44547    824209.60245  21882345.3364                   21882344.7304
        42.5004         30.7504
   3288933.621 5                  24688478.500
        35.500
 19  3  7  0 50 55.0000000  0  7G01G17G28G19G11G24G13
   3169579.97746   2403577.59843  23422573.0944                   23422574.0984
        41.0004         21.7504
   2981704.42647   1336119.67645  20775441.6564                   20775438.8324
        46.0004         35.7504
   3152738.766 6                  22183206.594
        36.750
   2770546.23047     77659.87945  20549414.1954                   20549408.7424
        43.5004         33.5004
   3294063.605 5                  24763681.961
        35.750
   2724882.96147    809025.30945  21878637.4304                   21878636.6764
        42.5004         30.0004
   3296237.449 5                  24689870.008
        35.750
 19  3  7  0 51  0.0000000  0  7G01G17G28G19G11G24G13
   3170652.00447   2404412.93843  23422777.8524                   23422778.1484
        42.0004         21.5004
   2974022.74647   1330133.95346  20773980.0634                   20773976.8054
        46.0004         36.0004
   3152920.734 6                  22183241.000
        37.000
   2752479.99647     63582.28945  20545976.2664                   20545970.8284
        43.5004         33.0004
   3301184.387 5                  24765036.930
        35.000
   2705410.19947    793851.73845  21874931.4774                   21874931.1604
        42.5004         30.2504
   3303543.078 6                  24691260.391
        36.500
 19  3  7  0 51  5.0000000  0  7G01G17G28G19G11G24G13
   3171737.82047   2405259.02043  23422984.3984                   23422984.4774
        42.0004         22.0004
   2966352.87147   1324157.43446  20772520.4614                   20772517.0314
        46.2504         36.2504
   3153107.973 6                  22183277.023
        36.750
   2734428.20747     49515.96145  20542540.7814                   20542535.7774
        44.0004         33.7504
   3308311.477 6                  24766392.914
        36.500
   2685951.08247    778688.79345  21871228.2584                   21871227.8404
        42.7504         30.2504
   3310850.176 6                  24692651.047
        36.500
 19  3  7  0 51 10.0000000  0  7G01G17G28G19G11G24G13
   3172837.71547   2406116.10243  23423193.8364                   23423194.4264
        42.0004         21.5004
   2958695.17647   1318190.39545  20771063.3594                   20771059.9804
        46.5004         35.5004
   3153300.87946   2388543.59853  22183313.7894                   22183310.3874
        37.0004         20.0004
   2716391.26247     35461.21145  20539108.4844                   20539103.3714
        44.0004         32.7504
   3315445.129 5                  24767750.523
        34.500
   2666505.73047    763536.58245  21867527.8134                   21867527.8204
        42.5004         30.0004
   3318159.188 5                  24694041.820
        35.750
 19  3  7  0 51 15.0000000  0  7G01G17G28G19G11G24G13
   3173951.88747   2406984.27743  23423405.1254                   23423405.5044
        42.2504         22.0004
   2951049.78547   1312232.94946  20769608.4064                   20769604.7384
        45.5004         36.7504
   3153499.60546   2388698.39843  22183350.9454                   22183348.0474
        36.5004         19.2504
   2698369.29747     21418.11745  20535679.1024                   20535673.7424
        43.0004         32.7504
   3322585.551 5                  24769109.156
        34.750
   2647074.50047    748395.35544  21863830.3914                   21863830.1334
        42.7504         29.5004
   3325470.184 6                  24695432.875
        36.750
 19  3  7  0 51 20.0000000  0  7G01G17G28G19G11G24G13
   3175079.87947   2407863.23843  23423619.8674                   23423620.7584
        42.2504         22.0004
   2943416.38747   1306284.84446  20768155.8914                   20768152.6214
        46.5004         36.5004
   3153703.70746   2388857.44143  22183391.0864                   22183387.3984
        36.7504         19.0004
   2680361.89847      7386.37945  20532253.0474                   20532247.1414
        43.7504         33.5004
   3329732.285 6                  24770469.836
        36.750
   2627656.93447    733264.78944  21860135.7814                   21860135.2424
        43.2504         29.2504
   3332782.797 6                  24696823.984
        37.000
 19  3  7  0 51 25.0000000  0  7G01G17G28G19G11G24G13
   3176221.86747   2408753.10243  23423836.9384                   23423837.8014
        42.2504         22.2504
   2935795.02747   1300346.12146  20766705.4454                   20766701.9574
        46.2504         36.5004
   3153913.36346   2389020.86343  22183430.0474                   22183426.9454
        37.2504         19.0004
   2662369.27047     -6633.85945  20528828.6564                   20528823.5354
        44.2504         34.2504
   3336885.480 6                  24771830.945
        36.000
   2608253.23047    718145.00845  21856442.5704                   21856442.5904
        42.2504         30.5004
   3340097.211 5                  24698215.461
        35.750
 19  3  7  0 51 30.0000000  0  7G01G17G28G19G11G24G13
   3177377.87147   2409653.87143  23424057.5234                   23424057.9064
        43.0004         23.0004
   2928185.72747   1294416.78946  20765257.3594                   20765254.2074
        46.2504         36.5004
   3154128.58646   2389188.53143  22183471.2894                   22183467.9534
        36.5004         18.5004
   2644391.39847    -20642.59045  20525407.4384                   20525402.0514
        44.0004         34.2504
   3344045.219 6                  24773193.523
        36.500
   2588863.50447    703036.15244  21852753.1414                   21852752.8284
        42.5004         29.0004
   3347413.379 5                  24699609.000
        33.750
 19  3  7  0 51 35.0000000  0  7G01G17G28G19G11G24G13
   3178547.65647   2410565.39543  23424280.3054                   23424280.0824
        42.7504         22.5004
   2920588.24647   1288496.67646  20763811.7344                   20763808.4574
        46.2504         36.5004
   3154349.13746   2389360.41443  22183513.5554                   22183510.0904
        37.0004         18.5004
   2626428.14547    -34639.92645  20521989.2114                   20521984.2584
        44.0004         34.0004
   3351211.238 5                  24774556.977
        35.750
   2569487.52347    687937.98045  21849066.3674                   21849065.6804
        43.0004         30.2504
   3354731.102 6                  24701001.086
        36.000
 19  3  7  0 51 40.0000000  0  7G01G17G28G19G11G24G13
   3179731.27347   2411487.69943  23424504.9064                   23424505.6334
        42.5004         22.7504
   2913002.67647   1282585.84846  20762368.3204                   20762365.3794
        46.5004         36.2504
   3154575.13746   2389536.51643  22183555.3984                   22183552.9264
        37.0004         18.2504
   2608479.52747    -48625.85545  20518574.0474                   20518568.4774
        44.0004         33.7504
   3358383.563 5                  24775921.680
        35.500
   2550125.27047    672850.50845  21845381.1174                   21845381.0704
        43.0004         30.0004
   3362050.438 5                  24702393.203
        35.500
 19  3  7  0 51 45.0000000  0  7G01G17G28G19G11G24G13
   3180928.80547   2412420.83243  23424733.1254                   23424733.3914
        42.5004         22.5004
   2905429.05547   1276684.31646  20760926.9454                   20760923.3204
        46.0004         36.5004
   3154806.63346   2389716.91043  22183599.7584                   22183597.1644
        36.0004         18.2504
   2590545.62947    -62600.32845  20515161.1414                   20515155.5784
        43.5004         33.5004
   3365562.215 6                  24777287.539
        36.500
   2530776.71947    657773.73845  21841700.2034                   21841699.3594
        43.2504         30.5004
   3369371.449 5                  24703786.984
        35.000
 19  3  7  0 51 50.0000000  0  7G01G17G28G19G11G24G13
   3182140.12147   2413364.73043  23424963.1954                   23424963.9884
        43.2504         22.5004
   2897867.34047   1270792.07846  20759488.0234                   20759485.0904
        46.7504         36.2504
   3155043.50046   2389901.44943  22183645.0704                   22183642.4494
        37.0004         18.2504
   2572626.38747    -76563.36345  20511751.6334                   20511745.8634
        43.7504         34.0004
   3372747.250 6                  24778655.742
        37.500
   2511442.07047    642707.73845  21838019.7274                   21838020.0204
        42.5004         30.7504
   3376693.969 5                  24705180.891
        34.500
 19  3  7  0 51 55.0000000  0  7G01G17G28G19G11G24G13
   3183365.14547   2414319.28143  23425196.7194                   23425196.8204
        42.5004         22.7504
   2890317.41847   1264909.02346  20758051.1484                   20758048.1644
        46.2504         36.5004
   3155285.71146   2390090.19942  22183691.3524                   22183688.3204
        37.0004         17.2504
   2554721.65247    -90515.10945  20508343.7424                   20508338.7194
        43.7504         33.5004
   3379938.363 6                  24780023.508
        36.250
   2492121.16847    627652.53545  21834344.5704                   21834343.5634
        43.5004         30.7504
   3384017.938 5                  24706571.836
        32.750
 19  3  7  0 52  0.0000000  0  7G01G17G28G19G11G24G13
   3184604.15647   2415284.75843  23425432.1414                   23425432.8524
        42.0004         21.5004
   2882779.58247   1259035.38746  20756617.0234                   20756613.6334
        46.7504         36.0004
   3155533.48046   2390283.25442  22183737.4144                   22183735.6174
        36.5004         17.2504
   2536831.77047   -104455.26645  20504939.3524                   20504934.8364
        44.0004         33.5004
   3387135.980 6                  24781393.914
        36.500
   2472814.23047    612608.12945  21830668.8444                   21830669.4414
        42.7504         30.2504
   3391343.762 6                  24707968.406
        36.750
 19  3  7  0 52  5.0000000  0  7G01G17G28G19G11G24G13
   3185856.67247   2416260.71143  23425670.3444                   23425671.3054
        42.2504         21.5004
   2875253.39847   1253170.82046  20755184.6804                   20755181.7384
        46.5004         36.7504
   3155786.37146   2390480.29743  22183786.7504                   22183783.4184
        36.5004         18.5004
   2518956.27047   -118384.25045  20501537.8834                   20501532.4224
        43.5004         34.2504
   3394339.598 6                  24782764.656
        36.000
   2453520.86347    597574.37145  21826998.9774                   21826998.0634
        43.7504         31.0004
   3398670.742 5                  24709362.367
        34.250
 19  3  7  0 52 10.0000000  0  7G01G17G28G19G11G24G13
   3187122.59046   2417247.16443  23425910.8204                   23425912.3054
        41.5004         21.7504
   2867738.82047   1247315.31346  20753754.8134                   20753751.6174
        46.5004         36.5004
   3156044.35246   2390681.37143  22183836.6334                   22183833.0044
        36.5004         18.2504
   2501095.12947   -132302.00045  20498139.0394                   20498133.9104
        43.5004         33.2504
   3401549.070 6                  24784136.133
        36.000
   2434241.00046    582551.07044  21823329.2114                   21823329.0744
        41.5004         29.0004
   3405998.852 5                  24710756.664
        35.500
 19  3  7  0 52 15.0000000  0  7G01G17G28G19G11G24G13
   3188402.04746   2418244.13343  23426154.4614                   23426156.1684
        41.2504         21.7504
   2860235.86747   1241468.86346  20752326.9534                   20752323.9144
        46.5004         36.0004
   3156307.44946   2390886.31343  22183886.2274                   22183882.6994
        37.5004         18.2504
   2483248.39547   -146208.54745  20494743.3364                   20494737.9844
        44.0004         33.0004
   3408764.551 5                  24785508.883
        35.000
   2414974.68847    567538.39544  21819663.3984                   21819663.0124
        44.0004         29.5004
   3413328.328 5                  24712151.625
        35.000
 19  3  7  0 52 20.0000000  0  7G01G17G28G19G11G24G13
   3189694.71546   2419251.42243  23426401.2424                   23426402.1134
        41.0004         21.7504
   2852744.28547   1235631.26645  20750901.1254                   20750898.3914
        46.0004         35.5004
   3156575.50446   2391095.21943  22183936.4384                   22183934.1024
        36.2504         18.2504
   2465415.83247   -160104.04745  20491349.7584                   20491344.1454
        43.5004         32.5004
   3415985.738 5                  24786883.375
        34.500
   2395721.62146    552535.96544  21815998.8674                   21815999.1994
        41.7504         28.7504
   3420658.723 5                  24713545.789
        34.750
 19  3  7  0 52 25.0000000  0  7G01G17G28G19G11G24G13
   3191000.77346   2420269.12143  23426649.0784                   23426650.2154
        41.0004         21.2504
   2845264.21547   1229802.63345  20749477.8914                   20749475.2584
        46.0004         35.5004
   3156848.57046   2391307.99242  22183989.2034                   22183986.1914
        37.0004         17.2504
   2447597.62147   -173988.35945  20487958.8284                   20487953.8404
        43.5004         32.7504
   3423212.859 5                  24788258.336
        35.250
   2376482.07447    537544.14844  21812338.5314                   21812338.2234
        43.7504         29.2504
   3427990.223 5                  24714941.414
        33.750
 19  3  7  0 52 30.0000000  0  7G01G17G28G19G11G24G13
   3192320.41846   2421297.41443  23426900.1334                   23426901.2704
        41.5004         20.5004
   2837795.83247   1223983.11745  20748056.7734                   20748054.0084
        46.5004         35.5004
   3157126.89546   2391524.87142  22184042.2034                   22184039.1054
        37.2504         17.7504
   2429793.93847   -187861.36345  20484570.7504                   20484566.1334
        44.0004         33.5004
   3430445.980 5                  24789633.641
        35.000
   2357256.13747    522562.87544  21808679.3524                   21808679.6764
        42.5004         29.7504
   3435323.047 5                  24716337.000
        35.750
 19  3  7  0 52 35.0000000  0  7G01G17G28G19G11G24G13
   3193653.39847   2422336.09843  23427153.9844                   23427155.4344
        42.0004         20.2504
   2830338.95347   1218172.57046  20746637.8364                   20746634.6844
        46.2504         36.0004
   3157410.25446   2391745.68442  22184095.8834                   22184092.7544
        37.2504         17.2504
   2412004.57447   -201723.20345  20481186.0784                   20481180.8444
        44.2504         34.0004
   3437684.891 5                  24791012.172
        34.750
   2338043.95347    507592.36344  21805023.8364                   21805023.4654
        43.5004         29.7504
   3442656.992 5                  24717732.477
        33.500
 19  3  7  0 52 40.0000000  0  7G01G17G28G19G11G24G13
   3195000.14846   2423385.53943  23427409.9144                   23427411.4534
        41.7504         20.5004
   2822893.98047   1212371.28945  20745220.8834                   20745218.2974
        46.7504         35.5004
   3157699.04746   2391970.68042  22184150.3914                   22184148.1804
        36.7504         16.7504
   2394229.94947   -215573.54745  20477803.8754                   20477798.3914
        44.7504         33.5004
   3444929.992 6                  24792391.102
        36.500
   2318845.69947    492632.68444  21801370.5474                   21801370.2814
        43.0004         29.5004
   3449992.371 5                  24719127.773
        35.750
 19  3  7  0 52 45.0000000  0  7G01G17G28G19G11G24G13
   3196360.64546   2424445.66443  23427670.0704                   23427670.3444
        40.5004         19.0004
   2815460.94547   1206579.30545  20743806.6024                   20743803.8634
        44.2504         35.5004
   3157993.38745   2392200.07043  22184205.8054                   22184203.9924
        32.0004         18.5004
   2376470.16447   -229412.35945  20474423.6254                   20474418.7854
        43.0004         34.7504
   3452181.367 5                  24793771.180
        33.250
   2299661.33647    477683.80544  21797719.1254                   21797719.3594
        42.0004         29.5004
   3457329.285 5                  24720524.883
        35.250
 19  3  7  0 52 50.0000000  0  7G01G17G28G19G11G24G13
   3197734.41847   2425516.16443  23427931.2114                   23427931.9264
        43.2504         19.7504
   2808039.36747   1200796.28145  20742394.6724                   20742391.4924
        44.2504         31.0004
   3158292.28915                  22184263.047
        33.000
   2358724.62547   -243240.03945  20471047.2344                   20471041.7854
        44.0004         34.0004
   3459438.574 5                  24795151.672
        35.250
   2280490.47347    462745.51645  21794072.7974                   21794071.4774
        43.2504         31.5004
   3464667.262 6                  24721921.898
        36.250
 19  3  7  0 52 55.0000000  0  6G01G17G19G11G24G13
   3199121.43447   2426596.91843  23428195.0944                   23428195.5744
        43.0004         22.5004
   2800629.16847   1195022.09045  20740983.9224                   20740981.2274
        44.2504         32.5004
   2340993.29347   -257056.62545  20467672.7814                   20467667.3524
        44.5004         34.0004
   3466701.344 6                  24796534.109
        36.000
   2261333.01246    447817.59045  21790425.6024                   21790426.0354
        41.5004         30.7504
   3472005.996 5                  24723317.828
        34.750
 19  3  7  0 53  0.0000000  0  6G01G17G19G11G24G13
   3200522.10246   2427688.33243  23428461.7894                   23428461.9804
        40.7504         22.0004
   2793230.90247   1189257.19546  20739576.6024                   20739573.3754
        47.5004         38.2504
   2323276.74647   -270861.76645  20464301.5634                   20464296.1644
        44.5004         34.5004
   3473970.363 5                  24797917.875
        35.500
   2242189.64847    432900.70745  21786783.1724                   21786782.8204
        43.0004         31.2504
   3479346.246 5                  24724715.547
        34.000
 19  3  7  0 53  5.0000000  0  6G01G17G19G11G24G13
   3201936.34446   2428790.35943  23428730.1804                   23428730.7664
        40.2504         21.7504
   2785844.39547   1183501.48844  20738171.0474                   20738167.9574
        43.7504         29.5004
   2305574.76247   -284655.50845  20460932.8204                   20460927.6524
        44.2504         33.7504
   3481245.258 5                  24799302.359
        34.750
   2223059.98447    417994.50044  21783143.5474                   21783142.3524
        42.0004         29.0004
   3486687.836 5                  24726112.000
        35.750
 19  3  7  0 53 10.0000000  0  6G01G17G19G11G24G13
   3203363.57846   2429902.46143  23429001.4064                   23429002.6994
        41.0004         21.0004
   2778469.06347   1177754.46545  20736767.5164                   20736764.2344
        46.2504         35.5004
   2287886.88347   -298438.26245  20457567.1484                   20457561.6684
        44.5004         33.5004
   3488525.676 5                  24800686.859
        35.000
   2203943.80147    403098.70344  21779504.9614                   21779504.5514
        42.5004         29.7504
   3494030.016 5                  24727508.289
        33.500
 19  3  7  0 53 15.0000000  0  6G01G17G19G11G24G13
   3204805.17246   2431025.82843  23429275.4534                   23429276.9884
        41.2504         19.5004
   2771106.30147   1172017.25045  20735366.3444                   20735363.0984
        45.7504         34.5004
   2270214.41447   -312209.02745  20454204.4694                   20454198.5824
        44.7504         33.5004
   3495812.94915                  24802073.297
        34.500
   2184842.10947    388214.34445  21775871.1564                   21775869.8714
        43.0004         30.5004
   3501374.352 5                  24728906.211
        34.250
 19  3  7  0 53 20.0000000  0  7G01G17G28G19G11G24G13
   3206260.71947   2432159.99243  23429552.9144                   23429554.1914
        42.5004         18.5004
   2763755.73447   1166289.55145  20733967.4454                   20733964.3594
        46.5004         33.2504
   3151366.42216                  22184625.555
        37.750
   2252557.02347   -325968.04345  20450843.9534                   20450838.6524
        46.2504         34.7504
   3503106.715 5                  24803460.398
        34.000
   2165754.77047    373341.07045  21772237.5554                   21772237.5004
        43.7504         30.7504
   3508720.324 5                  24730305.305
        35.250
 19  3  7  0 53 25.0000000  0  7G01G17G28G19G11G24G13
   3207729.91847   2433304.83243  23429833.4144                   23429833.5704
        42.0004         19.5004
   2756416.96947   1160571.03545  20732571.3594                   20732567.2934
        47.2504         33.5004
   3151703.266 5                  22184690.383
        35.500
   2234914.37547   -339715.53945  20447487.1334                   20447480.9924
        44.0004         34.0004
   3510406.434 5                  24804850.203
        35.250
   2146681.35247    358478.65645  21768609.1024                   21768607.8794
        43.7504         30.0004
                                  24731702.406
        31.750
 19  3  7  0 53 30.0000000  0  6G01G17G19G11G24G13
   3209213.03146   2434460.54343  23430115.3054                   23430115.4024
        41.0004         18.5004
   2749090.45747   1154862.06345  20731176.4614                   20731173.2584
        44.5004         32.5004
   2217286.89847   -353451.24245  20444132.4064                   20444126.6254
        44.0004         34.0004
   3517712.742 5                  24806240.508
        35.000
   2127622.30147    343627.46144  21764981.4064                   21764981.2384
        42.5004         29.7504
                                  24733100.211
        35.750
 19  3  7  0 53 35.0000000  0  6G01G17G19G11G24G13
   3210710.05946   2435627.03543  23430400.1334                   23430400.2114
        41.5004         20.0004
   2741775.93447   1149162.43846  20729784.7344                   20729781.6524
        45.7504         36.5004
   2199674.32447   -367175.33645  20440781.2664                   20440775.1804
        43.0004         33.7504
   3525025.281 5                  24807632.711
        35.250
   2108577.55547    328787.38744  21761357.3914                   21761357.0634
        43.0004         29.5004
   3530767.168 5                  24734499.367
        34.000
 19  3  7  0 53 40.0000000  0  6G01G17G19G11G24G13
   3212220.37546   2436803.90243  23430687.0634                   23430687.5984
        41.2504         21.5004
   2734473.00047   1143471.84046  20728395.2664                   20728391.6094
        46.0004         36.0004
   2182076.25447   -380888.10545  20437431.7894                   20437426.1844
        43.0004         33.5004
   3532343.547 5                  24809025.602
        35.250
   2089546.48047    313957.98844  21757736.1804                   21757735.6604
        42.0004         29.2504
   3538118.738 5                  24735898.313
        33.250
 19  3  7  0 53 45.0000000  0  7G01G17G28G19G11G24G13
   3213743.52046   2437990.77743  23430977.0944                   23430977.4224
        41.5004         21.7504
   2727181.11747   1137789.84845  20727007.5164                   20727004.0904
        45.7504         35.5004
                                  22184955.445
        41.500
   2164492.19947   -394589.96545  20434085.9614                   20434080.1684
        43.0004         34.0004
   3539667.191 6                  24810419.547
        36.000
   2070528.74647    299138.96544  21754117.0394                   21754116.6914
        42.2504         28.5004
   3545470.895 5                  24737297.531
        34.000
 19  3  7  0 53 50.0000000  0  7G01G17G28G19G11G24G13
   3215279.71946   2439187.82043  23431269.3444                   23431269.6724
        41.5004         22.0004
   2719900.55547   1132116.68445  20725622.3284                   20725618.9494
        46.0004         35.7504
   3151318.535 6                  22185025.891
        41.000
   2146922.39147   -408280.72745  20430742.4774                   20430736.5204
        44.0004         34.0004
   3546996.289 6                  24811814.508
        36.500
   2051524.58247    284330.53944  21750500.8054                   21750500.4304
        42.2504         28.5004
   3552823.738 5                  24738696.891
        32.750
 19  3  7  0 53 55.0000000  0  7G01G17G28G19G11G24G13
   3216828.74646   2440394.85243  23431563.7114                   23431564.5394
        41.5004         21.5004
   2712631.10547   1126452.18045  20724239.0634                   20724235.6454
        46.0004         35.5004
   3151686.19546   2392638.73054  22185096.0234                   22185091.9454
        41.2504         25.7504
   2129366.62547   -421960.54345  20427401.8594                   20427395.8484
        43.5004         34.0004
   3554330.699 6                  24813209.813
        36.250
   2032533.75046    269532.47344  21746886.8984                   21746886.5274
        41.7504         29.0004
                                  24740097.328
        33.000
 19  3  7  0 54  0.0000000  0  7G01G17G28G19G11G24G13
   3218390.89547   2441612.10543  23431861.5704                   23431861.9414
        42.0004         21.5004
   2705373.05947   1120796.56345  20722857.5864                   20722854.2274
        46.2504         35.5004
   3152058.82846   2392929.10944  22185167.2424                   22185163.2704
        40.5004         26.0004
   2111825.22747   -435629.16045  20424063.7274                   20424057.8834
        44.2504         34.0004
   3561670.656 5                  24814605.055
        35.250
   2013556.52047    254745.04744  21743276.1414                   21743274.9414
        42.7504         29.5004
   3567531.371 5                  24741495.898
        33.500
 19  3  7  0 54  5.0000000  0  7G01G17G28G19G11G24G13
   3219965.85246   2442839.35943  23432161.3594                   23432161.0944
        41.2504         21.5004
   2698126.07447   1115149.55945  20721478.7734                   20721475.2934
        45.5004         35.5004
   3152436.11346   2393223.11344  22185238.8364                   22185235.1644
        41.0004         25.7504
   2094297.84047   -449286.86345  20420728.3364                   20420722.8244
        44.0004         33.5004
   3569015.910 5                  24816003.586
        35.250
   1994592.52347    239967.88744  21739666.9774                   21739666.5634
        42.0004         29.5004
   3574886.066 5                  24742896.008
        33.500
 19  3  7  0 54 10.0000000  0  7G01G17G28G19G11G24G13
   3221554.14146   2444076.97343  23432463.2344                   23432463.4184
        41.7504         21.5004
   2690890.69147   1109511.60245  20720101.7814                   20720098.3324
        46.0004         35.5004
   3152818.55546   2393521.12144  22185311.4224                   22185307.6094
        40.7504         25.0004
   2076785.03547   -462933.20745  20417396.0474                   20417390.2234
        43.5004         34.0004
   3576366.918 5                  24817403.133
        35.000
   1975642.48847    225201.64544  21736061.6024                   21736060.3164
        43.0004         29.7504
   3582241.816 5                  24744294.422
        33.500
 19  3  7  0 54 15.0000000  0  7G01G17G28G19G11G24G13
   3223155.67646   2445324.92643  23432768.1484                   23432768.2504
        41.5004         22.0004
   2683666.91447   1103882.68045  20718727.3524                   20718723.7584
        45.7504         35.5004
   3153206.16846   2393823.16044  22185385.8674                   22185381.1724
        40.5004         24.5004
   2059286.78947   -476568.20345  20414066.0234                   20414060.2584
        44.0004         34.0004
   3583723.668 5                  24818803.398
        32.750
   1956706.30147    210446.15644  21732457.7734                   21732457.3484
        42.2504         29.7504
   3589598.520 5                  24745696.000
        33.500
 19  3  7  0 54 20.0000000  0  7G01G17G28G19G11G24G13
   3224770.48446   2446583.23043  23433075.4224                   23433075.8094
        41.2504         22.0004
   2676454.64547   1098262.72745  20717355.0004                   20717351.0634
        46.0004         35.5004
   3153598.86346   2394129.15244  22185460.5314                   22185456.2304
        40.7504         25.0004
   2041803.04347   -490191.89845  20410738.9614                   20410733.4224
        44.5004         33.7504
   3591086.125 5                  24820203.836
        33.250
   1937783.83247    195701.38344  21728857.4144                   21728855.9884
        42.7504         29.0004
   3596956.148 5                  24747094.141
        32.000
 19  3  7  0 54 25.0000000  0  7G01G17G28G19G11G24G13
   3226398.47346   2447851.78543  23433385.6174                   23433385.2854
        41.0004         22.5004
   2669253.86747   1092651.73445  20715984.5004                   20715980.7234
        45.7504         35.5004
   3153996.74646   2394439.19144  22185536.0704                   22185532.1214
        40.2504         25.5004
   2024333.85947   -503804.25045  20407414.9224                   20407408.9414
        44.5004         33.5004
   3598454.188 5                  24821605.883
        32.500
   1918875.15247    180967.35944  21725259.3054                   21725257.9534
        42.5004         29.5004
   3604314.648 5                  24748495.438
        33.750
 19  3  7  0 54 30.0000000  0  7G01G17G28G19G11G24G13
   3228039.50846   2449130.52343  23433697.4694                   23433697.7034
        41.2504         22.2504
   2662064.39847   1087049.55145  20714616.4774                   20714612.8754
        46.0004         35.0004
   3154399.57846   2394753.07044  22185613.4304                   22185608.5784
        40.5004         26.5004
   2006879.02747   -517405.41445  20404093.0784                   20404087.4024
        44.5004         34.0004
   3605827.777 5                  24823007.094
        31.750
   1899980.24647    166244.03144  21721662.1564                   21721662.2734
        42.0004         29.0004
   3611673.840 5                  24749895.570
        32.500
 19  3  7  0 54 35.0000000  0  7G01G17G28G19G11G24G13
   3229693.57447   2450419.39543  23434012.2274                   23434012.2424
        42.0004         22.7504
   2654886.51247   1081456.39545  20713250.3134                   20713246.8094
        46.0004         35.5004
   3154807.55546   2395070.97744  22185690.2584                   22185686.1954
        40.5004         25.5004
   1989438.77747   -530995.21945  20400774.0554                   20400768.4414
        44.5004         34.0004
   3613207.027 5                  24824412.344
        30.250
   1881099.20747    151531.57844  21718070.8674                   21718069.5314
        43.5004         29.2504
   3619034.059 5                  24751296.367
        32.750
 19  3  7  0 54 40.0000000  0  7G01G17G28G19G11G24G13
   3231361.00047   2451718.69143  23434329.8054                   23434329.9414
        42.2504         22.5004
   2647720.06647   1075872.15245  20711886.5864                   20711883.0864
        45.7504         35.2504
   3155220.49646   2395392.74644  22185769.0004                   22185764.5984
        40.7504         25.7504
   1972013.01247   -544573.73845  20397458.3834                   20397452.5904
        43.7504         34.0004
   3620591.852 5                  24825816.688
        30.250
   1862232.22747    136830.00044  21714479.3674                   21714478.8014
        42.2504         29.5004
   3626394.992 5                  24752695.945
        33.500
 19  3  7  0 54 45.0000000  0  7G01G17G28G19G11G24G13
   3233041.17246   2453027.93043  23434649.3054                   23434649.5634
        41.7504         22.5004
   2640564.71947   1070296.56345  20710525.2894                   20710521.2504
        45.7504         35.2504
   3155638.25846   2395718.27744  22185848.1484                   22185844.4344
        41.0004         26.0004
   1954601.39547   -558141.22745  20394144.9144                   20394139.3404
        44.2504         33.5004
   3627982.031 4                  24827222.719
        28.750
   1843378.43847    122138.76245  21710892.5944                   21710890.9534
        43.5004         30.0004
   3633756.449 5                  24754097.258
        34.500
 19  3  7  0 54 50.0000000  0  7G01G17G28G19G11G24G13
   3234734.98047   2454347.76643  23434971.8524                   23434971.7464
        42.0004         21.5004
   2633421.34047   1064730.28545  20709165.9384                   20709162.2114
        45.7504         35.0004
   3156061.56346   2396048.12144  22185928.9844                   22185924.4344
        41.2504         25.0004
   1937204.73847   -571697.06645  20390834.7814                   20390828.6804
        44.5004         33.2504
   3635378.273 4                  24828630.461
        27.500
   1824538.92647    107458.60545  21707306.9774                   21707306.2194
        42.0004         30.2504
   3641119.121 5                  24755497.891
        34.000
 19  3  7  0 54 55.0000000  0  7G01G17G28G19G11G24G13
   3236442.69547   2455678.44943  23435296.5084                   23435296.4344
        42.0004         20.7504
   2626290.18047   1059173.53945  20707808.8204                   20707805.3284
        45.7504         35.5004
   3156490.71946   2396382.51644  22186011.0554                   22186006.1884
        40.5004         24.5004
   1919823.35947   -585240.99645  20387526.9304                   20387521.0664
        44.7504         33.2504
   3642780.77014                  24830039.672
        26.250
   1805714.08647     92789.89545  21703724.4844                   21703723.4884
        42.7504         30.0004
   3648483.375 5                  24756900.336
        34.250
 19  3  7  0 55  0.0000000  0  6G01G17G28G19G24G13
   3238164.23446   2457019.91443  23435623.5944                   23435624.3054
        41.7504         21.7504
   2619171.20747   1053626.28545  20706454.1334                   20706450.4654
        46.0004         35.5004
   3156925.66846   2396721.44544  22186093.5084                   22186089.1214
        40.5004         25.0004
   1902457.22747   -598773.04345  20384222.5944                   20384216.2034
        44.5004         33.0004
   1786903.85547     78132.58244  21700145.1804                   21700144.4614
        42.5004         29.5004
   3655849.191 5                  24758302.414
        33.000
 19  3  7  0 55  5.0000000  0  6G01G17G28G19G24G13
   3239899.57846   2458372.12943  23435954.7194                   23435954.6684
        41.5004         20.7504
   2612064.43447   1048088.54345  20705101.4614                   20705098.3364
        45.5004         35.5004
   3157366.39846   2397064.87544  22186177.3834                   22186173.1484
        40.7504         24.0004
   1885106.28147   -612293.26245  20380920.5394                   20380914.6214
        44.0004         33.5004
   1768108.28547     63486.68845  21696568.6094                   21696567.4734
        42.7504         30.0004
   3663216.543 5                  24759704.289
        33.500
 19  3  7  0 55 10.0000000  0  6G01G17G28G19G24G13
   3241648.58647   2459734.98843  23436287.6254                   23436286.8914
        42.0004         22.0004
   2604969.70347   1042560.18445  20703751.8364                   20703747.9774
        46.2504         35.5004
   3157812.29746   2397412.33643  22186261.5634                   22186257.5474
        40.5004         22.7504
   1867770.63747   -625801.55545  20377621.7664                   20377615.7304
        44.5004         33.2504
   1749328.04347     48852.72744  21692995.0314                   21692993.6294
        43.2504         29.5004
   3670585.359 5                  24761106.859
        32.250
 19  3  7  0 55 15.0000000  0  6G01G17G28G19G24G13
   3243410.18847   2461107.68043  23436622.5944                   23436622.4844
        42.2504         22.7504
   2597885.78947   1037040.24645  20702403.8284                   20702400.0634
        45.5004         34.5004
   3158262.51246   2397763.14543  22186348.0944                   22186343.9694
        40.0004         22.5004
   1850448.85547   -639299.03945  20374325.6564                   20374319.7624
        44.2504         33.5004
   1730561.24247     34229.23445  21689423.9924                   21689422.7544
        43.0004         30.5004
   3677954.234 5                  24762507.945
        31.750
 19  3  7  0 55 20.0000000  0  6G01G17G28G19G24G13
   3245183.19147   2462489.24644  23436959.9454                   23436959.7624
        42.0004         24.0004
   2590811.72347   1031527.99645  20701057.3444                   20701053.5164
        45.5004         34.2504
   3158716.86746   2398117.19943  22186433.9614                   22186430.5084
        40.5004         22.7504
   1833139.90647   -652786.52345  20371031.6954                   20371025.8754
        43.5004         33.2504
   1711805.55547     19614.42645  21685854.8444                   21685853.9734
        42.7504         30.2504
   3685322.160 5                  24763909.766
        30.500
 19  3  7  0 55 25.0000000  0  6G01G17G28G19G24G13
   3246972.39546   2463883.43443  23437300.7734                   23437300.1914
        41.2504         22.5004
   2583752.20347   1026027.07445  20699714.0084                   20699710.5394
        45.7504         35.0004
   3159179.43046   2398477.64143  22186522.6174                   22186518.5704
        40.2504         22.7504
   1815848.64847   -666260.23445  20367741.0864                   20367735.7814
        43.7504         33.0004
   1693067.00447      5012.94145  21682288.2814                   21682288.0084
        43.0004         30.5004
   3692693.949 4                  24765312.594
        29.500
 19  3  7  0 55 30.0000000  0  6G01G17G28G19G24G13
   3248779.81347   2465291.80544  23437645.0704                   23437644.5744
        42.0004         24.0004
   2576709.29747   1020539.09045  20698374.3754                   20698370.2974
        45.7504         35.0004
   3159652.28946   2398846.09444  22186612.7344                   22186608.6094
        40.5004         24.0004
   1798577.07847   -679718.59445  20364454.7504                   20364449.3094
        43.7504         33.5004
   1674347.49647     -9573.65244  21678727.1564                   21678725.9184
        44.0004         29.7504
   3700071.594 4                  24766714.219
        27.250
 19  3  7  0 55 35.0000000  0  6G01G17G28G19G24G13
   3250605.39147   2466714.31643  23437991.9844                   23437992.1564
        42.2504         22.7504
   2569682.83247   1015063.92645  20697036.9454                   20697033.3794
        45.5004         34.5004
   3160135.01246   2399222.25043  22186704.5944                   22186700.6214
        40.2504         22.5004
   1781325.09047   -693161.70345  20361171.5314                   20361165.9884
        44.2504         32.5004
   1655647.47746    -24145.14144  21675167.9534                   21675167.3364
        41.7504         29.5004
   3707455.039 5                  24768121.367
        31.750
 19  3  7  0 55 40.0000000  0  6G01G17G28G19G24G13
   3252448.30546   2468150.37143  23438342.5704                   23438342.4304
        41.7504         22.7504
   2562672.24247   1009601.12945  20695702.5554                   20695699.1564
        45.7504         35.0004
   3160627.50046   2399606.02343  22186796.7424                   22186793.8094
        39.7504         22.2504
   1764092.07447   -706590.02345  20357892.1644                   20357886.6524
        44.5004         33.2504
   1636965.41847    -38702.57044  21671613.0864                   21671612.0084
        43.5004         28.7504
   3714843.547 5                  24769526.922
        31.250
 19  3  7  0 55 45.0000000  0  6G01G17G28G19G24G13
   3254307.99646   2469599.46143  23438696.9694                   23438696.6374
        41.7504         22.5004
   2555676.62147   1004150.00445  20694371.3984                   20694367.8524
        45.7504         35.0004
   3161128.05946   2399996.05143  22186892.6024                   22186889.3794
        39.0004         22.7504
   1746877.27047   -720004.15645  20354616.4144                   20354610.0594
        44.5004         33.5004
   1618301.82447    -53245.62145  21668062.2664                   21668061.1804
        44.2504         30.5004
   3722236.363 4                  24770933.664
        29.250
 19  3  7  0 55 50.0000000  0  6G01G17G28G19G24G13
   3256183.82847   2471061.14843  23439053.3754                   23439053.5274
        42.0004         22.0004
   2548695.65247    998710.27345  20693043.4384                   20693039.5634
        45.5004         35.2504
   3161637.28546   2400392.85944  22186990.8364                   22186986.3524
        40.2504         24.2504
   1729680.21547   -733404.45745  20351344.3134                   20351338.2464
        44.5004         33.5004
   1599654.65647    -67775.87945  21664512.9534                   21664512.5314
        42.7504         30.7504
   3729633.074 4                  24772340.891
        29.500
 19  3  7  0 55 55.0000000  0  6G01G17G28G19G24G13
   3258075.33646   2472535.05943  23439413.6954                   23439413.4804
        41.7504         22.7504
   2541728.82047    993281.57845  20691717.6024                   20691713.6994
        45.5004         35.2504
   3162154.55946   2400795.92643  22187089.0704                   22187084.0984
        40.5004         23.2504
   1712500.43847   -746791.28945  20348074.2504                   20348069.1914
        44.0004         34.0004
   1581023.93847    -82293.32445  21660968.0314                   21660966.9654
        43.7504         30.7504
   3737033.094 5                  24773748.680
        31.250
 19  3  7  0 56  0.0000000  0  5G01G17G28G19G24
   3259982.69947   2474021.31644  23439777.2194                   23439776.5554
        42.2504         24.7504
   2534775.46147    987863.37545  20690394.4304                   20690391.0004
        45.7504         35.5004
   3162675.55146   2401201.87144  22187188.0234                   22187183.4304
        39.7504         25.7504
   1695337.57847   -760164.95345  20344808.9924                   20344803.0204
        45.0004         33.7504
   1562415.01647    -96793.79744  21657426.5554                   21657426.0784
        43.5004         29.2504
 19  3  7  0 56  5.0000000  0  6G01G17G28G19G24G13
   3261907.23446   2475520.94944  23440143.3834                   23440142.7194
        41.7504         25.0004
   2527832.89547    982453.57046  20689072.9304                   20689069.9804
        46.2504         36.5004
   3163194.71546   2401606.39844  22187286.9614                   22187283.2894
        40.5004         26.0004
   1678188.12547   -773528.17245  20341545.4924                   20341540.0164
        45.5004         34.7504
   1543831.52747   -111274.44945  21653890.1804                   21653890.1374
        43.2504         30.7504
                                  24776567.234
        29.500
 19  3  7  0 56 10.0000000  0  5G01G17G28G19G24
   3263851.56657   2477036.25453  23440512.3594                   23440512.5434
        42.0004         22.5004
   2520908.25857    977057.74655  20687754.8204                   20687751.7894
        46.5004         35.7504
   3163723.30156   2402018.28953  22187387.1094                   22187383.6604
        40.5004         23.7504
   1661060.75047   -786874.19145  20338285.9384                   20338280.5434
        44.2504         34.0004
   1525272.97357   -125735.40254  21650358.4844                   21650358.7734
        42.0004         29.7504
 19  3  7  0 56 15.0000000  0  6G01G17G28G19G24G13
   3265805.31347   2478558.61744  23440883.6334                   23440884.6764
        42.5004         25.7504
   2513995.11348    971670.87946  20686439.5394                   20686437.7814
        48.0004         37.2504
   3164255.63747   2402433.08644  22187488.1414                   22187485.1994
        42.0004         28.2504
   1643949.86747   -800207.34845  20335029.7344                   20335025.4494
        45.0004         35.0004
   1506729.50847   -140184.87144  21646829.4774                   21646830.0394
        42.0004         29.5004
   3766660.61715                  24779388.031
        30.250
 19  3  7  0 56 20.0000000  0  6G01G17G28G19G24G13
   3267770.27046   2480089.76244  23441257.2814                   23441259.0354
        41.5004         25.2504
   2507091.75047    966291.61345  20685125.0394                   20685123.4184
        47.0004         35.5004
   3164792.44146   2402851.35944  22187589.7734                   22187587.0004
        41.5004         26.2504
   1626851.52347   -813530.73845  20331775.3914                   20331771.3524
        44.0004         33.0004
   1488196.10547   -154626.50444  21643301.9774                   21643302.9694
        42.2504         28.7504
                                  24780797.406
        26.250
 19  3  7  0 56 25.0000000  0  5G01G17G28G19G24
   3269749.09647   2481631.69844  23441633.6724                   23441635.2734
        42.7504         24.0004
   2500199.13747    960920.75746  20683813.7814                   20683812.2074
        47.7504         36.2504
   3165330.60947   2403270.72844  22187692.1724                   22187689.7544
        42.0004         25.5004
   1609767.64547   -826842.84445  20328524.7194                   20328520.1334
        44.0004         33.5004
   1469682.37546   -169052.77644  21639779.0554                   21639780.4494
        41.5004         28.7504
 19  3  7  0 56 30.0000000  0  6G01G17G28G19G24G13
   3271746.71547   2483188.31343  23442014.4844                   23442015.5234
        42.0004         23.7504
   2493323.22347    955562.93446  20682505.4064                   20682504.0274
        47.5004         36.0004
   3165880.71946   2403699.41044  22187796.8984                   22187795.3554
        40.5004         27.7504
   1592702.54747   -840140.28945  20325277.4614                   20325273.2624
        45.0004         33.5004
   1451184.57447   -183466.62544  21636259.1334                   21636260.6054
        42.2504         29.5004
                                  24783619.172
        25.250
 19  3  7  0 56 35.0000000  0  5G01G17G28G19G24
   3273759.41047   2484756.61344  23442397.6254                   23442398.9924
        42.5004         24.2504
   2486461.78547    950216.33645  20681200.0784                   20681198.9264
        47.5004         35.5004
   3166439.53146   2404134.81344  22187904.0634                   22187901.5784
        41.2504         25.7504
   1575656.05147   -853423.30545  20322033.9844                   20322030.3244
        45.7504         33.5004
   1432703.91047   -197867.16844  21632742.6644                   21632744.2774
        43.5004         29.7504
 19  3  7  0 56 40.0000000  0  5G01G17G28G19G24
   3275787.05146   2486336.57843  23442784.3284                   23442785.6094
        41.0004         22.5004
   2479614.46547    944880.74645  20679896.7814                   20679895.7384
        45.7504         34.7504
   3167004.00846   2404574.65244  22188012.0164                   22188009.3054
        39.2504         24.5004
   1558627.50847   -866692.32445  20318793.4924                   20318789.8674
        43.0004         32.2504
   1414242.83646   -212252.42244  21629229.5314                   21629230.6914
        41.0004         27.7504
 19  3  7  0 56 45.0000000  0  5G01G17G28G19G24
   3277835.61747   2487932.90243  23443172.4534                   23443175.3324
        43.2504         22.2504
   2472786.45347    939560.24245  20678597.6334                   20678596.0824
        47.5004         35.7504
   3167581.31646   2405024.53144  22188120.7584                   22188119.3134
        41.0004         26.5004
   1541621.29347   -879943.89145  20315557.0394                   20315553.1214
        44.5004         33.2504
   1395803.84847   -226620.43744  21625721.5314                   21625721.9344
        43.5004         29.5004
 19  3  7  0 56 50.0000000  0  5G01G17G28G19G24
   3279902.81647   2489543.70343  23443566.8754                   23443568.9414
        42.0004         22.5004
   2465975.61648    934253.11445  20677302.0164                   20677300.4304
        48.0004         35.7504
   3168171.38747   2405484.34444  22188233.5314                   22188231.0354
        42.0004         26.0004
   1524635.14247   -893179.83445  20312325.1174                   20312321.2854
        45.2504         34.0004
   1377381.52047   -240975.48144  21622216.6644                   21622216.8164
        43.7504         29.7504
 19  3  7  0 56 55.0000000  0  5G01G17G28G19G24
   3281983.00847   2491164.57843  23443963.0004                   23443964.6524
        42.2504         21.5004
   2459177.01647    928955.45745  20676008.0084                   20676006.9494
        47.7504         34.7504
   3168767.46946   2405948.78143  22188347.3364                   22188345.5004
        41.5004         22.7504
   1507664.98847   -906403.37145  20309095.3284                   20309091.4654
        45.2504         32.7504
   1358974.16047   -255318.92644  21618713.0234                   21618714.2974
        44.0004         28.5004
 19  3  7  0 57  0.0000000  0  5G01G17G28G19G24
   3284075.90246   2492795.44143  23444360.1484                   23444362.6374
        40.7504         22.0004
   2452388.91847    923666.05945  20674716.1174                   20674714.1524
        46.5004         34.7504
   3169367.57846   2406416.42643  22188460.1724                   22188458.9024
        40.0004         22.5004
   1490708.14547   -919616.46145  20305868.1954                   20305864.3674
        44.5004         32.0004
   1340580.02347   -269651.98844  21615212.6804                   21615213.2274
        43.5004         28.5004
 19  3  7  0 57  5.0000000  0  5G01G17G28G19G24
   3286177.94547   2494433.34843  23444760.9064                   23444762.8284
        42.7504         21.7504
   2445609.47747    918383.35945  20673426.5554                   20673423.8794
        47.5004         34.2504
   3169969.16446   2406885.17643  22188575.9694                   22188573.5554
        41.2504         22.5004
   1473764.06647   -932819.65245  20302645.1564                   20302639.3054
        45.5004         31.7504
   1322198.55547   -283975.23044  21611715.0784                   21611715.1214
        43.7504         29.5004
 19  3  7  0 57 10.0000000  0  5G01G17G28G19G24
   3288292.91047   2496081.43843  23445164.0634                   23445165.1254
        44.5004         22.0004
   2438839.67648    913108.22345  20672138.6804                   20672136.2304
        48.5004         35.5004
   3170574.31347   2407356.75044  22188691.3444                   22188687.9144
        42.0004         25.2504
   1456831.96947   -946013.46545  20299423.3674                   20299418.1524
        46.0004         33.5004
   1303829.56647   -298288.71944  21608220.4534                   21608219.9844
        43.7504         29.0004
 19  3  7  0 57 15.0000000  0  5G01G17G28G19G24
   3290420.94146   2497739.63343  23445568.5474                   23445569.9884
        40.2504         21.7504
   2432080.64547    907841.43045  20670851.9384                   20670850.1334
        47.7504         34.5004
   3171185.59446   2407833.06643  22188807.3444                   22188804.7194
        41.5004         22.5004
   1439913.38747   -959196.78945  20296203.3914                   20296198.4884
        46.2504         33.7504
   1285471.75147   -312593.49944  21604726.6954                   21604726.7344
        44.0004         29.7504
 19  3  7  0 57 20.0000000  0  6G01G17G28G19G24G13
   3292565.20746   2499410.51643  23445976.7034                   23445978.1024
        40.0004         20.7504
   2425337.22748    902586.83245  20669568.8914                   20669566.6914
        48.0004         34.5004
   3171808.14547   2408318.17643  22188925.9384                   22188923.0824
        42.0004         22.5004
   1423013.15647   -972365.80545  20292987.1094                   20292982.4304
        46.5004         34.0004
   1267128.09847   -326887.25045  21601235.2814                   21601235.8484
        44.0004         30.7504
   3160644.26615                  24797770.625
        33.500
 19  3  7  0 57 25.0000000  0  6G01G17G28G19G24G13
   3294728.01247   2501095.78943  23446387.8834                   23446389.6994
        43.0004         20.7504
   2418612.66448    897346.89146  20668289.2504                   20668287.3554
        48.0004         36.0004
   3172449.40646   2408817.85244  22189047.7584                   22189044.6764
        41.7504         25.2504
   1406134.24247   -985518.20745  20289775.3284                   20289770.3834
        45.2504         34.2504
   1248795.42247   -341172.47345  21597746.8524                   21597747.4304
        43.7504         30.0004
   3168091.160 5                  24799188.156
        31.250
 19  3  7  0 57 30.0000000  0  6G01G17G28G19G24G13
   3296896.73047   2502785.69943  23446801.2894                   23446802.5314
        43.5004         21.7504
   2411891.53948    892109.66045  20667010.1564                   20667008.2234
        48.5004         35.5004
   3173082.08647   2409310.84444  22189168.4224                   22189165.6524
        43.5004         25.0004
   1389263.17647   -998664.48045  20286564.7114                   20286560.1134
        45.5004         33.0004
   1230478.86347   -355445.10944  21594261.5084                   21594261.6914
        42.5004         27.7504
                                  24800604.758
        28.250
 19  3  7  0 57 35.0000000  0  6G01G17G28G19G24G13
   3299067.60946   2504477.28543  23447212.1564                   23447215.5204
        39.5004         22.5004
   2405172.48047    886874.00445  20665728.9844                   20665729.3914
        45.7504         34.5004
   3173710.07446   2409800.16844  22189285.4774                   22189285.1884
        40.2504         24.0004
   1372398.42247  -1011805.87145  20283353.1254                   20283351.0784
        43.2504         32.7504
   1212167.88746   -369713.41044  21590774.6724                   21590777.3714
        41.5004         28.0004
                                  24802018.188
        25.250
 19  3  7  0 57 40.0000000  0  5G01G17G28G19G24
   3301252.19547   2506179.54743  23447629.5704                   23447631.7344
        42.2504         22.5004
   2398465.35948    881647.69146  20664455.4454                   20664453.5004
        48.0004         36.2504
   3174343.68446   2410293.90244  22189407.9304                   22189406.1844
        41.7504         24.2504
   1355548.66447  -1024935.53545  20280149.5864                   20280144.9414
        45.2504         34.0004
   1193871.57447   -383970.27044  21587294.7664                   21587295.6484
        43.0004         29.7504
 19  3  7  0 57 45.0000000  0  5G01G17G28G19G24
   3303450.32447   2507892.38743  23448047.7734                   23448049.5784
        43.0004         22.7504
   2391768.15247    876429.09445  20663180.3524                   20663178.6334
        47.5004         33.5004
   3174980.34847   2410790.00043  22189529.2814                   22189526.8834
        42.0004         22.5004
   1338711.66847  -1038055.24645  20276944.7584                   20276940.3594
        44.7504         31.5004
   1175590.13347   -398215.53944  21583815.4694                   21583816.3204
        43.2504         28.5004
 19  3  7  0 57 50.0000000  0  5G01G17G28G19G24
   3305662.03146   2509615.77744  23448469.2974                   23448470.1294
        41.2504         24.0004
   2385082.78947    871219.73045  20661908.9454                   20661906.6414
        47.7504         34.2504
   3175622.92647   2411290.71544  22189651.8134                   22189648.4574
        42.2504         24.5004
   1321889.18847  -1051163.69545  20273743.7664                   20273738.5004
        44.7504         31.5004
   1157322.08247   -412450.40244  21580340.3444                   21580340.4654
        43.0004         28.2504
 19  3  7  0 57 55.0000000  0  5G01G17G28G19G24
   3307888.29747   2511350.58643  23448891.9774                   23448894.2234
        42.0004         21.5004
   2378410.06347    866020.23445  20660638.1174                   20660638.4574
        47.0004         33.0004
   3176271.70746   2411796.29743  22189774.8204                   22189772.9534
        41.2504         22.5004
   1305082.54747  -1064259.72745  20270545.1644                   20270542.6054
        44.5004         31.7504
   1139069.94547   -426672.77744  21576865.7584                   21576868.4654
        42.0004         27.5004
 19  3  7  0 58  0.0000000  0  6G01G17G28G19G24G13
   3310135.10546   2513101.30143  23449319.4774                   23449321.7384
        39.7504         20.7504
   2371755.20347    860834.59045  20659372.5004                   20659371.8284
        47.2504         33.7504
   3176933.42246   2412311.87543  22189900.8834                   22189899.3714
        40.7504         22.2504
   1288296.15647  -1077340.06645  20267351.5474                   20267348.1524
        45.5004         33.0004
   1120836.55947   -440880.68744  21573396.4144                   21573398.1804
        43.0004         29.0004
                                  24809090.992
        31.000
 19  3  7  0 58  5.0000000  0  6G01G17G28G19G24G13
   3312396.23846   2514863.20743  23449750.2974                   23449752.1524
        41.5004         19.7504
   2365114.48447    855659.95345  20658108.7664                   20658108.1724
        47.0004         33.0004
   3177605.71946   2412835.69143  22190028.8754                   22190027.0274
        41.2504         22.2504
   1271527.00447  -1090406.99645  20264160.3444                   20264156.5864
        45.5004         32.5004
   1102615.20747   -455079.17644  21569929.8594                   21569930.8324
        43.0004         27.0004
   3170185.63714                  24810507.070
        29.500
 19  3  7  0 58 10.0000000  0  6G01G17G28G19G24G13
   3314667.18047   2516632.80143  23450182.1724                   23450184.9224
        42.7504         21.0004
   2358482.28148    850492.06345  20656846.8054                   20656846.1564
        48.0004         35.0004
   3178277.81647   2413359.46944  22190156.5634                   22190155.0824
        42.5004         25.5004
   1254770.39547  -1103464.03145  20260971.7344                   20260967.5554
        45.5004         33.0004
   1084409.25747   -469265.57744  21566464.7814                   21566467.6094
        42.0004         27.5004
                                  24811922.766
        28.500
 19  3  7  0 58 15.0000000  0  5G01G17G28G19G24
   3316944.46947   2518407.31343  23450615.9454                   23450617.9614
        42.7504         22.5004
   2351852.29348    845325.82845  20655585.2814                   20655583.4184
        48.5004         35.0004
   3178945.66447   2413879.86344  22190283.4144                   22190281.8054
        43.0004         25.5004
   1238018.32047  -1116517.60245  20257784.1174                   20257780.0124
        45.7504         33.2504
   1066209.60247   -483447.14844  21563001.8674                   21563003.1524
        42.5004         28.2504
 19  3  7  0 58 20.0000000  0  5G01G17G28G19G24
   3319234.21546   2520191.52343  23451051.0864                   23451053.3164
        40.2504         22.2504
   2345232.91047    840167.86746  20654325.2814                   20654323.9774
        47.7504         36.0004
   3179617.85547   2414403.64844  22190412.2734                   22190409.5004
        42.0004         24.5004
   1221279.87547  -1129560.54345  20254598.3914                   20254594.2974
        46.0004         33.2504
   1048023.32547   -497618.25745  21559541.1804                   21559542.0744
        44.2504         31.2504
 19  3  7  0 58 25.0000000  0  5G01G17G28G19G24
   3321543.95347   2521991.30943  23451490.6024                   23451493.2114
        42.7504         22.0004
   2338631.04748    835023.54745  20653068.8054                   20653068.5164
        48.0004         34.7504
   3180302.49647   2414937.12943  22190541.7734                   22190540.1644
        42.0004         22.7504
   1204561.56347  -1142587.80945  20251417.1644                   20251413.8364
        45.0004         32.5004
   1029855.77347   -511774.82044  21556083.9144                   21556085.5904
        43.7504         29.0004
 19  3  7  0 58 30.0000000  0  5G01G17G28G19G24
   3323870.01647   2523803.85243  23451933.8594                   23451935.6804
        42.7504         22.7504
   2332043.28248    829890.23246  20651816.0234                   20651814.6094
        49.0004         36.0004
   3180994.26947   2415476.17444  22190673.9304                   22190672.5314
        43.0004         25.0004
   1187860.21447  -1155601.84345  20248239.5314                   20248235.2154
        45.2504         33.2504
   1011706.06647   -525917.44644  21552630.3594                   21552631.6214
        43.0004         29.0004
 19  3  7  0 58 35.0000000  0  5G01G17G28G19G24
   3326208.63746   2525626.17243  23452378.9384                   23452380.8954
        41.0004         22.7504
   2325466.30948    824765.34046  20650564.1254                   20650562.9264
        48.0004         36.2504
   3181690.80947   2416018.94944  22190806.7504                   22190804.6914
        42.5004         24.2504
   1171172.78947  -1168605.01645  20245063.9844                   20245060.1214
        46.0004         34.5004
    993569.72347   -540049.62545  21549178.9694                   21549180.2344
        44.2504         30.7504
 19  3  7  0 58 40.0000000  0  5G01G17G28G19G24
   3328561.58247   2527459.59044  23452826.7734                   23452828.7934
        42.7504         24.2504
   2318903.85248    819651.71146  20649315.1334                   20649314.0274
        48.5004         36.0004
   3182394.37947   2416567.16444  22190940.3594                   22190937.9884
        43.0004         25.0004
   1154505.01647  -1181592.89845  20241892.0784                   20241887.5474
        45.7504         32.5004
    975453.65247   -554166.08244  21545731.9614                   21545732.6644
        43.5004         29.0004
 19  3  7  0 58 45.0000000  0  5G01G17G28G19G24
   3330926.35247   2529302.26643  23453276.8674                   23453279.0354
        42.5004         23.2504
   2312352.32648    814546.63045  20648068.7424                   20648066.9184
        48.5004         35.0004
   3183101.99147   2417118.56644  22191075.0554                   22191072.2934
        42.7504         24.0004
   1137851.93047  -1194569.32945  20238722.9144                   20238718.5124
        45.7504         33.0004
    957352.38347   -568270.92845  21542287.0554                   21542287.8204
        43.5004         30.7504
 19  3  7  0 58 50.0000000  0  5G01G17G28G19G24
   3333309.32447   2531159.12944  23453729.9694                   23453732.8524
        42.7504         24.7504
   2305821.12148    809457.37946  20646825.6484                   20646825.1454
        48.0004         36.0004
   3183821.41847   2417679.14843  22191212.0864                   22191209.7544
        42.2504         23.7504
   1121223.64847  -1207526.43745  20235558.4534                   20235555.1454
        45.7504         34.0004
    939275.33647   -582356.94145  21538847.3364                   21538848.8404
        44.5004         31.0004
 19  3  7  0 58 55.0000000  0  5G01G17G28G19G24
   3335706.01247   2533026.68843  23454186.1174                   23454188.4844
        42.0004         22.2504
   2299301.53548    804377.18045  20645585.1644                   20645584.3984
        48.2504         35.5004
   3184547.09847   2418244.62544  22191350.0004                   22191347.7624
        42.5004         24.0004
   1104610.84447  -1220471.47745  20232397.7424                   20232393.9344
        46.2504         33.7504
    921213.23847   -596431.31245  21535409.7114                   21535411.1994
        43.7504         30.2504
 19  3  7  0 59  0.0000000  0  5G01G17G28G19G24
   3338115.89147   2534904.50043  23454644.5084                   23454647.2074
        43.2504         22.5004
   2292791.84848    799304.69545  20644346.1644                   20644344.9104
        48.5004         35.2504
   3185276.09447   2418812.66843  22191489.1644                   22191486.5664
        43.0004         23.0004
   1088010.83247  -1233406.55545  20229238.6024                   20229234.3874
        45.5004         33.0004
    903165.62547   -610494.40244  21531975.8834                   21531977.3244
        43.5004         28.0004
 19  3  7  0 59  5.0000000  0  5G01G17G28G19G24
   3340532.28147   2536787.41043  23455104.7344                   23455106.6604
        43.0004         23.0004
   2286288.55548    794237.20745  20643108.9064                   20643106.9654
        48.5004         35.5004
   3186004.88747   2419380.56343  22191627.9064                   22191625.3484
        42.5004         23.0004
   1071421.60947  -1246333.21945  20226081.7424                   20226077.4104
        46.0004         33.7504
    885128.02347   -624549.65644  21528543.2894                   21528543.9734
        43.0004         28.5004
 19  3  7  0 59 10.0000000  0  6G01G17G28G19G24G13
   3342959.04346   2538678.37143  23455566.3914                   23455568.2814
        41.5004         22.0004
   2279796.25448    789178.25445  20641873.2424                   20641872.7974
        48.0004         35.0004
   3186737.30547   2419951.24244  22191766.2974                   22191764.8984
        42.5004         26.5004
   1054847.73047  -1259247.93745  20222927.3914                   20222923.9844
        45.7504         34.0004
    867105.46947   -638593.20344  21525112.8284                   21525115.4924
        42.5004         27.7504
                                  24828914.461
        30.500
 19  3  7  0 59 15.0000000  0  6G01G17G28G19G24G13
   3345399.79347   2540580.26643  23456030.5084                   23456033.2114
        42.2504         21.5004
   2273316.60348    784129.19345  20640640.0784                   20640639.0634
        48.0004         34.5004
   3187476.25447   2420527.07443  22191907.5084                   22191905.2544
        42.5004         22.7504
   1038290.28947  -1272149.82845  20219776.8834                   20219773.1644
        46.0004         33.0004
    849098.95747   -652624.23044  21521686.9224                   21521688.5124
        43.0004         28.2504
                                  24830330.727
        31.000
 19  3  7  0 59 20.0000000  0  6G01G17G28G19G24G13
   3347852.37547   2542491.37143  23456497.1484                   23456499.8594
        43.5004         21.7504
   2266848.00048    779088.72345  20639409.3284                   20639408.2344
        48.2504         35.0004
   3188222.39147   2421108.48843  22192049.3444                   22192047.6174
        42.2504         23.0004
   1021746.73047  -1285040.91045  20216628.4694                   20216625.0944
        45.7504         33.5004
    831102.12947   -666647.73444  21518262.2734                   21518263.9804
        43.5004         28.7504
                                  24831748.789
        27.250
 19  3  7  0 59 25.0000000  0  5G01G17G28G19G24
   3350316.56347   2544411.52043  23456966.5164                   23456968.9964
        42.0004         22.0004
   2260390.22348    774056.69145  20638180.4774                   20638179.5124
        48.0004         34.5004
   3188973.29346   2421693.60243  22192192.5314                   22192190.4694
        41.7504         22.5004
   1005217.85947  -1297920.54745  20213483.6484                   20213479.8324
        46.0004         32.7504
    813119.24247   -680660.37544  21514841.1174                   21514842.6644
        44.2504         29.7504
 19  3  7  0 59 30.0000000  0  5G01G17G28G19G24
   3352791.09846   2546339.72543  23457436.7734                   23457439.6994
        41.2504         21.7504
   2253941.29648    769031.55745  20636953.4924                   20636951.9024
        48.7504         35.0004
   3189726.19847   2422280.30044  22192335.2504                   22192333.7154
        43.0004         25.7504
    988701.45947  -1310790.46045  20210340.2584                   20210336.8674
        45.7504         32.0004
    795149.56247   -694662.73145  21511421.1414                   21511423.0434
        43.2504         30.5004
 19  3  7  0 59 35.0000000  0  5G01G17G28G19G24
   3355277.49046   2548277.11543  23457910.8754                   23457913.0744
        41.5004         20.7504
   2247504.15147    764015.55745  20635728.1564                   20635726.1954
        47.7504         33.7504
   3190485.63946   2422871.99943  22192479.3524                   22192478.3244
        41.2504         22.0004
    972200.53347  -1323648.36145  20207200.4304                   20207195.7504
        46.0004         32.5004
    777192.66047   -708655.14544  21508004.0784                   21508004.3484
        45.0004         29.2504
 19  3  7  0 59 40.0000000  0  5G01G17G28G19G24
   3357773.04347   2550221.75043  23458385.2504                   23458388.1954
        43.0004         20.2504
   2241076.77748    759007.24245  20634505.5164                   20634504.3984
        48.2504         34.0004
   3191244.59846   2423463.44543  22192623.9924                   22192622.7114
        41.5004         21.2504
    955715.65647  -1336493.69945  20204063.5314                   20204059.6524
        45.2504         32.2504
    759256.39547   -722631.41844  21504590.4224                   21504592.0554
        44.2504         29.5004
 19  3  7  0 59 45.0000000  0  5G01G17G28G19G24
   3360280.75846   2552175.78943  23458862.4614                   23458865.0824
        41.7504         19.7504
   2234657.83248    754005.44545  20633283.9694                   20633282.3054
        48.2504         33.5004
   3192005.66847   2424056.44943  22192769.2894                   22192767.1484
        42.7504         21.5004
    939241.03147  -1349331.09045  20200928.6094                   20200924.0234
        45.5004         32.2504
    741331.16847   -736599.17244  21501179.8834                   21501180.3324
        43.0004         28.5004
 19  3  7  0 59 50.0000000  0  5G01G17G28G19G24
   3362798.81346   2554137.93443  23459341.4454                   23459344.1884
        41.5004         19.7504
   2228247.72748    749010.59045  20632063.8444                   20632062.2034
        48.0004         33.5004
   3192769.46147   2424651.62543  22192914.6094                   22192912.6604
        42.2504         22.0004
    922778.53947  -1362158.98045  20197795.7424                   20197791.1454
        46.2504         33.2504
    723417.52347   -750557.80544  21497770.8524                   21497771.7464
        44.0004         28.5004
 19  3  7  0 59 55.0000000  0  5G01G17G28G19G24
   3365323.27347   2556105.02043  23459822.0164                   23459824.7974
        43.2504         19.7504
   2221846.02748    744022.22745  20630845.4224                   20630843.7424
        48.0004         35.0004
   3193534.44546   2425247.69543  22193060.0234                   22193057.9774
        40.7504         22.0004
    906329.93847  -1374976.09445  20194665.7274                   20194661.1954
        45.5004         32.7504
    705516.88747   -764506.37944  21494364.3444                   21494364.7774
        44.0004         29.5004
 19  3  7  1  0  0.0000000  0  5G01G17G28G19G24
   3367853.37547   2558076.55943  23460303.1884                   23460305.8164
        42.5004         21.5004
   2215448.74248    739037.34845  20629628.3674                   20629627.5634
        48.5004         35.2504
   3194296.76647   2425841.76243  22193205.1724                   22193203.8634
        42.5004         22.2504
    889889.77347  -1387786.59845  20191537.1024                   20191533.2344
        46.0004         33.0004
    687625.33647   -778447.83645  21490959.7664                   21490960.7664
        44.2504         30.0004
 19  3  7  1  0  5.0000000  0  5G01G17G28G19G24
   3370391.78547   2560054.50843  23460786.7274                   23460788.9614
        43.5004         21.5004
   2209056.54748    734056.41045  20628412.0784                   20628410.9924
        48.2504         33.7504
   3195058.59446   2426435.37543  22193350.3914                   22193348.5864
        41.5004         22.5004
    873457.01647  -1400591.33645  20188410.5394                   20188406.0434
        45.7504         32.0004
    669741.29347   -792383.44544  21487556.6884                   21487557.8714
        44.5004         29.0004
 19  3  7  1  0 10.0000000  0  5G01G17G28G19G24
   3372938.07847   2562038.69543  23461271.0704                   23461273.3444
        43.0004         20.7504
   2202671.80148    729081.31645  20627197.2114                   20627195.5594
        48.2504         34.7504
   3195824.06646   2427031.85943  22193496.2034                   22193494.1024
        41.5004         23.0004
    857035.20347  -1413387.52745  20185285.2274                   20185281.4844
        46.2504         34.0004
    651864.35547   -806313.50445  21484154.6094                   21484155.3134
        45.2504         30.0004
 19  3  7  1  0 15.0000000  0  5G01G17G28G19G24
                                  23461755.8674                   23461759.6954
        37.5004         20.0004
   2196294.05547    724111.62145  20625980.8984                   20625981.4414
        44.5004         31.7504
                                  22193640.3054                   22193640.1644
        38.2504         21.5004
                                  20182160.2114                   20182157.1604
        42.7504         31.7504
                                  21480752.5784                   21480755.2464
        42.2504         28.2504
 19  3  7  1  0 20.0000000  0  5G01G17G28G19G24
   3378060.60946   2566030.01243  23462245.9454                   23462247.8874
        40.2504         19.5004
   2189930.03147    719152.66045  20624771.9614                   20624769.0784
        47.0004         34.7504
   3197364.40646   2428232.11343  22193788.8674                   22193786.1564
        40.7504         22.0004
    824231.24647  -1438949.05845  20179042.1804                   20179037.1604
        45.2504         34.7504
    616149.75047   -834143.07445  21477358.2194                   21477357.8554
        44.7504         32.0004
 19  3  7  1  0 25.0000000  0  5G01G17G28G19G24
   3380640.49246   2568040.34843  23462734.8134                   23462738.6484
        37.5004         19.5004
   2183576.21147    714201.62945  20623560.2504                   20623559.8954
        43.0004         34.0004
   3198139.72745   2428836.25843  22193933.9694                   22193933.5984
        35.5004         22.7504
    807852.68847  -1451711.57845  20175923.2584                   20175920.1524
        42.0004         33.7504
    598318.01246   -848037.92644  21473961.7274                   21473964.3794
        40.7504         29.2504
 19  3  7  1  0 30.0000000  0  5G01G17G28G19G24
   3383232.54346   2570060.10943  23463229.9534                   23463231.0274
        40.7504         21.5004
   2177234.57447    709260.09045  20622356.3444                   20622353.9534
        47.5004         35.2504
   3198921.78546   2429445.65243  22194084.7734                   22194082.3134
        40.7504         23.7504
    791490.18847  -1464461.57445  20172812.1024                   20172807.2154
        45.5004         34.5004
    580500.24647   -861921.91045  21470574.3284                   21470573.9844
        44.5004         30.0004
 19  3  7  1  0 35.0000000  0  5G01G17G28G19G24
   3385832.90246   2572086.34843  23463724.7664                   23463725.7464
        40.7504         20.5004
   2170900.55947    704324.48445  20621150.5164                   20621148.4304
        47.2504         34.5004
   3199706.97746   2430057.46943  22194233.9774                   22194231.6764
        40.5004         22.0004
    775139.04347  -1477202.72745  20169700.3284                   20169695.7274
        44.5004         34.7504
    562691.42247   -875798.92644  21467184.8524                   21467185.5394
        43.7504         29.5004
 19  3  7  1  0 40.0000000  0  5G01G17G28G19G24
   3388441.77347   2574119.26243  23464221.8834                   23464222.5354
        42.2504         20.0004
   2164574.01148    699394.72045  20619947.6024                   20619945.6214
        48.5004         34.0004
   3200493.25447   2430670.16443  22194384.5784                   22194381.8754
        42.7504         22.0004
    758799.02747  -1489935.20745  20166592.1094                   20166587.1254
        45.5004         33.5004
    544893.45747   -889667.44144  21463799.1174                   21463799.4384
        44.5004         29.5004
 19  3  7  1  0 45.0000000  0  5G01G17G28G19G24
   3391065.01256   2576163.41853  23464718.5474                   23464721.8204
        41.5004         19.2504
   2158260.18457    694474.66855  20618744.7194                   20618742.9774
        45.0004         32.5004
   3201286.45346   2431288.31643  22194533.8914                   22194532.6484
        39.0004         21.0004
    742476.02747  -1502654.50045  20163483.6884                   20163480.2974
        42.5004         32.0004
    527112.99256   -903522.30154  21460413.8914                   21460414.7774
        41.7504         27.5004
 19  3  7  1  0 50.0000000  0  3G01G19G24
                                  23465221.3364                   23465222.2664
        39.7504         19.7504
                                  20160381.0314                   20160375.9964
        43.7504         30.7504
                                  21457033.1484                   21457032.2934
        43.2504         27.2504
 19  3  7  1  0 55.0000000  0  5G01G17G28G19G24
   3396327.25847   2580263.81343  23465721.2344                   23465723.6174
        42.0004         19.2504
   2145642.95357    684643.00855  20616344.5554                   20616343.6684
        47.2504         33.2504
   3202864.45756   2432517.63353  22194835.9384                   22194833.6954
        41.0004         21.0004
    709847.47347  -1528079.49245  20157276.4454                   20157271.4454
        45.5004         32.7504
    491566.21547   -931221.36745  21453650.1334                   21453651.6024
        44.2504         30.0004
 19  3  7  1  1  0.0000000  0  5G01G17G28G19G24
                                  23466223.250
        42.500
                                  20615145.1484                   20615138.9964
        47.7504         37.2504
                                  22194984.625
        42.750
                                  20154173.6334                   20154164.6844
        45.5004         37.2504
                                  21450270.5944                   21450266.9614
        45.5004         34.5004
 19  3  7  1  1  5.0000000  0  5G01G17G28G19G24
   3401605.09447   2582072.64153  23466725.4844                   23466726.2114
        43.0004         21.7504
   2133035.59847    675211.70345  20613946.0554                   20613944.1524
        46.0004         33.5004
   3204427.70746   2432954.10253  22195132.2584                   22195131.3794
        40.5004         22.5004
    677248.56647  -1552465.19545  20151072.7974                   20151068.1604
        43.5004         32.0004
    456049.91647   -957789.16144  21446891.6254                   21446892.4614
        44.0004         28.2504
 19  3  7  1  1 10.0000000  0  5G01G17G28G19G24
   3404260.44947   2584141.68843  23467231.3054                   23467232.8244
        42.0004         22.5004
   2126746.47348    670311.03145  20612749.1644                   20612748.7274
        48.0004         34.7504
   3205213.99246   2433566.77043  22195282.9774                   22195281.7034
        41.2504         22.0004
    660966.93447  -1565152.23445  20147974.9534                   20147971.5634
        46.0004         34.2504
    438310.53947   -971612.07044  21443516.4534                   21443517.8954
        45.7504         29.7504
 19  3  7  1  1 15.0000000  0  5G01G17G28G19G24
   3406939.27746   2586229.08243  23467740.6804                   23467742.5864
        41.5004         21.5004
   2120479.23857    665427.44555  20611556.4774                   20611556.2624
        47.7504         33.2504
   3206016.24547   2434191.88343  22195435.0084                   22195433.9694
        42.2504         22.0004
    644711.04347  -1577819.17645  20144880.5704                   20144878.3524
        44.5004         33.0004
    420596.96157   -985414.94154  21440145.8204                   21440147.8524
        44.5004         26.5004
 19  3  7  1  1 20.0000000  0  5G01G17G28G19G24
   3409635.73046   2588330.25043  23468254.4694                   23468256.4304
        41.5004         21.5004
   2114230.40247    660558.29245  20610367.5784                   20610367.1024
        47.7504         33.7504
   3206831.12157   2434826.90653  22195591.0004                   22195589.9224
        42.2504         21.0004
    628478.48047  -1590467.87945  20141792.0004                   20141789.3094
        45.0004         34.0004
    402905.07457   -999200.73054  21436779.1644                   21436780.8634
        44.7504         29.2504
 19  3  7  1  1 25.0000000  0  5G01G17G28G19G24
   3412345.59046   2590441.82443  23468770.2424                   23468771.9104
        41.5004         22.0004
   2107992.76248    655697.77745  20609181.0394                   20609180.0554
        48.0004         34.5004
   3207650.68846   2435465.48843  22195747.1564                   22195745.6214
        41.7504         21.5004
    612259.97347  -1603105.69145  20138706.3204                   20138703.4844
        45.7504         34.2504
    385227.89147  -1012975.16444  21433415.5784                   21433417.4534
        45.5004         28.5004
 19  3  7  1  1 30.0000000  0  5G01G17G28G19G24
   3415065.56346   2592561.28143  23469287.7894                   23469289.8404
        41.0004         22.0004
   2101765.03147    650844.99245  20607995.9774                   20607994.6174
        47.5004         33.5004
   3208473.46946   2436106.63343  22195903.5864                   22195902.1054
        41.2504         21.7504
    596055.76647  -1615732.35245  20135622.6724                   20135619.0784
        45.5004         33.5004
    367565.07447  -1026738.41444  21430054.4534                   21430055.6954
        44.7504         28.0004
 19  3  7  1  1 35.0000000  0  5G01G17G28G19G24
   3417797.61346   2594690.15643  23469807.4304                   23469810.0634
        41.0004         21.0004
   2095548.57847    646001.00445  20606812.8284                   20606811.6644
        47.7504         33.0004
   3209300.71146   2436751.25043  22196061.4064                   22196059.8954
        41.5004         21.5004
    579866.53947  -1628347.32845  20132542.4144                   20132538.3794
        45.5004         33.0004
    349917.33247  -1040489.88344  21426695.8284                   21426697.4654
        45.2504         29.0004
 19  3  7  1  1 40.0000000  0  5G01G17G28G19G24
   3420540.80946   2596827.70343  23470329.2424                   23470331.7934
        40.7504         20.2504
   2089342.01248    641164.72345  20605631.8594                   20605629.6134
        48.0004         33.7504
   3210131.13346   2437398.30543  22196219.0864                   22196217.4384
        41.5004         22.5004
    563691.42247  -1640951.31245  20129463.5004                   20129459.8954
        45.2504         32.0004
    332284.71547  -1054229.59844  21423340.5704                   21423341.6644
        45.5004         28.0004
 19  3  7  1  1 45.0000000  0  5G01G17G28G19G24
   3423299.59047   2598977.40643  23470854.2664                   23470856.7114
        42.0004         21.5004
   2083146.49648    636337.05945  20604452.6024                   20604451.0474
        48.0004         34.0004
   3210969.85547   2438051.85943  22196378.5234                   22196376.9694
        42.0004         22.5004
    547527.99647  -1653546.18045  20126388.3674                   20126383.7194
        45.5004         32.7504
    314660.86747  -1067962.44544  21419987.4144                   21419987.5274
        45.5004         28.5004
 19  3  7  1  1 50.0000000  0  6G01G17G28G19G22G24
   3426067.47346   2601134.18843  23471381.1564                   23471383.4454
        41.0004         21.0004
   2076962.38747    631518.26245  20603276.3054                   20603274.8014
        47.2504         33.0004
   3211815.87546   2438711.10543  22196540.2664                   22196537.5314
        40.7504         22.5004
    531381.02747  -1666128.23845  20123315.4534                   20123311.2034
        45.7504         32.0004
   2757530.31315                  25169359.258
        34.250
    297048.90647  -1081686.05944  21416635.6024                   21416636.3094
        45.2504         28.5004
 19  3  7  1  1 55.0000000  0  6G01G17G28G19G22G24
   3428854.77046   2603306.10543  23471912.0704                   23471913.9264
        41.2504         21.0004
   2070794.66047    626712.22345  20602102.4064                   20602101.6054
        47.7504         34.5004
   3212673.48446   2439379.35943  22196702.9064                   22196700.9884
        41.7504         22.5004
    515252.57447  -1678695.87545  20120246.4224                   20120242.5314
        46.0004         33.2504
   2741746.063 6                  25166355.422
        36.000
    279454.29347  -1095396.16444  21413287.2034                   21413288.4614
        45.7504         28.2504
 19  3  7  1  2  0.0000000  0  6G01G17G28G19G22G24
   3431655.55947   2605488.53143  23472445.1564                   23472447.0084
        43.0004         21.5004
   2064641.54748    621917.58645  20600931.3594                   20600930.0394
        48.5004         35.0004
   3213534.96147   2440050.63343  22196867.1094                   22196865.4224
        42.2504         22.0004
    499145.36747  -1691246.94945  20117181.6254                   20117177.5514
        46.0004         34.0004
   2725973.512 5                  25163354.516
        35.750
    261885.75847  -1109085.93745  21409944.1884                   21409945.1414
        45.7504         30.0004
 19  3  7  1  2  5.0000000  0  6G01G17G28G19G22G24
   3434471.89847   2607683.11743  23472981.2504                   23472983.0124
        44.0004         22.0004
   2058500.37548    617132.30545  20599763.5704                   20599760.8094
        48.5004         34.5004
   3214403.09447   2440727.14543  22197032.5314                   22197029.9614
        43.7504         22.0004
    483052.31347  -1703786.94145  20114119.5704                   20114114.2734
        45.5004         32.5004
   2710216.781 6                  25160357.305
        41.000
    244331.58247  -1122764.47744  21406604.9304                   21406604.8014
        43.7504         28.7504
 19  3  7  1  2 10.0000000  0  6G01G17G28G19G22G24
   3437294.71946   2609882.71543  23473518.1174                   23473519.5864
        41.5004         22.5004
   2052365.23848    612351.69145  20598595.2734                   20598592.7344
        48.2504         34.2504
   3215271.30957   2441403.67253  22197197.1644                   22197194.9414
        42.0004         22.0004
    466968.95757  -1716319.42255  20111058.4924                   20111053.1994
        46.0004         33.7504
   2694466.45716                  25157358.219
        36.500
    226785.98857  -1136436.34054  21403265.3674                   21403265.3484
        44.5004         28.2504
 19  3  7  1  2 15.0000000  0  6G01G17G28G19G22G24
   3440129.14117                  23474057.320
        42.250
   2046240.73457    607579.32455  20597429.7034                   20597427.6884
        47.0004         33.0004
   3216148.61657   2442087.09453  22197362.9144                   22197361.6884
        42.7504         21.5004
    450898.18057  -1728842.39155  20108000.0704                   20107996.0394
        44.7504         31.7504
   2678729.95316                  25154363.352
        37.750
    209255.58257  -1150096.15254  21399928.4924                   21399929.6724
        43.5004         25.7504
 19  3  7  1  2 20.0000000  0  6G01G17G28G19G22G24
   3442980.68916                  23474599.852
        38.500
   2040131.43047    602818.79345  20596266.6094                   20596264.8554
        45.7504         33.0004
   3217030.16256   2442774.03753  22197530.5784                   22197529.8674
        40.5004         21.7504
    434847.92047  -1741349.05645  20104945.5944                   20104941.5824
        44.5004         32.2504
                                  25151371.617
        35.750
    191743.44557  -1163742.07454  21396595.5084                   21396597.2894
        43.0004         27.0004
 19  3  7  1  2 25.0000000  0  6G01G17G28G19G22G24
   3445841.82847   2612366.35553  23475145.1484                   23475145.5824
        42.0004         22.2504
   2034031.63747    598065.74645  20595106.8204                   20595105.0204
        47.7504         35.5004
   3217918.84846   2443466.54343  22197701.0004                   22197699.0204
        41.5004         22.5004
    418810.20347  -1753845.96545  20101894.4224                   20101890.1454
        45.7504         34.5004
                                  25148382.953
        37.000
    174238.39847  -1177382.32444  21393265.4304                   21393266.4384
        44.5004         29.0004
 19  3  7  1  2 30.0000000  0  6G01G17G28G19G22G24
   3448707.09847   2614599.00043  23475689.7194                   23475691.3284
        42.5004         21.5004
   2027936.18848    593316.02045  20593946.5314                   20593943.9774
        48.0004         33.5004
   3218805.56646   2444157.48443  22197869.0864                   22197867.5354
        41.2504         22.0004
    402781.52347  -1766335.87145  20098844.2894                   20098839.1294
        45.5004         33.2504
   2631591.219 6                  25145393.930
        37.500
    156742.02347  -1191015.89544  21389935.7664                   21389935.5864
        45.2504         28.0004
 19  3  7  1  2 35.0000000  0  6G01G17G28G19G22G24
   3451575.92647   2616834.50843  23476237.1484                   23476236.9184
        43.5004         21.5004
   2021844.85547    588569.55145  20592788.7194                   20592785.2894
        47.7504         34.5004
   3219684.41446   2444842.29343  22198037.4694                   22198033.8204
        40.5004         21.5004
    386763.38347  -1778817.50045  20095797.2274                   20095791.0784
        45.5004         34.5004
   2615886.03946   2452754.85553  25142406.5944                   25142400.4414
        37.0004         20.2504
    139262.83247  -1204636.00845  21386612.0314                   21386610.3794
        46.0004         30.7504
 19  3  7  1  2 40.0000000  0  6G01G17G28G19G22G24
   5029883.64146   3846684.66043  23776577.1564                   23776579.5944
        40.2504         21.7504
   3591185.91847   1811432.71145  20891422.9304                   20891422.0434
        47.0004         32.5004
   4795993.59446   3673135.20343  22497997.9454                   22497996.5274
        41.5004         22.0004
   1946177.71947   -563689.44145  20392542.3914                   20392538.6764
        45.5004         32.2504
   4175625.35945   3668136.20743  25439213.5004                   25439209.8874
        35.2504         18.2504
   1697212.76247      9350.96144  21683077.6254                   21683078.9924
        45.0004         29.2504
 19  3  7  1  2 45.0000000  0  6G01G17G28G19G22G24
   5032777.73846   3848939.79343  23777128.1484                   23777130.5004
        41.7504         19.5004
   3585116.76247   1806703.50045  20890267.9304                   20890266.8794
        47.7504         33.0004
   4796881.44147   3673827.00043  22498167.0704                   22498165.0354
        42.2504         21.5004
   1930188.84447   -576148.32845  20389500.1564                   20389496.3794
        46.0004         33.5004
   4159944.97346   3655917.65642  25436230.1174                   25436226.0904
        36.0004         16.2504
   1679763.99647     -4245.48844  21679757.1724                   21679758.1134
        44.7504         28.5004
 19  3  7  1  2 50.0000000  0  6G01G17G28G19G22G24
   5035682.33646   3851203.10543  23777681.3054                   23777683.2974
        41.5004         19.2504
   3579056.27047   1801981.03945  20889114.8754                   20889114.2464
        47.7504         32.5004
   4797773.19947   3674521.87143  22498336.6954                   22498335.2034
        42.5004         21.5004
   1914212.00447   -588597.81645  20386459.6564                   20386456.2384
        46.0004         32.5004
   4144275.96146   3643708.10542  25433247.9224                   25433245.3014
        36.5004         16.2504
   1662326.19947    -17833.39544  21676438.9534                   21676440.5474
        45.5004         28.5004
 19  3  7  1  2 55.0000000  0  6G01G17G28G19G22G24
   5038593.03546   3853471.18043  23778235.2034                   23778237.3794
        40.5004         19.5004
   3572999.43147   1797261.43145  20887962.3834                   20887961.5704
        47.5004         31.7504
   4798666.11746   3675217.67643  22498507.2734                   22498505.0434
        41.5004         21.5004
   1898241.11247   -601042.66145  20383420.6334                   20383416.9734
        46.2504         32.0004
   4128614.59846   3631504.36742  25430268.3914                   25430265.4924
        38.0004         16.2504
   1644890.76547    -31419.44144  21673121.1254                   21673122.2384
        45.7504         28.7504
 19  3  7  1  3  0.0000000  0  6G01G17G28G19G22G24
   5041504.97746   3855740.24243  23778789.2274                   23778791.2504
        41.0004         20.0004
   3566942.53947   1792541.76245  20886809.8834                   20886808.4924
        47.5004         31.7504
   4799551.09446   3675907.24243  22498675.0234                   22498673.2154
        41.5004         20.5004
   1882275.01647   -613483.77345  20380382.2424                   20380378.3954
        46.0004         31.5004
   4112953.99646   3619301.36342  25427287.9844                   25427285.8054
        37.0004         15.5004
   1627462.87547    -44999.62144  21669804.5554                   21669805.7114
        46.0004         29.2504
 19  3  7  1  3  5.0000000  0  6G01G17G28G19G22G24
   5044418.09447   3858010.19943  23779343.3204                   23779345.5004
        42.2504         21.2504
   3560887.47348   1787823.54745  20885657.4304                   20885655.4024
        48.0004         32.7504
   4800433.45347   3676594.81343  22498843.2504                   22498840.7194
        42.5004         19.5004
   1866315.46947   -625919.77345  20377345.3444                   20377341.4344
        46.0004         30.7504
   4097295.70346   3607100.09442  25424307.6564                   25424305.7424
        37.7504         15.5004
   1610038.94547    -58576.69944  21666489.0704                   21666489.9964
        44.7504         29.5004
 19  3  7  1  3 10.0000000  0  6G01G17G28G19G22G24
   5047339.60546   3860286.75043  23779898.7584                   23779902.3164
        41.7504         22.5004
   3554840.04347   1783111.26245  20884506.4534                   20884505.1564
        47.5004         31.5004
   4801317.32846   3677283.59043  22499010.6724                   22499009.3404
        40.5004         19.2504
   1850368.00047   -638346.33645  20374309.9694                   20374306.9184
        46.0004         31.0004
   4081645.96546   3594905.46943  25421329.6804                   25421327.2934
        37.0004         18.5004
   1592627.27747    -72144.22344  21663175.0004                   21663176.6994
        45.2504         28.2504
 19  3  7  1  3 15.0000000  0  6G01G17G28G19G22G24
   5050291.03556   3862586.46953  23780460.9224                   23780463.7664
        41.2504         21.5004
   3548819.16847   1778419.62145  20883360.7114                   20883359.2704
        47.5004         34.0004
   4802216.49656   3677984.13753  22499182.1564                   22499180.2424
        41.2504         21.0004
   1834448.68057   -650751.09055  20371280.7814                   20371276.8364
        45.5004         33.2504
   4066023.64556   3582732.10553  25418357.1484                   25418355.1844
        36.0004         18.5004
   1575249.11757    -85685.69554  21659868.5634                   21659869.3444
        45.5004         29.5004
 19  3  7  1  3 20.0000000  0  6G01G17G28G19G22G24
   5053274.18546   3864911.01043  23781028.7194                   23781031.1604
        41.5004         20.5004
   3542829.51148   1773752.37945  20882221.2504                   20882219.5824
        48.5004         34.2504
   4803145.65447   3678708.17643  22499359.3594                   22499357.0164
        42.5004         21.0004
   1818564.29547   -663128.49745  20368258.2194                   20368253.9804
        46.2504         34.5004
   4050435.39145   3570585.52742  25415390.0634                   25415388.2854
        35.0004         17.7504
   1557900.55747    -99204.03144  21656567.6334                   21656568.1764
        45.5004         28.7504
 19  3  7  1  3 25.0000000  0  6G01G17G28G19G22G24
   5056270.29746   3867245.66443  23781599.1094                   23781601.3834
        40.7504         21.5004
   3536852.77748   1769095.18045  20881083.9064                   20881082.2464
        48.0004         33.0004
   4804079.26647   3679435.64843  22499536.6954                   22499534.9344
        42.0004         21.5004
   1802697.54747   -675492.19545  20365239.3284                   20365235.3754
        46.2504         32.5004
   4034859.516 5                  25412426.594
        32.750
   1540571.65247   -112707.07444  21653269.4694                   21653270.4184
        45.5004         28.0004
 19  3  7  1  3 30.0000000  0  6G01G17G28G19G22G24
   5059277.48047   3869588.93043  23782171.1954                   23782173.6954
        42.7504         20.2504
   3530884.62148   1764444.67645  20879948.0234                   20879947.1884
        48.5004         33.5004
   4805021.45747   3680169.83643  22499716.1884                   22499714.5004
        43.0004         21.0004
   1786841.06347   -687847.89545  20362221.7504                   20362217.9344
        46.2504         33.0004
   4019297.367 6                  25409465.203
        36.250
   1523246.60547   -126207.10944  21649973.2274                   21649974.2034
        45.0004         28.0004
 19  3  7  1  3 35.0000000  0  6G01G17G28G19G22G24
   5062289.39846   3871935.87543  23782744.6024                   23782746.7974
        41.0004         20.7504
   3524921.01647   1759797.71145  20878813.0784                   20878811.9574
        47.5004         32.2504
   4805960.95347   3680901.87143  22499894.8364                   22499893.0234
        42.0004         21.2504
   1770992.92647   -700197.09045  20359205.6884                   20359201.8364
        46.2504         33.2504
   4003739.645 5                  25406505.430
        33.500
   1505930.02347   -139700.54744  21646677.2894                   21646678.7384
        46.0004         28.0004
 19  3  7  1  3 40.0000000  0  6G01G17G28G19G22G24
   5065308.96146   3874288.77343  23783318.1804                   23783321.5314
        39.5004         19.5004
   3518962.70347   1755154.87145  20877679.5634                   20877677.9414
        47.5004         32.0004
   4806911.07846   3681642.27343  22500075.0554                   22500073.9844
        41.0004         20.5004
   1755149.80147   -712542.37945  20356191.2274                   20356186.8054
        46.0004         33.0004
   3988194.203 5                  25403546.625
        35.500
   1488605.03547   -153200.54344  21643380.8364                   21643381.5234
        46.0004         29.5004
 19  3  7  1  3 45.0000000  0  6G01G17G28G19G22G24
   5068330.16846   3876642.99243  23783893.3364                   23783896.2854
        40.0004         19.0004
   3513005.02347   1750512.52045  20876545.7274                   20876544.0434
        47.5004         32.5004
   4807856.41846   3682378.90243  22500255.2664                   22500253.6414
        40.5004         20.2504
   1739310.90247   -724884.38745  20353176.7504                   20353172.6374
        45.7504         32.5004
   3972651.004 5                  25400588.656
        35.750
   1471283.43047   -166697.88744  21640084.9614                   21640085.5984
        46.0004         29.0004
 19  3  7  1  3 50.0000000  0  6G01G17G28G19G22G24
   5071360.34046   3879004.12543  23784470.3444                   23784472.7464
        41.0004         19.0004
   3507055.29347   1745876.37145  20875413.5944                   20875412.4574
        47.5004         32.5004
   4808803.84046   3683117.13743  22500435.9304                   22500433.7734
        41.0004         19.5004
   1723483.86747   -737217.13745  20350165.2584                   20350160.8524
        46.0004         32.5004
   3957117.113 6                  25397633.188
        37.000
   1453973.45347   -180186.18744  21636790.6884                   21636791.3204
        46.0004         29.0004
 19  3  7  1  3 55.0000000  0  6G01G17G28G19G22G24
   5074403.21546   3881375.19943  23785048.8284                   23785051.7854
        41.0004         19.5004
   3501117.33647   1741249.39145  20874283.7504                   20874282.0864
        47.5004         31.7504
   4809757.03146   3683859.87943  22500617.2114                   22500614.9384
        41.0004         19.5004
   1707672.50047   -749537.67245  20347156.3284                   20347151.9184
        46.0004         32.7504
   3941596.305 6                  25394679.789
        37.000
   1436679.10947   -193662.29344  21633500.0004                   21633500.6374
        46.2504         29.5004
 19  3  7  1  4  0.0000000  0  6G01G17G28G19G22G24
   5077459.62946   3883756.80943  23785630.8284                   23785633.2274
        41.2504         20.2504
   3495192.00447   1736632.25845  20873156.0474                   20873154.4104
        47.5004         31.5004
   4810716.76646   3684607.72343  22500800.0944                   22500797.7814
        41.2504         20.0004
   1691877.74247   -761845.28545  20344150.7894                   20344146.7074
        46.0004         33.0004
   3926089.434 6                  25391728.523
        36.250
   1419401.46147   -207125.38744  21630212.3444                   21630212.4454
        46.0004         29.0004
 19  3  7  1  4  5.0000000  0  6G01G17G28G19G22G24
   5080524.89546   3886145.34843  23786214.5164                   23786216.6724
        41.5004         20.7504
   3489276.03947   1732022.41045  20872030.1174                   20872028.8204
        47.5004         32.0004
   4811674.30546   3685353.90643  22500982.0314                   22500980.1094
        41.7504         19.0004
   1676099.13747   -774140.29745  20341148.0164                   20341144.2464
        45.5004         32.0004
   3910589.785 5                  25388779.609
        35.250
   1402146.45747   -220570.85944  21626927.8364                   21626928.9694
        46.2504         29.2504
 19  3  7  1  4 10.0000000  0  6G01G17G28G19G22G24
   5083599.46547   3888541.10243  23786799.8594                   23786801.8634
        42.0004         20.7504
   3483369.01648   1727419.51645  20870906.3364                   20870904.9844
        48.2504         31.7504
   4812628.19546   3686097.15243  22501163.2894                   22501162.3054
        41.5004         18.5004
   1660335.89847   -786423.34445  20338148.4694                   20338144.2274
        46.2504         32.5004
   3895097.320 5                  25385831.016
        35.500
   1384914.75447   -233998.15644  21623649.4224                   21623649.9064
        45.5004         28.5004
 19  3  7  1  4 15.0000000  0  6G01G17G28G19G22G24
   5086687.98447   3890947.75043  23787387.7034                   23787389.2664
        42.0004         20.0004
   3477475.03548   1722826.81345  20869784.2734                   20869783.4264
        48.2504         32.5004
   4813586.69947   3686844.04343  22501345.6334                   22501344.5944
        42.5004         20.2504
   1644590.44247   -798692.52745  20335152.2504                   20335148.3364
        45.7504         32.5004
   3879618.305 6                  25382885.258
        36.750
   1367704.02047   -247409.12944  21620373.9534                   21620375.5204
        44.5004         27.0004
 19  3  7  1  4 20.0000000  0  6G01G17G28G19G22G24
   5089793.76246   3893367.83243  23787977.3134                   23787980.2194
        39.7504         19.5004
   3471597.80147   1718247.14845  20868666.0784                   20868664.4224
        47.2504         33.5004
   4814554.09447   3687597.84443  22501530.1334                   22501528.1094
        42.0004         21.0004
   1628865.75447   -810945.53945  20332160.1024                   20332155.7034
        46.2504         34.5004
   3864156.203 5                  25379942.914
        35.000
   1350515.33247   -260802.92244  21617103.1644                   21617103.5634
        44.2504         29.0004
 19  3  7  1  4 25.0000000  0  6G01G17G28G19G22G24
   5092904.41446   3895791.72343  23788570.5234                   23788572.4574
        41.5004         21.5004
   3465725.65248   1713671.46545  20867548.6724                   20867547.1524
        48.0004         32.2504
   4815525.20747   3688354.57443  22501714.6174                   22501713.2504
        42.5004         20.2504
   1613150.08247   -823191.50445  20329169.3524                   20329164.8554
        45.5004         32.2504
   3848701.484 6                  25377002.414
        36.750
   1333330.24247   -274193.86344  21613833.0314                   21613834.0314
        45.0004         29.0004
 19  3  7  1  4 30.0000000  0  6G01G17G28G19G22G24
   5096010.52346   3898212.05143  23789160.8204                   23789163.2074
        40.0004         20.0004
   3459847.49247   1709091.07045  20866430.0634                   20866428.7934
        47.7504         32.2504
   4816483.16847   3689101.01643  22501897.2734                   22501895.5044
        42.0004         21.0004
   1597432.19547   -835439.20745  20326178.2194                   20326174.5744
        45.5004         32.7504
   3833242.141 5                  25374060.781
        34.500
   1316144.38747   -287585.44944  21610562.8914                   21610563.6914
        45.0004         28.0004
 19  3  7  1  4 35.0000000  0  6G01G17G28G19G22G24
   5099124.56347   3900638.55543  23789753.0164                   23789755.7734
        42.2504         19.7504
   3453976.96147   1704516.59045  20865312.3054                   20865311.6684
        46.5004         32.0004
   4817441.73446   3689847.93043  22502078.9694                   22502078.1294
        40.2504         20.7504
   1581726.60947   -847677.36745  20323188.7194                   20323185.4614
        45.0004         32.2504
   3817790.938 6                  25371120.234
        37.500
   1298971.92647   -300966.63744  21607294.3834                   21607295.6334
        45.7504         28.2504
 19  3  7  1  4 40.0000000  0  6G01G17G28G19G22G24
   5102244.37946   3903069.58643  23790347.2974                   23790349.9064
        40.2504         19.0004
   3448115.72347   1699949.42245  20864197.4144                   20864196.1254
        47.0004         33.0004
   4818403.33246   3690597.23443  22502262.4224                   22502260.7854
        41.2504         19.2504
   1566036.89547   -859903.08645  20320203.9614                   20320199.7074
        45.7504         34.0004
   3802346.203 6                  25368181.602
        36.750
   1281813.84847   -314336.56244  21604029.3284                   21604030.2584
        45.0004         28.7504
 19  3  7  1  4 45.0000000  0  6G01G17G28G19G22G24
   5105371.39846   3905506.30143  23790942.3914                   23790944.9264
        39.7504         18.2504
   3442261.66447   1695387.81645  20863083.4224                   20863081.9144
        47.2504         33.0004
   4819368.21146   3691349.09843  22502445.8914                   22502444.3524
        39.0004         18.2504
   1550358.63347   -872119.90645  20317219.9064                   20317216.0784
        45.7504         34.5004
   3786910.047 5                  25365244.117
        35.000
   1264664.84047   -327699.41444  21600766.3284                   21600766.5394
        44.7504         28.5004
 19  3  7  1  4 50.0000000  0  6G01G17G28G19G22G24
   5108496.37946   3907941.34443  23791536.7584                   23791539.5554
        38.7504         18.2504
   3436412.72747   1690830.21545  20861970.1094                   20861969.0554
        47.0004         32.5004
   4820329.92246   3692098.44543  22502628.6414                   22502627.1484
        40.2504         18.5004
   1534694.73447   -884325.53545  20314239.4454                   20314235.6954
        46.0004         33.5004
   3771471.996 6                  25362305.500
        36.250
   1247529.85547   -341051.34444  21597505.2424                   21597506.1484
        44.0004         28.2504
 19  3  7  1  4 55.0000000  0  6G01G17G28G19G22G24
   5111628.30546   3910381.78142  23792132.8594                   23792136.1844
        38.2504         16.7504
   3430569.78547   1686277.25445  20860858.6884                   20860857.3054
        47.2504         33.5004
   4821297.41046   3692852.34443  22502812.9534                   22502811.3284
        40.7504         19.0004
   1519038.96547   -896524.84445  20311260.6724                   20311256.7664
        46.2504         34.5004
   3756043.484 5                  25359369.664
        34.000
   1230395.97747   -354402.41444  21594244.9694                   21594246.4494
        44.0004         28.5004
 19  3  7  1  5  0.0000000  0  6G01G17G28G19G22G24
   5114769.89546   3912829.74642  23792730.5084                   23792734.1804
        37.5004         16.2504
   3424732.73047   1681728.89845  20859748.1174                   20859746.4264
        47.7504         32.2504
   4822268.30145   3693608.96542  22502998.5474                   22502996.0394
        34.7504         17.2504
   1503390.05947   -908718.80145  20308282.8364                   20308279.1844
        46.5004         34.0004
   3740626.449 5                  25356436.305
        35.000
   1213265.60947   -367750.77344  21590985.3284                   21590986.5394
        44.5004         28.7504
 19  3  7  1  5  5.0000000  0  6G01G17G28G19G22G24
                                  23793326.3444                   23793331.4574
        34.0004         15.5004
   3418895.04347   1677180.11745  20858636.4454                   20858635.3954
        44.5004         31.7504
                                  22503179.4304                   22503179.1954
        40.0004         20.5004
                                  20305304.8984                   20305302.1374
        44.5004         34.7504
                                  25353500.570
        32.500
                                  21587725.4534                   21587728.7304
        41.2504         25.5004
 19  3  7  1  5 10.0000000  0  4G17G19G22G24
   3413071.19547   1672642.07445  20857527.5394                   20857527.9774
        45.0004         31.0004
                                  20302332.4064                   20302329.6484
        44.2504         34.0004
                                  25350566.828
        34.500
                                  21584471.5784                   21584474.2424
        42.5004         29.5004
 19  3  7  1  5 15.0000000  0  6G01G17G28G19G22G24
   5124209.22716                  23794525.969
        36.250
   3407248.73447   1668105.03945  20856420.5164                   20856416.8524
        45.5004         34.5004
   4825168.31316                  22503548.602
        37.500
   1456508.63747   -945249.75046  20299361.2894                   20299355.2624
        43.2504         37.0004
   3694389.93816                  25347637.156
        36.750
   1161941.04757   -407743.89855  21581218.0234                   21581216.8014
        43.0004         30.2504
 19  3  7  1  5 20.0000000  0  6G01G17G28G19G22G24
   5127353.93846   3919689.17653  23795125.6254                   23795124.9224
        39.2504         20.0004
   3401418.82847   1663562.22745  20855311.3594                   20855307.1604
        46.2504         35.5004
   4826120.62946   3695141.46553  22503730.5084                   22503725.4574
        38.7504         21.5004
   1440888.13747   -957421.59446  20296388.7274                   20296382.8874
        46.0004         39.0004
   3678978.293 6                  25344704.531
        36.000
   1144839.23047   -421070.00445  21577963.7504                   21577962.9454
        43.5004         32.2504
 19  3  7  1  5 25.0000000  0  5G01G17G28G19G24
   5130501.91445   3922142.02753  23795723.4304                   23795724.6914
        34.2504         20.5004
   3395595.35947   1659024.44945  20854201.6954                   20854199.0554
        43.2504         33.0004
   4827071.02546   3695881.78843  22503909.6644                   22503906.2464
        39.0004         21.5004
   1425280.38147   -969583.48645  20293417.3914                   20293413.0164
        42.2504         35.5004
   1127750.93446   -434385.56244  21574711.4454                   21574711.4144
        41.5004         29.5004
 19  3  7  1  5 30.0000000  0  6G01G17G28G19G22G24
   5133666.59416                  23796325.609
        37.250
   3389788.21947   1654499.43846  20853098.0314                   20853094.8014
        47.2504         36.0004
   4828032.18446   3696630.96143  22504093.1954                   22504089.6844
        39.7504         21.2504
   1409693.96147   -981728.73846  20290452.6644                   20290447.8284
        47.0004         38.5004
   3648179.02716                  25338843.086
        36.000
   1110684.50847   -447684.05944  21571464.9844                   21571464.2814
        43.0004         29.5004
 19  3  7  1  5 35.0000000  0  6G01G17G28G19G22G24
   5136850.85946   3923435.39153  23796932.1724                   23796930.9064
        40.5004         20.0004
   3384000.06347   1649989.17245  20851996.6564                   20851994.9614
        46.5004         35.2504
   4829007.54345   3697390.83243  22504279.0864                   22504276.4304
        35.2504         22.5004
   1394129.71947   -993856.73845  20287491.0164                   20287486.7234
        44.2504         33.0004
   3632808.828 6                  25335918.656
        36.000
   1093638.29347   -460966.86745  21568221.2974                   21568221.3794
        44.5004         30.2504
 19  3  7  1  5 40.0000000  0  6G01G17G28G19G22G24
   5140048.27046   3925926.82443  23797539.7734                   23797539.9224
        40.0004         20.2504
   3378223.16847   1645487.68045  20850896.9614                   20850894.2074
        47.5004         34.5004
   4829991.57046   3698157.66143  22504466.9384                   22504464.1134
        41.5004         22.7504
   1378579.13747  -1005974.09046  20284531.1804                   20284525.9654
        45.5004         36.7504
   3617453.863 5                  25332996.734
        35.500
   1076602.38347   -474241.58645  21564978.5394                   21564978.5474
        43.7504         30.7504
 19  3  7  1  5 45.0000000  0  6G01G17G28G19G22G24
   5143255.05946   3928425.52743  23798148.6174                   23798150.7894
        39.5004         20.0004
   3372454.00447   1640992.12545  20849797.7424                   20849795.7544
        47.5004         34.5004
   4830976.50446   3698925.01643  22504652.7274                   22504651.6414
        40.7504         22.2504
   1363039.52347  -1018082.94146  20281573.0864                   20281567.9184
        46.2504         36.2504
   3602108.941 5                  25330074.438
        34.750
   1059578.21147   -487507.27044  21561737.9144                   21561738.4574
        43.7504         28.2504
 19  3  7  1  5 50.0000000  0  6G01G17G28G19G22G24
   5146470.36756   3930931.05153  23798762.5164                   23798763.4534
        39.5004         19.0004
   3366693.13757   1636503.23055  20848702.5004                   20848700.6214
        47.0004         34.2504
   4831962.91456   3699693.82853  22504841.4224                   22504839.3094
        38.7504         22.0004
   1347514.04847  -1030180.65645  20278619.4144                   20278614.1414
        44.7504         33.0004
                                  25327158.023
        35.750
   1042570.45257   -500759.98854  21558502.1484                   21558502.4734
        43.5004         27.0004
 19  3  7  1  5 55.0000000  0  6G01G17G28G19G22G24
   5149703.92456   3933450.66853  23799377.7974                   23799378.6804
        40.0004         20.0004
   3360941.44347   1632021.42345  20847607.5164                   20847604.7894
        43.0004         31.0004
   4832953.11716                  22505028.547
        37.000
   1331996.37547  -1042272.29846  20275665.7274                   20275661.5204
        44.5004         36.0004
                                  25324242.070
        32.750
   1025572.48046   -514005.12444  21555267.0084                   21555268.8554
        41.0004         26.0004
 19  3  7  1  6  0.0000000  0  6G01G17G28G19G22G24
   5152966.06346   3935992.60943  23799996.3134                   23799999.4804
        38.5004         20.0004
   3355205.27347   1627551.65645  20846515.2274                   20846513.1374
        45.2504         35.5004
   4833959.578 6                  22505219.922
        39.250
   1316489.37947  -1054355.69546  20272714.6334                   20272710.6334
        43.7504         37.7504
   3556169.730 5                  25321332.844
        33.250
   1008582.26646   -527244.27344  21552033.4144                   21552034.4734
        41.5004         27.2504
 19  3  7  1  6  5.0000000  0  6G01G17G28G19G22G24
   5156237.94546   3938542.10543  23800620.0554                   23800622.1334
        40.2504         19.0004
   3349473.62547   1623085.46545  20845425.0314                   20845422.5634
        44.5004         34.7504
   4834965.06646   3701092.15654  22505411.8284                   22505408.6604
        39.5004         24.0004
   1300988.39547  -1066434.37146  20269765.2344                   20269760.4694
        43.7504         38.0004
   3540894.602 5                  25318426.977
        33.000
    991599.21547   -540477.79744  21548802.1174                   21548802.2154
        42.5004         28.2504
 19  3  7  1  6 10.0000000  0  6G01G17G28G19G22G24
   5159505.91046   3941088.53943  23801242.6414                   23801244.2544
        39.0004         18.5004
   3343740.28147   1618617.90245  20844334.2504                   20844331.4024
        44.2504         34.7504
   4835962.60246   3701869.42243  22505601.7274                   22505598.1094
        39.0004         23.5004
   1285491.56647  -1078509.84046  20266816.6174                   20266811.3594
        44.0004         37.7504
   3525616.379 5                  25315519.750
        35.500
    974619.78947   -553708.54744  21545571.1804                   21545571.4064
        42.7504         28.0004
 19  3  7  1  6 15.0000000  0  6G01G17G28G19G22G24
   5162766.98446   3943629.62943  23801863.9144                   23801865.1484
        38.7504         18.2504
   3338002.69947   1614147.03546  20843243.3134                   20843239.8164
        46.2504         36.2504
   4836950.12146   3702638.83644  22505791.0164                   22505787.1764
        40.2504         24.5004
   1269996.48447  -1090583.96146  20263869.3914                   20263863.4104
        46.2504         40.5004
   3510332.289 5                  25312612.500
        32.500
    957640.78147   -566938.94945  21542340.7584                   21542340.2504
        43.0004         31.0004
 19  3  7  1  6 20.0000000  0  6G01G17G28G19G22G24
   5166026.60947   3946169.60243  23802483.2034                   23802486.1764
        42.0004         18.5004
   3332264.15647   1609675.44945  20842150.9454                   20842147.9344
        47.0004         35.5004
   4837930.47747   3703402.80543  22505977.5004                   22505973.8984
        42.2504         22.0004
   1254505.50447  -1102654.84046  20260920.5784                   20260915.3134
        46.0004         38.0004
   3495047.621 5                  25309702.016
        31.500
    940666.26247   -580165.87545  21539110.5864                   21539109.9384
        43.2504         30.7504
 19  3  7  1  6 25.0000000  0  5G01G17G28G19G24
   5169298.086 5                  23803104.281
        35.000
   3326538.40247   1605214.04745  20841060.0864                   20841057.7304
        42.0004         31.0004
   4838914.62546   3704169.89143  22506163.3284                   22506161.0354
        39.0004         22.5004
   1239032.92647  -1114711.16045  20257975.6954                   20257970.9064
        42.0004         34.5004
    923712.85546   -593376.06643  21535883.2974                   21535884.1454
        39.0004         23.5004
 19  3  7  1  6 30.0000000  0  5G01G17G28G19G24
   5172597.375 5                  23803732.367
        33.500
   3320835.71947   1600770.34845  20839975.5474                   20839971.5744
        44.5004         32.0004
   4839918.81346   3704952.30943  22506355.2504                   22506352.0864
        40.5004         22.0004
   1223584.62547  -1126748.85245  20255036.2114                   20255030.5314
        44.2504         34.7504
    906782.48447   -606568.62143  21532661.9224                   21532661.6094
        42.5004         23.0004
 19  3  7  1  6 35.0000000  0  5G01G17G28G19G24
   5175898.332 5                  23804361.289
        33.500
   3315140.39146   1596332.42245  20838891.6024                   20838887.5234
        40.0004         30.7504
   4840923.85545   3705735.46543  22506546.0234                   22506542.6334
        35.0004         22.0004
   1208151.26246  -1138774.82445  20252099.2974                   20252093.3834
        40.0004         34.0004
    889864.98046   -619751.09444  21529442.4614                   21529441.7234
        40.0004         26.2504
 19  3  7  1  6 40.0000000  0  5G01G17G28G19G24
   5179195.652 6                  23804990.445
        36.000
   3309441.05147   1591891.23846  20837808.4694                   20837804.1414
        45.5004         38.7504
   4841918.45346   3706510.33244  22506736.0084                   22506732.0164
        39.7504         27.7504
   1192718.93047  -1150800.19146  20249163.2734                   20249157.5314
        45.0004         41.7504
    872949.97347   -632931.76645  21526225.0394                   21526223.7734
        43.2504         31.7504
 19  3  7  1  6 45.0000000  0  5G01G17G28G19G24
   5182500.215 6                  23805618.281
        37.500
   3303748.88747   1587455.82446  20836725.2584                   20836721.2034
        45.5004         38.0004
   4842914.73446   3707286.68844  22506925.4924                   22506921.3954
        38.7504         26.7504
   1177298.07847  -1162816.39146  20246228.9924                   20246223.4304
        44.5004         40.7504
    856045.77047   -646103.82445  21523008.3594                   21523007.0164
        43.0004         31.5004
 19  3  7  1  6 50.0000000  0  5G01G17G28G19G24
                                  23806248.875
        26.250
   3298066.30547   1583027.89146  20835643.0944                   20835640.4734
        46.5004         36.0004
   4843913.05946   3708064.66043  22507115.2974                   22507111.5824
        41.5004         22.0004
   1161894.70347  -1174818.98446  20243297.4454                   20243292.6134
        46.0004         38.5004
    839158.91447   -659262.37945  21519794.2504                   21519793.8714
        44.5004         30.0004
 19  3  7  1  6 55.0000000  0  4G17G28G19G24
   3292394.18847   1578607.93846  20834563.2894                   20834561.8754
        42.5004         37.5004
   4844918.68445   3708848.14544  22507306.6564                   22507303.5084
        35.5004         26.7504
   1146502.70246  -1186812.85946  20240367.9454                   20240365.5164
        41.7504         39.2504
    822282.54046   -672412.86344  21516581.8524                   21516582.7854
        38.0004         28.5004
 19  3  7  1  7  0.0000000  0  6G01G17G28G19G22G24
   5192467.73416                  23807514.297
        38.500
   3286730.29347   1574194.53546  20833486.0164                   20833483.1174
        46.5004         39.2504
   4845928.99657   3709635.41455  22507498.9844                   22507495.7894
        43.0004         32.5004
   1131123.38747  -1198796.74246  20237441.7974                   20237437.0204
        45.2504         40.7504
                                  25286510.328
        34.000
    805415.50056   -685556.00454  21513373.0704                   21513372.9924
        40.7504         28.7504
 19  3  7  1  7  5.0000000  0  3G17G19G24
                                  20832411.0474                   20832403.0514
        46.0004         38.5004
                                  20234518.031
        45.500
                                  21510165.414
        42.250
 19  3  7  1  7 10.0000000  0  4G17G28G19G24
   3275426.38747   1566266.23046  20831334.4144                   20831332.1214
        45.5004         38.5004
   4727358.69557   3710486.17655  22507886.5784                   22507883.6174
        43.0004         30.7504
   1100395.92447  -1217472.25656  20231594.0704                   20231588.6254
        43.7504         39.0004
   4703332.84746   -702373.07154  21506956.4694                   21506957.0204
        40.5004         25.7504
 19  3  7  1  7 15.0000000  0  4G17G28G19G24
   3269775.76246   1561863.19145  20830257.3984                   20830258.0594
        38.2504         33.5004
                                  22508078.5084                   22508077.9884
        35.2504         25.5004
                                  20228669.6254                   20228668.8794
        37.2504         33.5004
                                  21503748.0474                   21503750.0274
        32.7504         24.0004
 19  3  7  1  7 20.0000000  0  4G17G28G19G24
   3264135.59857   1557643.71156  20829185.6334                   20829184.5274
        47.0004         38.0004
                                  22508272.508
        44.000
   1069688.89157  -1240442.12656  20225750.3444                   20225748.7624
        44.5004         36.7504
   4669623.28557   -727590.59555  21500542.8674                   21500536.2154
        43.5004         32.0004
 19  3  7  1  7 25.0000000  0  6G01G17G28G19G22G24
   4730307.11717                  23810708.141
        42.250
   3258492.87547   1553246.70746  20828112.6644                   20828110.5164
        47.7504         37.2504
   4727559.99847   3712449.27054  22508467.6414                   22508465.1024
        42.7504         28.2504
   1054338.83647  -1252403.26256  20222830.4454                   20222826.5944
        45.2504         37.5004
   4708669.10215                  25272073.703
        31.500
   4652777.57847   -740717.10555  21497338.3054                   21497338.5204
        42.5004         31.2504
 19  3  7  1  7 30.0000000  0  6G01G17G28G19G22G24
   4733683.74246   3951350.30953  23811351.2424                   23811350.8554
        41.5004         21.2504
   3252854.37147   1548853.08646  20827040.4694                   20827038.5784
        47.7504         36.2504
   4728565.40647   3713232.71544  22508659.2114                   22508656.3984
        44.0004         27.7504
   1038999.70347  -1264355.80146  20219911.9454                   20219907.6644
        45.2504         36.5004
   4693518.703 5                  25269191.258
        30.500
   4635951.64547   -753828.19145  21494137.4774                   21494137.2854
        42.2504         32.0004
 19  3  7  1  7 35.0000000  0  6G01G17G28G19G22G24
   4737076.45346   3953993.98443  23811997.3134                   23811997.0434
        41.2504         20.7504
   3247230.88347   1544471.13746  20825970.1094                   20825968.6174
        47.5004         36.5004
   4729573.85547   3714018.50844  22508850.8204                   22508848.5594
        42.7504         29.2504
   1023681.57047  -1276292.02746  20216996.8524                   20216992.4614
        45.5004         37.0004
   4678383.47714                  25266310.859
        29.250
   4619154.47747   -766916.91445  21490940.7194                   21490941.0594
        42.0004         31.0004
 19  3  7  1  7 40.0000000  0  6G01G17G28G19G22G24
   4740487.49646   3956651.92643  23812646.2504                   23812646.1764
        41.7504         19.7504
   3241625.08647   1540102.98846  20824903.5004                   20824901.4024
        47.7504         36.2504
   4730594.27347   3714813.62144  22509045.5864                   22509042.9384
        42.7504         28.0004
   1008385.38347  -1288211.13346  20214086.4694                   20214082.0394
        45.5004         36.5004
                                  25263434.836
        29.500
   4602379.35247   -779988.44145  21487748.5004                   21487749.0634
        42.0004         30.5004
 19  3  7  1  7 45.0000000  0  6G01G17G28G19G22G24
   4743916.50446   3959323.85943  23813298.5784                   23813298.7974
        41.5004         20.0004
   3236036.60547   1535748.33246  20823839.8834                   20823837.5514
        47.5004         36.2504
   4731626.19547   3715617.71944  22509242.2814                   22509238.9574
        43.0004         28.0004
    993110.70747  -1300113.48046  20211179.0234                   20211175.2304
        45.2504         36.5004
   4648171.371 4                  25260562.055
        26.750
   4585626.02047   -793042.98045  21484560.6564                   21484561.3284
        42.2504         30.5004
 19  3  7  1  7 50.0000000  0  6G01G17G28G19G22G24
   4747362.28146   3962008.91443  23813954.3444                   23813955.0824
        41.2504         20.2504
   3230464.32848   1531406.28946  20822780.1334                   20822777.4384
        48.0004         36.7504
   4732668.50847   3716429.91444  22509440.1414                   22509437.4494
        43.0004         28.0004
    977856.46147  -1311999.89546  20208276.9224                   20208272.2934
        45.2504         36.7504
                                  25257692.180
        26.250
   4568893.31647   -806081.44545  21481376.5234                   21481376.6134
        42.7504         31.0004
 19  3  7  1  7 55.0000000  0  6G01G17G28G19G22G24
   4750823.64146   3964706.01643  23814613.6254                   23814613.4344
        41.2504         19.2504
   3224906.95747   1527075.88346  20821722.5084                   20821720.0864
        47.7504         37.0004
   4733719.91047   3717249.19144  22509639.8204                   22509637.4534
        43.0004         27.2504
    962621.39147  -1323871.38346  20205377.5944                   20205372.8984
        45.5004         36.7504
   4618031.38714                  25254827.477
        25.250
   4552179.85947   -819104.93445  21478195.7034                   21478196.1174
        42.5004         30.5004
 19  3  7  1  8  0.0000000  0  6G01G17G28G19G22G24
   4754299.21946   3967414.29743  23815274.4454                   23815275.7974
        41.5004         19.0004
   3219363.27047   1522756.11746  20820667.1724                   20820664.8324
        47.5004         36.2504
   4734779.30147   3718074.68844  22509842.2734                   22509838.7424
        43.0004         27.5004
    947404.23047  -1335728.91046  20202481.6724                   20202477.3484
        45.2504         36.7504
                                  25251962.102
        27.250
   4535484.55547   -832114.25045  21475018.7194                   21475019.6294
        43.0004         31.0004
 19  3  7  1  8  5.0000000  0  6G01G17G28G19G22G24
   4757788.27047   3970133.03943  23815938.3594                   23815939.1724
        42.2504         19.5004
   3213832.40248   1518446.34446  20819614.9384                   20819612.1604
        48.0004         36.2504
   4735845.65247   3718905.65244  22510044.2734                   22510042.0434
        42.0004         28.0004
    932204.14147  -1347573.17245  20199589.2814                   20199584.8594
        45.0004         35.7504
                                  25249102.117
        29.250
                                  21471845.211
        28.000
 19  3  7  1  8 10.0000000  0  5G01G17G28G19G24
   4761290.21146   3972861.82843  23816605.0314                   23816605.7894
        41.5004         19.2504
   3208313.77047   1514146.12146  20818564.6884                   20818562.0594
        47.5004         37.0004
   4736918.52747   3719741.60244  22510249.3444                   22510246.1374
        43.0004         29.2504
    917020.61747  -1359404.45746  20196699.6644                   20196695.2034
        44.2504         36.0004
   4502144.68814                  21468674.078
        28.250
 19  3  7  1  8 15.0000000  0  4G01G17G28G19
   4764804.24546   3975600.02243  23817273.4534                   23817274.9344
        40.7504         19.5004
   3202806.67247   1509854.87546  20817516.3364                   20817514.2544
        47.7504         36.0004
   4737997.09447   3720582.05144  22510453.7424                   22510451.5514
        43.0004         27.5004
    901852.82447  -1371223.51646  20193813.0634                   20193809.5784
        45.0004         37.0004
 19  3  7  1  8 20.0000000  0  4G01G17G28G19
   4768330.09046   3978347.47743  23817944.7664                   23817945.7974
        41.0004         18.5004
   3197310.76247   1505572.34846  20816470.7664                   20816468.8014
        47.7504         36.5004
   4739081.07847   3721426.72344  22510659.8284                   22510657.9414
        42.2504         28.0004
    886700.53947  -1383030.48446  20190929.7974                   20190926.3164
        45.5004         37.0004
 19  3  7  1  8 25.0000000  0  4G01G17G28G19
   4771867.85247   3981104.18443  23818618.0314                   23818618.9734
        42.0004         19.2504
   3191826.23048   1501298.68046  20815427.1564                   20815424.7854
        48.0004         36.2504
   4740170.62947   3722275.71944  22510868.5234                   22510865.0984
        43.2504         26.5004
    871563.89847  -1394825.25845  20188049.9844                   20188045.6334
        44.2504         34.5004
 19  3  7  1  8 30.0000000  0  5G01G17G28G19G24
   4775417.53147   3983870.10543  23819293.1334                   23819294.5394
        42.0004         19.2504
   3186352.96547   1497033.80945  20814385.1644                   20814384.0864
        47.5004         35.2504
   4741265.71947   3723129.06644  22511076.1884                   22511073.6214
        43.0004         27.0004
    856442.89547  -1406607.84845  20185172.3284                   20185168.0944
        45.5004         35.5004
   4714976.24616                  21456021.977
        38.000
 19  3  7  1  8 35.0000000  0  5G01G17G28G19G24
   4778978.88746   3986645.22743  23819970.0864                   23819972.2624
        41.7504         19.7504
   3180890.85247   1492777.58246  20813346.0394                   20813344.5164
        47.7504         37.0004
   4742366.19947   3723986.53544  22511285.5864                   22511283.3674
        43.0004         27.0004
    841337.33247  -1418378.43445  20182298.1724                   20182294.2384
        45.5004         35.7504
   4698394.328 6                  21452868.078
        38.500
 19  3  7  1  8 40.0000000  0  5G01G17G28G19G24
   4782551.89546   3989429.38743  23820650.5704                   23820652.1764
        41.7504         18.2504
   3175439.82847   1488530.06645  20812309.0864                   20812307.4224
        47.5004         33.5004
   4743471.96147   3724848.20344  22511495.6644                   22511493.9064
        42.5004         26.5004
    826247.13747  -1430137.00445  20179425.8984                   20179422.0984
        45.2504         33.7504
   4681828.04346   -851796.19953  21449715.1644                   21449714.3874
        38.2504         19.5004
 19  3  7  1  8 45.0000000  0  5G01G17G28G19G24
   4786136.06347   3992222.25443  23821332.3984                   23821334.5274
        42.0004         19.5004
   3169999.41847   1484290.78945  20811272.9064                   20811271.8754
        47.2504         34.5004
   4744582.63347   3725713.65644  22511707.0164                   22511705.4844
        42.5004         27.7504
    811171.94147  -1441883.93045  20176557.4144                   20176553.8094
        45.7504         35.7504
   4665276.98046   -864693.11343  21446565.9534                   21446565.4414
        38.7504         18.5004
 19  3  7  1  8 50.0000000  0  5G01G17G28G19G24
   4789731.68446   3995024.02343  23822017.4534                   23822018.7704
        41.2504         19.7504
   3164569.85947   1480059.96145  20810240.3524                   20810238.6294
        47.0004         33.5004
   4745698.39547   3726583.09844  22511919.7034                   22511917.4344
        42.7504         25.7504
    796111.89147  -1453619.02045  20173691.7814                   20173687.8554
        46.2504         34.5004
   4648741.34446   -877578.02743  21443419.2344                   21443418.8164
        39.7504         18.5004
 19  3  7  1  8 55.0000000  0  5G01G17G28G19G24
   4793338.60946   3997834.62543  23822703.3594                   23822705.1884
        41.7504         20.0004
   3159151.10947   1475837.55145  20809209.1414                   20809207.3634
        47.0004         35.5004
   4746819.20347   3727456.42244  22512133.3054                   22512130.3244
        43.0004         28.0004
    781066.93847  -1465342.36346  20170828.9384                   20170825.1914
        46.2504         37.0004
   4632221.13346   -890450.92643  21440275.1174                   21440275.6094
        40.0004         18.2504
 19  3  7  1  9  0.0000000  0  5G01G17G28G19G24
   4796957.00047   4000654.11743  23823391.7194                   23823393.3914
        42.2504         19.2504
   3153743.34847   1471623.71945  20808180.0084                   20808178.2384
        47.2504         34.7504
   4747945.19547   3728333.84044  22512347.5864                   22512345.2194
        43.2504         28.0004
    766037.28947  -1477053.78546  20167968.5474                   20167964.6374
        46.0004         36.0004
   4615716.46546   -903311.72742  21437134.8984                   21437135.3094
        39.2504         17.2504
 19  3  7  1  9  5.0000000  0  5G01G17G28G19G24
   4800586.39146   4003482.30543  23824082.0234                   23824084.5664
        41.5004         19.2504
   3148346.01647   1467418.00045  20807152.8524                   20807151.2034
        47.5004         34.7504
   4749075.94547   3729214.93444  22512562.0634                   22512559.9774
        42.5004         26.0004
    751022.42247  -1488753.68045  20165111.0864                   20165107.6764
        46.2504         35.5004
   4599226.77346   -916160.81642  21433996.7114                   21433997.2934
        39.7504         16.2504
 19  3  7  1  9 10.0000000  0  5G01G17G28G19G24
   4804226.86747   4006318.98043  23824775.9454                   23824776.9614
        42.5004         19.7504
   3142959.18047   1463220.46945  20806127.8054                   20806126.0514
        47.2504         35.5004
   4750211.49247   3730099.75444  22512778.8754                   22512776.2154
        43.0004         28.2504
    736022.43847  -1500441.99246  20162257.1644                   20162253.2734
        47.0004         37.5004
   4582752.36746   -928998.02342  21430861.7274                   21430862.7934
        39.5004         16.7504
 19  3  7  1  9 15.0000000  0  5G01G17G28G19G24
   4807878.61346   4009164.52343  23825470.4534                   23825472.1094
        41.5004         19.7504
   3137583.30547   1459031.47745  20805104.9694                   20805103.3324
        47.0004         34.7504
   4751352.07047   3730988.53544  22512994.8204                   22512993.0274
        43.0004         26.7504
    721037.61347  -1512118.46946  20159405.5474                   20159401.1524
        46.2504         36.5004
   4566293.47346   -941823.13342  21427729.5394                   21427730.7894
        38.5004         16.7504
 19  3  7  1  9 20.0000000  0  5G01G17G28G19G24
   4811541.49647   4012018.68443  23826167.5474                   23826169.1564
        42.0004         19.5004
   3132218.01647   1454850.73045  20804083.7114                   20804082.3954
        47.0004         34.0004
   4752497.50047   3731881.07444  22513213.7584                   22513211.1334
        43.0004         25.7504
    706067.72347  -1523783.32045  20156556.9694                   20156553.1294
        46.5004         35.2504
   4549849.93446   -954636.26242  21424600.0634                   21424602.1024
        40.0004         16.7504
 19  3  7  1  9 25.0000000  0  5G01G17G28G19G24
   4815215.79346   4014881.80943  23826866.5084                   23826868.2194
        41.7504         19.2504
   3126863.66047   1450678.50445  20803065.1884                   20803063.1334
        47.5004         33.7504
   4753648.12947   3732777.66444  22513432.1254                   22513430.3874
        42.5004         25.2504
    691113.13747  -1535436.23846  20153711.0554                   20153707.2814
        46.2504         36.0004
   4533421.96946   -967437.30542  21421475.1484                   21421475.9494
        39.2504         16.7504
 19  3  7  1  9 30.0000000  0  5G01G17G28G19G24
   4818901.25846   4017753.58643  23827567.1564                   23827569.1094
        41.7504         19.7504
   3121519.96947   1446514.60245  20802047.9694                   20802046.2234
        46.7504         34.2504
   4754803.69947   3733678.11344  22513652.4924                   22513649.8984
        43.0004         26.0004
    676173.61747  -1547077.42646  20150868.2194                   20150864.3874
        46.7504         36.5004
   4517009.23846   -980226.41842  21418350.4924                   21418352.2814
        39.5004         17.2504
 19  3  7  1  9 35.0000000  0  5G01G17G28G19G24
   4822598.10246   4020634.24643  23828271.5784                   23828273.1024
        41.7504         20.0004
   3116187.17648   1442359.16045  20801033.4614                   20801031.7854
        48.0004         34.7504
   4755964.44147   3734582.60244  22513873.0474                   22513871.0554
        42.2504         26.5004
    661249.39147  -1558706.69546  20148028.1644                   20148024.5904
        46.2504         36.2504
   4500612.17246   -993003.35542  21415231.6484                   21415232.0474
        39.7504         17.2504
 19  3  7  1  9 40.0000000  0  5G01G17G28G19G24
   4826306.43846   4023523.88343  23828977.2034                   23828978.2384
        41.7504         19.0004
   3110865.37947   1438212.32445  20800020.6884                   20800018.8014
        47.7504         35.5004
   4757130.52346   3735491.21944  22514095.6024                   22514092.8554
        41.7504         25.0004
    646340.59847  -1570323.91846  20145191.0474                   20145187.3634
        46.5004         36.0004
   4484230.93046  -1005767.98042  21412114.1724                   21412115.0314
        40.0004         17.7504
 19  3  7  1  9 45.0000000  0  5G01G17G28G19G24
   4830026.27046   4026422.43443  23829684.4774                   23829685.8954
        41.5004         19.0004
   3105554.55947   1434074.01645  20799010.1804                   20799008.1764
        47.5004         33.7504
   4758301.91447   3736403.99244  22514318.3204                   22514316.0044
        43.0004         24.7504
    631447.22747  -1581929.14845  20142357.1094                   20142353.3404
        46.5004         35.0004
   4467865.31646  -1018520.39143  21408999.3134                   21409000.6954
        39.5004         18.2504
 19  3  7  1  9 50.0000000  0  5G01G17G28G19G24
   4833757.86346   4029330.18443  23830394.4924                   23830396.3954
        41.5004         19.5004
   3100255.01647   1429944.50845  20798001.0864                   20797999.3954
        47.0004         33.5004
   4759478.89147   3737321.13744  22514541.8134                   22514539.5394
        42.5004         24.0004
    616569.53147  -1593522.15645  20139525.7424                   20139522.0044
        46.5004         35.5004
   4451515.77046  -1031260.31643  21405887.7424                   21405889.5084
        39.2504         18.2504
 19  3  7  1  9 55.0000000  0  5G01G17G28G19G24
   4837500.93046   4032246.85243  23831107.4384                   23831108.3554
        41.0004         18.5004
   3094966.53147   1425823.60545  20796995.2734                   20796993.5354
        46.7504         33.5004
   4760661.17247   3738242.37544  22514767.2034                   22514764.4654
        42.5004         25.5004
    601707.29747  -1605103.12145  20136697.6884                   20136693.9574
        46.5004         35.2504
   4435181.91446  -1043987.98442  21402779.7194                   21402781.2704
        39.0004         17.2504
 19  3  7  1 10  0.0000000  0  5G01G17G28G19G24
   4841255.28147   4035172.29343  23831822.3834                   23831822.8714
        42.0004         18.5004
   3089688.91047   1421711.16845  20795991.0234                   20795988.7974
        47.5004         34.0004
   4761848.57847   3739167.64844  22514993.1884                   22514991.1524
        42.7504         25.5004
    586860.27047  -1616672.22745  20133872.6804                   20133868.6644
        46.2504         34.7504
   4418863.69146  -1056703.45742  21399674.7734                   21399676.2344
        39.0004         17.2504
 19  3  7  1 10  5.0000000  0  5G01G17G28G19G24
   4845021.19146   4038106.86343  23832538.1484                   23832540.1454
        41.0004         18.2504
   3084422.39847   1417607.40245  20794988.5474                   20794987.0044
        47.2504         34.0004
   4763041.48847   3740097.16444  22515220.4384                   22515217.4574
        43.0004         25.2504
    572028.82847  -1628229.20745  20131050.0944                   20131046.5704
        46.5004         35.2504
   4402561.35246  -1069406.62142  21396573.1174                   21396573.8284
        39.2504         15.5004
 19  3  7  1 10 10.0000000  0  5G01G17G28G19G24
   4848798.72346   4041050.30143  23833257.1484                   23833258.8484
        41.7504         19.0004
   3079166.98847   1413512.27345  20793988.7424                   20793986.6644
        47.0004         35.2504
   4764239.85947   3741030.97344  22515447.8524                   22515445.6414
        43.0004         27.0004
    557212.96547  -1639774.02746  20128230.5164                   20128226.5744
        47.0004         37.0004
   4386275.10546  -1082097.16442  21393472.9844                   21393474.2854
        39.0004         17.2504
 19  3  7  1 10 15.0000000  0  5G01G17G28G19G24
   4852587.71146   4044002.77743  23833977.9614                   23833979.7384
        41.5004         19.0004
   3073922.62947   1409425.76245  20792990.9064                   20792988.6334
        47.0004         34.2504
   4765443.57847   3741968.95744  22515677.0634                   22515674.7664
        42.2504         25.7504
    542412.55547  -1651306.80545  20125414.4224                   20125410.4264
        46.2504         35.7504
   4370004.75846  -1094775.34042  21390377.4224                   21390378.7934
        39.2504         17.2504
 19  3  7  1 10 20.0000000  0  5G01G17G28G19G24
   4856388.17246   4046964.17643  23834701.7894                   23834702.7274
        41.5004         18.2504
   3068689.27047   1405347.82845  20791995.1724                   20791992.7664
        46.5004         34.0004
   4766652.69547   3742911.09844  22515907.2814                   22515904.5354
        43.0004         26.7504
    527627.64147  -1662827.52746  20122600.9224                   20122596.9104
        46.2504         36.5004
   4353750.15646  -1107441.30142  21387283.3754                   21387285.5124
        39.5004         17.2504
 19  3  7  1 10 25.0000000  0  5G01G17G28G19G24
   4860199.78946   4049934.29743  23835426.8594                   23835428.8404
        41.5004         18.5004
   3063466.61347   1401278.22745  20791000.8914                   20790998.9614
        47.0004         33.5004
   4767866.81647   3743857.17644  22516137.8364                   22516135.9184
        42.5004         26.0004
    512857.89847  -1674336.40645  20119790.3984                   20119786.4734
        46.5004         35.5004
   4337511.08646  -1120095.07442  21384193.9924                   21384195.4774
        39.0004         16.7504
 19  3  7  1 10 30.0000000  0  5G01G17G28G19G24
   4864022.76246   4052913.21543  23836153.8914                   23836155.7304
        41.5004         18.2504
   3058254.89147   1397217.13745  20790009.1094                   20790007.1454
        47.2504         33.0004
   4769086.25447   3744807.37943  22516370.7584                   22516367.8284
        42.0004         22.7504
    498103.52347  -1685833.32045  20116982.8674                   20116978.8014
        46.2504         35.0004
   4321287.81346  -1132736.65242  21381106.8524                   21381108.0904
        39.2504         17.2504
 19  3  7  1 10 35.0000000  0  5G01G17G28G19G24
   4867856.97747   4055900.90243  23836884.2664                   23836885.2234
        42.2504         19.2504
   3053054.03947   1393164.52745  20789019.7814                   20789017.6844
        47.0004         35.2504
   4770310.91847   3745761.66044  22516603.0234                   22516600.7544
        42.7504         26.7504
    483364.48447  -1697318.29346  20114177.9224                   20114173.8594
        46.5004         37.5004
   4305080.47346  -1145365.70342  21378022.4694                   21378023.8364
        39.5004         17.7504
 19  3  7  1 10 40.0000000  0  5G01G17G28G19G24
   4871702.10946   4058897.15643  23837614.8364                   23837617.3054
        40.7504         19.0004
   3047863.68847   1389120.09845  20788031.7974                   20788030.0394
        47.0004         34.0004
   4771540.32847   3746719.65244  22516836.4924                   22516834.6954
        42.0004         25.0004
    468640.35947  -1708791.62545  20111375.8914                   20111371.9104
        46.2504         35.5004
   4288888.40646  -1157982.88342  21374941.3284                   21374942.7504
        39.0004         17.2504
 19  3  7  1 10 45.0000000  0  5G01G17G28G19G24
   4875558.41847   4061902.01243  23838349.9144                   23838351.4344
        42.2504         19.0004
   3042684.11747   1385084.11745  20787046.4924                   20787044.6884
        47.7504         35.0004
   4772774.94947   3747681.68444  22517072.2114                   22517069.9304
        42.2504         26.7504
    453931.49647  -1720253.09446  20108577.2734                   20108573.1764
        46.0004         36.7504
   4272711.82856  -1170588.04352  21371863.2194                   21371864.3554
        37.5004         16.2504
 19  3  7  1 10 50.0000000  0  5G01G17G28G19G24
   4879425.80146   4064915.59843  23839084.9534                   23839087.2774
        40.7504         18.2504
   3037515.32847   1381056.46145  20786062.4534                   20786060.5274
        47.0004         34.0004
   4774014.64547   3748647.69144  22517308.0234                   22517305.5164
        42.0004         26.7504
    439237.85247  -1731702.66045  20105780.4534                   20105776.8014
        46.0004         35.5004
   4256550.84456  -1183181.00452  21368787.4224                   21368789.3404
        38.5004         15.5004
 19  3  7  1 10 55.0000000  0  5G01G17G28G19G24
   4883304.68847   4067938.08243  23839823.2424                   23839825.3714
        42.5004         19.0004
   3032357.60247   1377037.47345  20785081.3754                   20785079.4844
        47.2504         32.5004
   4775259.69547   3749617.86743  22517545.2584                   22517542.5824
        42.5004         21.7504
    424559.74647  -1743140.14545  20102987.5784                   20102983.7034
        45.5004         33.2504
   4240405.94946  -1195761.41042  21365715.3594                   21365716.8554
        38.7504         16.7504
 19  3  7  1 11  0.0000000  0  5G01G17G28G19G24
   4887195.13346   4070969.59443  23840563.2194                   23840565.8054
        41.2504         19.5004
   3027211.10247   1373027.17645  20784101.5784                   20784100.3364
        46.5004         34.7504
   4776510.35547   3750592.39844  22517782.8594                   22517780.9264
        42.2504         26.0004
    409897.39547  -1754565.35945  20100197.2974                   20100193.5554
        45.2504         35.0004
   4224277.20746  -1208329.29342  21362645.7424                   21362647.4344
        40.2504         16.7504
 19  3  7  1 11  5.0000000  0  5G01G17G28G19G24
   4891096.84447   4074009.91843  23841306.5864                   23841307.9024
        42.0004         18.2504
   3022075.48047   1369025.42645  20783124.7894                   20783122.1604
        47.5004         32.5004
   4777766.24247   3751571.04743  22518021.8204                   22518019.6884
        42.0004         22.5004
    395250.45747  -1765978.53145  20097410.1644                   20097406.1994
        45.5004         33.2504
   4208164.32046  -1220884.77743  21359580.1334                   21359581.2584
        39.7504         18.5004
 19  3  7  1 11 10.0000000  0  5G01G17G28G19G24
   4895009.84046   4077058.96143  23842050.1724                   23842052.2074
        39.2504         19.0004
   3016950.83648   1365032.17245  20782149.5634                   20782146.5514
        48.2504         34.5004
   4779027.41047   3752553.71544  22518262.2194                   22518258.8164
        42.2504         25.7504
    380618.93847  -1777379.77046  20094625.5704                   20094620.7424
        46.0004         36.7504
   4192067.63745  -1233427.70342  21356516.4534                   21356518.5354
        35.0004         16.7504
 19  3  7  1 11 15.0000000  0  5G01G17G28G19G24
   4898934.12147   4080116.85242  23842797.4924                   23842798.7074
        42.0004         17.7504
   3011837.11348   1361047.44545  20781176.4534                   20781173.5944
        48.2504         33.7504
   4780293.94947   3753540.66444  22518503.6644                   22518499.8914
        43.0004         24.7504
    366002.93847  -1788768.82045  20091845.2114                   20091839.7544
        46.5004         34.7504
   4175986.12547  -1245958.72742  21353456.6954                   21353458.8404
        42.2504         17.7504
 19  3  7  1 11 20.0000000  0  5G01G17G28G19G24
   4902869.78146   4083183.62942  23843545.8444                   23843547.9104
        41.0004         17.2504
   3006734.35248   1357071.27745  20780205.4454                   20780202.4654
        48.0004         34.0004
   4781565.80147   3754531.71544  22518745.0864                   22518741.7344
        43.0004         25.0004
    351402.42647  -1800145.84045  20089066.4144                   20089061.4414
        46.2504         35.0004
   4159920.96547  -1258477.01243  21350399.5394                   21350400.5984
        43.5004         22.5004
 19  3  7  1 11 25.0000000  0  5G01G17G28G19G24
   4906816.48046   4086258.96142  23844297.9224                   23844298.6414
        41.5004         17.2504
   3001642.41847   1353103.53945  20779236.1804                   20779233.6414
        47.7504         33.5004
   4782842.79347   3755526.78144  22518987.9774                   22518984.5744
        42.2504         26.0004
    336817.19547  -1811510.95745  20086290.9844                   20086285.8484
        46.2504         34.5004
   4143871.55547  -1270983.04344  21347345.5314                   21347346.1454
        42.5004         26.2504
 19  3  7  1 11 30.0000000  0  5G01G17G28G19G24
   4910774.62146   4089343.24642  23845050.9384                   23845051.7384
        41.5004         17.7504
   2996561.56347   1349144.42645  20778269.5314                   20778266.7304
        47.7504         33.5004
   4784125.27347   3756526.08644  22519232.7194                   22519229.2544
        42.2504         24.5004
    322247.59047  -1822863.89545  20083518.1954                   20083513.1724
        46.0004         35.0004
   4127838.10547  -1283476.62944  21344294.5474                   21344295.2734
        42.7504         24.5004
 19  3  7  1 11 35.0000000  0  5G01G17G28G19G24
   4914743.78146   4092436.10242  23845805.4454                   23845807.0084
        41.2504         17.7504
   2991491.42647   1345193.68045  20777304.9144                   20777301.5514
        47.7504         34.0004
   4785412.82847   3757529.37144  22519477.5784                   22519474.1454
        42.7504         24.7504
    307693.28147  -1834204.91845  20080748.2734                   20080743.9384
        45.7504         34.5004
   4111820.39147  -1295957.97344  21341246.4774                   21341246.5634
        42.5004         24.5004
 19  3  7  1 11 40.0000000  0  5G01G17G28G19G24
   4918723.99646   4095537.55942  23846562.6954                   23846563.9144
        41.2504         17.2504
   2986432.01648   1341251.27345  20776342.0234                   20776339.1684
        48.0004         33.7504
   4786705.46947   3758536.66043  22519722.5784                   22519720.0204
        42.5004         22.7504
    293154.20747  -1845534.06245  20077982.0234                   20077977.4414
        46.0004         34.7504
   4095818.37147  -1308427.06244  21338201.3364                   21338201.3594
        42.0004         24.2504
 19  3  7  1 11 45.0000000  0  5G01G17G28G19G24
   4922715.37546   4098647.73043  23847322.9304                   23847323.6914
        41.2504         18.2504
   2981383.44947   1337317.32845  20775381.1724                   20775378.2664
        47.7504         34.0004
   4788003.41447   3759548.02744  22519970.2504                   22519966.2464
        42.2504         25.0004
    278630.57447  -1856851.17645  20075218.4774                   20075213.6024
        46.0004         34.7504
   4079832.23047  -1320883.80544  21335159.1414                   21335159.3284
        42.0004         24.2504
 19  3  7  1 11 50.0000000  0  5G01G17G28G19G24
   4926718.17246   4101766.80942  23848085.5314                   23848085.5124
        41.7504         17.7504
   2976346.00447   1333392.04345  20774422.9064                   20774419.8634
        47.7504         34.0004
   4789306.84047   3760563.67644  22520218.7974                   22520214.5634
        42.5004         24.5004
    264122.55547  -1868156.13345  20072457.3444                   20072452.5314
        46.0004         34.5004
   4063862.35947  -1333327.87144  21332120.4384                   21332120.2584
        42.2504         25.5004
 19  3  7  1 11 55.0000000  0  5G01G17G28G19G24
   4930732.19146   4104894.61742  23848848.6484                   23848849.1884
        41.2504         16.7504
   2971319.47748   1329475.27045  20773466.2034                   20773463.3914
        48.2504         34.0004
   4790615.59447   3761583.49244  22520467.4694                   22520463.6994
        42.7504         25.0004
    249630.09447  -1879448.94945  20069699.7894                   20069694.9614
        46.0004         34.5004
   4047908.44547  -1345759.48444  21329084.0474                   21329083.9384
        42.5004         24.5004
 19  3  7  1 12  0.0000000  0  5G01G17G28G19G24
   4934757.46146   4108031.16442  23849615.2274                   23849615.3014
        41.2504         16.7504
   2966303.96547   1325567.09045  20772511.4064                   20772509.2274
        47.5004         33.7504
   4791929.80947   3762607.54744  22520717.1724                   22520714.2974
        42.5004         25.2504
    235153.20347  -1890729.64545  20066944.6954                   20066939.8554
        46.0004         34.5004
   4031970.64547  -1358178.55144  21326051.7584                   21326051.4694
        42.5004         25.2504
 19  3  7  1 12  5.0000000  0  5G01G17G28G19G24
   4938794.12946   4111176.64842  23850382.9064                   23850383.2304
        41.5004         17.7504
   2961299.58247   1321667.54745  20771559.8444                   20771556.3634
        47.5004         33.5004
   4793249.55147   3763635.92244  22520968.7034                   22520965.2384
        42.7504         25.0004
    220691.98847  -1901998.12945  20064193.1954                   20064188.0944
        46.0004         34.7504
   4016049.05947  -1370584.97744  21323022.2344                   21323021.7384
        42.2504         25.0004
 19  3  7  1 12 10.0000000  0  5G01G17G28G19G24
   4942841.83246   4114330.66042  23851152.9064                   23851153.6054
        41.5004         17.2504
   2956305.89548   1317776.38345  20770609.3674                   20770606.3634
        48.0004         34.0004
   4794574.42647   3764668.29743  22521220.3594                   22521217.4774
        43.0004         23.5004
    206246.12147  -1913254.64145  20061443.8914                   20061438.9884
        45.7504         34.5004
   4000143.28947  -1382979.09444  21319994.9144                   21319994.9654
        42.7504         25.7504
 19  3  7  1 12 15.0000000  0  5G01G17G28G19G24
   4946901.10246   4117493.70742  23851925.0234                   23851925.9534
        40.7504         17.2504
   2951323.61347   1313894.08645  20769660.7504                   20769658.4844
        47.5004         33.5004
   4795904.98047   3765705.10544  22521473.8284                   22521470.4454
        43.0004         24.0004
    191816.14147  -1924498.78945  20058697.8524                   20058693.3164
        45.5004         34.2504
   3984253.80947  -1395360.51244  21316971.1334                   21316971.0514
        42.0004         24.5004
 19  3  7  1 12 20.0000000  0  5G01G17G28G19G24
   4950971.90646   4120665.79342  23852700.1804                   23852700.3484
        41.0004         16.2504
   2946352.59848   1310020.55945  20768715.5164                   20768712.1844
        48.0004         33.5004
   4797241.23447   3766746.33643  22521727.9064                   22521724.7974
        42.0004         22.5004
    177402.02747  -1935730.55945  20055954.8284                   20055950.2624
        46.0004         34.5004
   3968380.76647  -1407729.11344  21313950.9614                   21313950.3714
        42.5004         26.0004
 19  3  7  1 12 25.0000000  0  5G01G17G28G19G24
   4955054.46546   4123846.98042  23853477.3204                   23853477.5004
        41.2504         17.2504
   2941393.14847   1306156.05545  20767771.0944                   20767768.5944
        47.5004         33.5004
   4798583.40247   3767792.15644  22521983.7034                   22521980.1374
        42.5004         25.2504
    163004.00447  -1946949.79345  20053214.9454                   20053210.7034
        45.5004         34.2504
   3952524.22347  -1420084.87543  21310933.0084                   21310933.1564
        42.0004         23.7504
 19  3  7  1 12 30.0000000  0  5G01G17G28G19G24
   4959148.59446   4127037.23842  23854255.7504                   23854256.8404
        40.7504         16.7504
   2936444.97748   1302300.32445  20766829.8364                   20766827.0984
        48.0004         33.5004
   4799931.32447   3768842.49644  22522240.5704                   22522237.0084
        44.0004         25.2504
    148621.94547  -1958156.59445  20050478.7194                   20050474.0274
        46.2504         34.7504
   3936684.30147  -1432427.66443  21307919.0944                   21307918.8634
        42.5004         23.7504
 19  3  7  1 12 35.0000000  0  5G01G17G28G19G24
   4963254.23447   4130236.33643  23855037.4844                   23855037.4924
        42.2504         18.2504
   2931508.03947   1298453.37545  20765890.1644                   20765887.4924
        47.7504         33.7504
   4801285.11347   3769897.41844  22522497.3284                   22522494.4414
        43.7504         25.2504
    134255.85247  -1969350.96145  20047744.9144                   20047739.8484
        46.2504         35.5004
   3920860.73447  -1444757.70344  21304907.8364                   21304908.1414
        43.0004         25.2504
 19  3  7  1 12 40.0000000  0  5G01G17G28G19G24
   4967370.89146   4133444.15643  23855820.6484                   23855821.1884
        41.5004         18.5004
   2926581.82048   1294614.76245  20764953.0704                   20764950.0164
        48.0004         34.0004
   4802643.90647   3770956.20743  22522755.6884                   22522753.1294
        42.5004         23.2504
    119905.11347  -1980533.34445  20045013.5864                   20045009.1884
        46.0004         34.5004
   3905053.27047  -1457075.23044  21301899.8674                   21301899.6764
        42.7504         24.7504
 19  3  7  1 12 45.0000000  0  5G01G17G28G19G24
   4971502.27747   4136663.39543  23856607.1564                   23856606.4574
        42.2504         20.0004
   2921668.76248   1290786.38345  20764018.5634                   20764014.7384
        48.2504         33.2504
   4804016.85247   3772025.98444  22523018.3134                   22523013.7234
        44.0004         26.0004
    105569.12747  -1991704.27145  20042286.4224                   20042280.7704
        46.5004         34.7504
   3889254.14147  -1469386.25844  21298894.1804                   21298892.9694
        44.0004         24.0004
 19  3  7  1 12 50.0000000  0  6G01G17G28G19G22G24
   4975649.63346   4139895.15643  23857394.6644                   23857396.6254
        40.5004         20.2504
   2916770.78547   1286969.80145  20763084.3284                   20763082.9344
        46.7504         32.7504
   4805406.08647   3773108.53943  22523279.7734                   22523278.7464
        42.5004         22.5004
     91249.26247  -2002862.57445  20039559.2034                   20039555.3364
        44.2504         33.5004
   4612842.22715                  25090215.141
        33.000
   3873463.57846  -1481690.55543  21295886.2344                   21295888.2034
        41.0004         23.0004
 19  3  7  1 12 55.0000000  0  6G01G17G28G19G22G24
   4979808.73846   4143136.04743  23858185.5164                   23858188.0434
        40.2504         19.5004
   2911885.64147   1283163.26245  20762154.1414                   20762152.8984
        46.2504         33.2504
   4806802.24647   3774196.53144  22523546.7034                   22523544.0904
        42.0004         24.2504
     76947.96147  -2014006.39545  20036837.4064                   20036834.1294
        45.0004         34.5004
                                  25087502.750
        32.250
   3857692.50847  -1493979.65244  21292885.3754                   21292887.2504
        43.2504         26.0004
 19  3  7  1 13  0.0000000  0  6G01G17G28G19G22G24
   4983982.78146   4146388.44943  23858979.6094                   23858982.4494
        38.7504         19.2504
   2907016.39147   1279368.95345  20761227.9694                   20761226.8874
        43.5004         30.0004
   4808207.55646   3775291.47643  22523813.5004                   22523811.6374
        39.2504         22.5004
     62668.03946  -2025133.67245  20034120.1724                   20034117.2234
        40.5004         30.2504
                                  25084796.023
        33.500
   3841944.61346  -1506250.82043  21289888.4534                   21289890.6334
        39.5004         22.7504
 19  3  7  1 13  5.0000000  0  5G01G17G28G19G24
                                  23859776.8134                   23859780.0664
        40.0004         18.5004
                                  20760303.2584                   20760303.2974
        44.2504         30.5004
                                  22524081.5004                   22524080.5314
        40.0004         23.0004
                                  20031405.3594                   20031403.0084
        42.2504         30.5004
                                  21286894.141
        41.000
 19  3  7  1 13 10.0000000  0  6G01G17G28G19G22G24
   4992371.90246   4152925.44143  23860576.1414                   23860579.2624
        39.0004         19.2504
   2897317.52047   1271811.62145  20759381.2974                   20759381.3984
        42.7504         31.2504
   4811041.23846   3777499.54743  22524351.2734                   22524351.1484
        38.2504         22.7504
     34161.22346  -2047346.54745  20028695.0004                   20028692.0984
        40.7504         32.5004
                                  25079388.070
        34.250
   3810504.10946  -1518503.43753  21283905.1174                   21283906.6024
        39.5004         22.7504
 19  3  7  1 13 20.0000000  0  6G01G17G28G19G22G24
                                  23862180.3984                   23862178.5204
        42.2504         22.0004
   2887647.36657   1264576.97656  20757543.5554                   20757539.3014
        47.2504         36.0004
                                  22524894.4614                   22524892.3364
        42.2504         23.5004
      5698.99257  -2068637.78956  20023280.8134                   20023278.0354
        47.0004         36.0004
                                  25073992.523
        35.500
                                  21277933.094
        44.250
 19  3  7  1 13 55.0000000  0  2G17G24
                                  20751137.438
        34.750
                                  21257089.836
        32.000
 19  3  7  1 14  0.0000000  0  1G19
                                  20001701.9614                   20001697.8984
        46.7504         38.7504
 19  3  7  1 14  5.0000000  0  3G17G19G24
                                  20749322.578
        39.000
   4696862.02746  -2085385.37545  19999014.1954                   19999012.8834
        39.0004         32.2504
                                  21251156.766
        34.500
 19  3  7  1 14 10.0000000  0  5G01G17G28G19G24
   4735024.59056   4160575.36753  23870271.4384                   23870276.0864
        39.7504         20.2504
   4716180.81357   1256556.27255  20748421.8984                   20748418.3984
        45.7504         32.7504
   4728234.44916                  22527617.320
        41.750
                                  19996334.7734                   19996331.0474
        44.5004         31.5004
                                  21248200.6174                   21248201.3164
        42.2504         27.5004
 19  3  7  1 14 15.0000000  0  5G01G17G28G19G24
   4739351.73246   4163947.21043  23871093.1644                   23871099.2504
        38.2504         19.7504
   4711460.75047   1252878.32255  20747522.2424                   20747522.0594
        42.0004         32.2504
   4729708.24246   3780220.88353  22527895.6644                   22527895.4964
        37.2504         22.5004
   4703747.09246  -2101612.96845  19993658.7344                   19993656.8444
        40.0004         31.0004
   4700166.57446  -1556934.99553  21245244.7664                   21245249.3754
        39.0004         23.7504
 19  3  7  1 14 20.0000000  0  5G01G17G28G19G24
   4743702.80956   4167337.32453  23871923.3204                   23871927.2194
        39.7504         19.2504
   4706768.45757   1249222.28155  20746631.2344                   20746630.1254
        46.2504         33.0004
   4731204.18857   3781386.81653  22528183.5164                   22528179.9304
        42.0004         22.5004
   4689717.67657  -2112545.00455  19990990.4144                   19990985.4414
        45.0004         32.5004
   4684673.68857  -1568041.12554  21242298.8984                   21242300.1214
        43.5004         28.2504
 19  3  7  1 14 25.0000000  0  5G01G17G28G19G24
   4748077.43446   4170746.24243  23872755.8984                   23872759.7974
        40.0004         19.2504
   4702096.84447   1245582.00045  20745742.0704                   20745741.1334
        45.5004         33.5004
   4732715.88346   3782564.69544  22528469.9224                   22528468.1054
        41.0004         24.2504
   4675714.39847  -2123456.62945  19988325.3284                   19988321.5274
        44.0004         32.5004
   4669210.43946  -1580090.32544  21239356.5634                   21239358.0944
        41.0004         27.0004
 19  3  7  1 14 30.0000000  0  5G01G17G28G19G24
   4752470.17646   4174169.14143  23873592.0394                   23873595.4264
        40.7504         19.7504
   4697443.87147   1241956.32445  20744856.6174                   20744855.4064
        45.2504         33.0004
   4734239.59846   3783752.01643  22528760.1414                   22528758.0904
        40.5004         23.5004
   4661734.82447  -2134349.80545  19985665.1094                   19985661.3484
        42.5004         31.0004
   4653772.20746  -1592120.13344  21236418.6414                   21236420.0554
        41.2504         27.5004
 19  3  7  1 14 35.0000000  0  4G01G28G19G24
                                  23874428.1954                   23874435.0904
        40.7504         19.2504
                                  22529050.6334                   22529050.6884
        40.7504         22.2504
                                  19983006.1564                   19983005.2664
        45.0004         29.0004
                                  21233482.3134                   21233486.5164
        42.0004         24.5004
 19  3  7  1 14 40.0000000  0  5G01G17G28G19G24
   4761303.97346   4181052.20743  23875272.7974                   23875276.2074
        40.2504         18.5004
   4722636.69157   1237004.09455  20743094.3444                   20743090.5514
        45.5004         33.2504
   4737315.60947   3786148.85243  22529345.8594                   22529343.3834
        42.0004         22.7504
   4633833.30147  -2156091.06645  19980355.0314                   19980351.3404
        44.5004         32.2504
   4622953.00846  -1616135.12144  21230553.0784                   21230555.3014
        41.0004         26.0004
 19  3  7  1 14 45.0000000  0  5G01G17G28G19G24
   4765721.39846   4184494.40642  23876112.3674                   23876116.5084
        40.5004         17.2504
   4718006.99647   1233396.45745  20742212.4064                   20742212.4184
        44.5004         32.2504
   4738847.29146   3787342.41043  22529637.2114                   22529636.0124
        40.2504         23.0004
   4619890.69547  -2166955.40245  19977702.1484                   19977699.2464
        43.0004         31.5004
   4607553.44646  -1628134.74144  21227623.3284                   21227625.3674
        40.0004         24.2504
 19  3  7  1 14 50.0000000  0  5G01G17G28G19G24
                                  23876953.789
        40.000
   4713387.18857   1229796.67255  20741333.3134                   20741332.2704
        46.0004         30.0004
   4740381.36757   3788537.86353  22529928.3134                   22529928.0354
        42.5004         22.5004
   4605962.98057  -2177808.10555  19975050.7974                   19975047.3054
        44.0004         31.0004
   4592171.26656  -1640120.78953  21224695.1954                   21224698.3244
        40.7504         22.0004
 19  3  7  1 14 55.0000000  0  5G01G17G28G19G24
   6350006.160 6                  24177592.508
        40.250
   6284199.98047   2453806.57045  21040249.2424                   21040248.1054
        44.5004         32.2504
   6317340.72346   5017337.28143  22830014.3364                   22830013.2274
        40.0004         23.0004
   6167475.50047   -961045.16445  20272196.9144                   20272193.6334
        43.7504         31.5004
   6152231.67246   -424489.39144  21521566.4384                   21521567.8404
        41.0004         25.7504
 19  3  7  1 15  0.0000000  0  5G01G17G28G19G24
   6354459.88346   5418737.32453  24178437.8444                   24178441.5124
        39.2504         19.2504
   6279608.44147   2450228.83645  21039374.4224                   21039375.0784
        44.5004         32.5004
   6318894.69946   5018548.25043  22830308.4454                   22830308.9144
        40.5004         22.7504
   6153585.73047   -971868.28945  20269552.2274                   20269550.6914
        43.0004         31.5004
   6136885.52346   -436447.34844  21518643.9774                   21518647.7304
        40.0004         27.2504
 19  3  7  1 15  5.0000000  0  5G01G17G28G19G24
   6358933.67246   5422223.34742  24179291.4534                   24179292.6884
        38.7504         17.7504
   6275038.13847   2446667.49345  21038505.8204                   21038504.5434
        44.2504         33.0004
   6320463.64346   5019770.75444  22830608.1024                   22830606.5704
        39.5004         24.0004
   6139723.14147   -982670.35745  20266916.5634                   20266912.7034
        42.7504         32.2504
   6121568.08646   -448383.05644  21515730.7034                   21515732.7504
        39.0004         27.5004
 19  3  7  1 15 10.0000000  0  5G01G17G28G19G24
   6363416.59416                  24180145.227
        39.000
   6270479.45757   2443115.28555  21037639.4534                   21037637.6914
        43.7504         31.2504
   6322037.53516                  22830907.813
        40.500
   6125876.78957   -993459.73455  20264281.2034                   20264278.0394
        44.2504         30.7504
   6106269.62957   -457444.97455  21512818.9144                   21512812.6994
        43.0004         30.7504
 19  3  7  1 15 15.0000000  0  5G01G17G28G19G24
   6367908.492 6                  24181000.789
        39.500
   6265926.80947   2439567.75845  21036772.1884                   21036771.4774
        44.5004         33.0004
   6323612.02946   5020997.04254  22831207.4384                   22831206.8244
        40.0004         26.5004
   6112041.98447  -1004240.09045  20261648.9534                   20261645.5784
        43.0004         31.5004
   6090983.473 6                  21509911.273
        40.000
 19  3  7  1 15 20.0000000  0  5G01G17G28G19G24
   6372409.51257   5428104.16853  24181857.5474                   24181858.1914
        42.0004         19.5004
   6261383.96547   2436027.93445  21035909.2344                   21035906.5434
        46.5004         32.2504
   6325191.39147   5022227.75444  22831509.9534                   22831507.6524
        43.0004         28.0004
   6098221.49647  -1015009.25445  20259020.6334                   20259015.5984
        44.5004         31.5004
   6075710.95716                  21507006.430
        39.500
 19  3  7  1 15 25.0000000  0  3G28G19G24
   6302301.89916                  22831810.148
        41.500
                                  20256392.773
        43.750
                                  21504103.156
        40.750
 19  3  7  1 15 35.0000000  0  5G01G17G28G19G24
                                  24184436.070
        41.000
   6297156.60557   2432050.20755  21033324.5394                   21033323.2304
        46.0004         32.0004
                                  22832413.711
        41.500
                                  20251143.9064                   20251141.1954
        44.0004         34.7504
   6265110.67256   -467434.44154  21498302.1414                   21498302.3524
        41.0004         27.0004
 19  3  7  1 15 40.0000000  0  5G01G17G28G19G24
   6307487.621 6                  24185300.109
        38.500
   6292650.18847   2428538.64554  21032467.6644                   21032466.9614
        43.7504         29.5004
   6304481.14156   5024636.91453  22832717.4304                   22832714.9304
        39.2504         22.0004
   6274681.82047  -1037761.49155  20248524.9614                   20248522.0594
        44.5004         33.0004
   6249895.69546   -479290.23944  21495407.0554                   21495407.9304
        39.5004         27.5004
 19  3  7  1 15 45.0000000  0  5G01G17G28G19G24
   6312033.04346   5432906.82853  24186164.5474                   24186167.8914
        36.7504         20.2504
                                  21031608.8834                   21031610.0234
        44.5004         28.2504
                                  22833019.3754                   22833019.1524
        39.0004         22.5004
   6260928.63746  -1048478.26645  20245905.8594                   20245905.3054
        41.7504         32.0004
   6234693.27046   -491136.29344  21492513.3984                   21492515.1804
        39.0004         24.5004
 19  3  7  1 15 50.0000000  0  5G01G17G28G19G24
   6316586.22346   5436454.79343  24187032.6884                   24187034.7074
        39.5004         19.2504
   6283658.56647   2421532.16444  21030756.1884                   21030754.5864
        47.0004         29.2504
   6307676.22347   5027126.57443  22833325.6804                   22833322.6564
        42.0004         22.7504
   6247187.38347  -1059185.75845  20243293.3914                   20243289.5474
        44.5004         31.5004
   6219505.39556   -502971.01254  21489623.9144                   21489625.4104
        41.2504         26.2504
 19  3  7  1 15 55.0000000  0  5G01G17G28G19G24
   6321143.45146   5440005.87142  24187899.1174                   24187901.7974
        39.5004         17.7504
   6279169.79147   2418034.45244  21029902.0864                   21029901.0634
        45.7504         29.0004
   6309275.90156   5028373.13353  22833629.8204                   22833628.4804
        40.0004         22.5004
   6233453.68247  -1069887.30545  20240679.6564                   20240676.8094
        45.0004         32.2504
   6204322.81947   -514801.54144  21486735.0634                   21486736.2504
        42.5004         25.7504
 19  3  7  1 16  0.0000000  0  5G01G17G28G19G24
   6325699.63816                  24188764.648
        38.500
   6274681.56357   2415800.87955  21029047.2894                   21029048.5124
        45.0004         34.5004
   6310873.19157   5029617.17654  22833932.1804                   22833934.1254
        42.2504         29.0004
   6291804.92257  -1076297.88156  20238067.0164                   20238068.1174
        43.5004         38.5004
   6189160.87156   -526616.01654  21483847.5234                   21483851.9844
        39.5004         28.5004
 19  3  7  1 16  5.0000000  0  5G01G17G28G19G24
                                  24189636.7424                   24189640.3524
        36.5004         21.0004
                                  21028197.8914                   21028199.3794
        43.0004         31.0004
                                  22834238.6564                   22834240.7974
        41.2504         25.0004
                                  20235460.0164                   20235459.3634
        42.0004         34.0004
                                  21480966.3914                   21480969.8794
        37.0004         25.0004
 19  3  7  1 16 10.0000000  0  6G01G17G28G19G22G24
   6334867.15246   5445284.34043  24190511.8134                   24190513.0984
        39.7504         19.7504
   6265759.27047   2408848.46544  21027352.2344                   21027351.0864
        46.2504         29.7504
   6314094.33646   5032127.24243  22834547.3054                   22834546.3324
        40.2504         22.0004
   6264417.77047  -1097638.58645  20232858.0704                   20232854.7274
        44.7504         32.5004
                                  25283625.297
        31.750
   6158883.05546   -550209.22344  21478088.2734                   21478089.7344
        41.7504         29.2504
 19  3  7  1 16 15.0000000  0  6G01G17G28G19G22G24
   6339458.22746   5448861.80143  24191385.1954                   24191387.2234
        39.2504         19.2504
   6261306.27747   2405378.60244  21026504.4614                   21026502.9804
        45.7504         29.5004
   6315703.71946   5033381.30943  22834852.9304                   22834852.3164
        39.7504         22.5004
   6250740.98047  -1108295.82045  20230254.9064                   20230251.4344
        44.7504         33.0004
                                  25281017.609
        32.500
   6143763.89547   -561990.36344  21475211.1094                   21475212.4694
        42.0004         28.2504
 19  3  7  1 16 25.0000000  0  5G01G17G28G19G24
                                  24193137.367
        38.500
                                  21024814.5164                   21024813.8554
        43.2504         28.5004
                                  22835468.508
        38.750
                                  20225057.102
        41.750
                                  21469463.172
        38.500
 19  3  7  1 16 30.0000000  0  5G01G17G28G19G24
   6310917.80516                  24194018.461
        39.250
   6248006.01257   2395428.39855  21023974.1954                   21023969.4454
        43.7504         30.0004
   6320570.60556   5034895.09853  22835779.6174                   22835774.4654
        40.5004         23.2504
   6274402.55556  -1133813.95355  20222465.0004                   20222460.4454
        41.0004         31.0004
   6271525.67656   -585969.75453  21466596.4694                   21466596.1334
        39.0004         22.7504
 19  3  7  1 16 35.0000000  0  4G01G17G19G24
                                  24194899.070
        38.500
                                  21023136.4064                   21023133.3364
        44.7504         30.0004
                                  20219876.0164                   20219871.9144
        43.5004         32.5004
                                  21463731.305
        40.000
 19  3  7  1 16 40.0000000  0  6G01G17G28G19G22G24
   6320207.05246   5453901.73853  24195786.4454                   24195786.5474
        38.5004         21.0004
   6239208.15647   2388572.92644  21022300.6954                   21022300.2114
        45.5004         28.7504
   6323852.32856   5036018.20354  22836403.7504                   22836402.2584
        41.0004         25.7504
   6247199.47347  -1155011.11345  20217288.7974                   20217285.3714
        44.0004         32.7504
   6286419.87116                  25268023.453
        36.500
   6241439.78146   -608006.49254  21460872.2504                   21460873.3164
        40.2504         25.7504
 19  3  7  1 16 45.0000000  0  6G01G17G28G19G22G24
   6324862.64146   5457529.43043  24196673.6884                   24196673.7034
        39.0004         20.2504
   6234819.80947   2385153.45344  21021466.6954                   21021464.9184
        46.0004         28.5004
   6325495.03547   5037298.34044  22836717.8834                   22836715.1764
        43.0004         25.7504
   6233615.91847  -1165595.69545  20214705.3054                   20214700.8404
        44.5004         32.0004
   6272800.72746   4794972.98453  25265433.7894                   25265426.8324
        39.0004         21.5004
   6226417.63346   -619712.09843  21458015.2034                   21458015.1334
        39.5004         22.7504
 19  3  7  1 16 50.0000000  0  6G01G17G28G19G22G24
   6329533.80915                  24197561.219
        35.500
   6230445.43456   2381744.84854  21020632.6724                   21020633.3164
        41.7504         26.5004
   6327147.34856   5038585.82453  22837029.5704                   22837030.9144
        37.2504         22.5004
   6220050.62956  -1176166.05555  20212122.0554                   20212120.3284
        40.0004         30.0004
   6259199.62555   4784374.68453  25262844.6254                   25262838.8634
        34.7504         20.2504
   6211413.80146   -631403.39143  21455160.1564                   21455160.4304
        37.0004         22.7504
 19  3  7  1 16 55.0000000  0  6G01G17G28G19G22G24
   6334211.17216                  24198450.781
        39.500
   6226079.41847   2378342.87144  21019802.3054                   21019800.8484
        45.7504         29.5004
   6328802.09046   5039875.35943  22837344.9384                   22837343.7894
        41.0004         22.7504
   6206498.71957  -1186725.87555  20209543.7814                   20209539.9064
        44.5004         33.2504
   6245608.84446   4773784.66043  25260257.1954                   25260253.1914
        37.2504         19.0004
   6196423.79756   -643083.80553  21452306.4454                   21452307.5084
        41.0004         23.7504
 19  3  7  1 17  0.0000000  0  6G01G17G28G19G22G24
   6338896.04746   5464236.75853  24199342.3204                   24199342.5864
        36.0004         19.0004
   6221720.19947   2374945.96544  21018971.6804                   21018972.5204
        44.2504         28.0004
   6330458.77346   5041166.15244  22837660.2664                   22837660.1374
        39.5004         24.5004
   6192958.71547  -1197276.62545  20206966.1174                   20206963.6884
        43.2504         31.7504
   6232029.10945   4763202.86742  25257674.0944                   25257669.7774
        32.7504         17.7504
   6181446.98446   -654754.14844  21449455.6564                   21449457.9804
        39.2504         24.0004
 19  3  7  1 17  5.0000000  0  6G01G17G28G19G22G24
                                  24200235.0554                   24200236.3094
        38.5004         17.7504
   6217368.59447   2371555.14544  21018143.5554                   21018143.3834
        45.5004         29.0004
   6332118.62046   5042459.59544  22837975.9534                   22837975.5704
        41.0004         26.0004
   6179430.81347  -1207817.81645  20204391.3364                   20204389.1604
        43.5004         32.2504
                                  25255090.3204                   25255088.3364
        36.2504         16.2504
   6166481.97746   -666415.14843  21446607.5634                   21446609.7814
        40.0004         23.7504
 19  3  7  1 17 10.0000000  0  6G01G17G28G19G22G24
   6348296.91446   5471562.14542  24201132.1724                   24201132.2464
        39.7504         16.7504
   6213033.63347   2368177.25044  21017320.2584                   21017317.3914
        45.2504         29.7504
   6333788.51246   5043760.78944  22838294.4304                   22838292.9224
        41.0004         25.0004
   6165925.16447  -1218341.70345  20201822.9924                   20201817.9574
        43.5004         32.7504
   6204910.71146   4742071.75842  25252513.5864                   25252509.8754
        38.2504         15.5004
   6151541.45346   -678057.14843  21443766.0314                   21443766.0434
        40.0004         22.7504
