     2.11           OBSERVATION DATA    G (GPS)             RINEX VERSION / TYPE
teqc  2019Feb25     Martin Truffer      20190308 01:05:28UTCPGM / RUN BY / DATE
Linux 2.6.32-573.12.1.x86_64|x86_64|gcc|Linux 64|=+         COMMENT
BIT 2 OF LLI FLAGS DATA COLLECTED UNDER A/S CONDITION       COMMENT
51890651                                                    MARKER NAME
5189                                                        MARKER NUMBER
-Unknown-           -Unknown-                               OBSERVER / AGENCY
0220315189          TRIMBLE 5700        2.30                REC # / TYPE / VERS
-Unknown-           TRM41249.00     NONE                    ANT # / TYPE
 -1794712.6536 -3484285.2209  5017681.9422                  APPROX POSITION XYZ
        0.0530        0.0000        0.0000                  ANTENNA: DELTA H/E/N
     1     1                                                WAVELENGTH FACT L1/2
     7    L1    L2    C1    P1    P2    S1    S2            # / TYPES OF OBSERV
    18                                                      LEAP SECONDS
 SNR is mapped to RINEX snr flag value [0-9]                COMMENT
  L1 & L2: min(max(int(snr_dBHz/6), 0), 9)                  COMMENT
  2019     3     6    19    49   30.0000000     GPS         TIME OF FIRST OBS
                                                            END OF HEADER
 19  3  6 19 49 30.0000000  0  3G07G09G23
   -190209.77357   -120597.87154  20583235.4144                   20583230.4454
        43.2504         25.2504
    -26558.64856    -14983.00453  20512915.4774                   20512912.3524
        41.2504         20.7504
     42301.54356     22060.49252  22412301.4844                   22412296.3444
        38.5004         16.2504
 19  3  6 19 49 35.0000000  0  3G07G09G23
   -205173.13347   -132257.62543  20580387.3204                   20580382.7854
        43.0004         23.7504
    -28557.94146    -16540.90243  20512534.2424                   20512532.2544
        40.5004         20.0004
     47436.824 6                  22413279.289
        38.500
 19  3  6 19 49 40.0000000  0  3G07G09G23
   -220107.48447   -143894.77343  20577545.5634                   20577541.0944
        42.2504         22.0004
    -30523.43446    -18072.48443  20512160.4844                   20512158.0554
        41.0004         19.7504
     52600.570 6                  22414261.148
        39.000
 19  3  6 19 49 45.0000000  0  3G07G09G23
   -235012.17647   -155508.84443  20574708.7814                   20574705.0274
        42.0004         22.0004
    -32454.53946    -19577.22343  20511793.1804                   20511790.6914
        40.5004         20.0004
     57793.32046     27220.87153  22415249.5474                   22415243.2584
        39.5004         19.5004
 19  3  6 19 49 50.0000000  0  7G07G08G09G27G23G30G16
   -249886.39147   -167099.11343  20571878.3914                   20571874.7504
        42.5004         22.2504
   -126707.27756    -69617.18052  22814696.8444                   22814695.0864
        38.5004         17.2504
    -34350.41846    -21054.53943  20511431.6804                   20511429.7664
        40.7504         20.0004
    -78243.76615                  22330294.703
        35.250
     63015.94946     31290.48843  22416243.3054                   22416237.5784
        39.5004         18.2504
   -126583.60556    -69563.60553  22112983.8834                   22112982.3674
        39.2504         19.7504
     33313.24215                  22730177.500
        35.500
 19  3  6 19 49 55.0000000  0  7G07G08G09G27G23G30G16
   -264729.74246   -178665.39143  20569053.9774                   20569049.6294
        41.5004         22.5004
   -149896.46546    -87686.74242  22810283.3524                   22810282.1524
        38.2504         17.7504
    -36210.77346    -22504.16443  20511077.9224                   20511075.9734
        40.0004         19.7504
    -92829.430 4                  22327518.414
        28.000
     68268.78946     35383.67642  22417242.7734                   22417237.1054
        38.0004         17.2504
   -149767.09846    -87628.62543  22108572.4844                   22108570.5204
        38.0004         18.5004
     39575.480 5                  22731368.047
        35.500
 19  3  6 19 50  0.0000000  0  6G07G08G09G23G30G16
   -279541.93446   -190207.35243  20566235.2424                   20566231.2274
        41.0004         22.7504
   -173052.68046   -105730.48842  22805878.6174                   22805875.9414
        37.5004         17.7504
    -38035.26246    -23925.83643  20510731.0004                   20510728.9494
        39.2504         19.0004
     73552.172 6                  22418247.906
        38.250
   -172922.67246   -105671.93442  22104166.1884                   22104163.8674
        38.0004         17.7504
                                  22732565.133
        27.250
 19  3  6 19 50  5.0000000  0  7G07G08G09G27G23G30G16
   -294322.78946   -201724.91443  20563423.1024                   20563418.4304
        40.5004         22.0004
   -196175.64846   -123748.39542  22801476.6254                   22801476.0124
        36.7504         17.2504
    -39823.60546    -25319.35943  20510390.2974                   20510388.5124
        38.7504         20.5004
   -121882.18015                  22321988.977
        34.250
     78866.24646     38859.43053  22419259.6954                   22419251.9024
        37.2504         21.0004
   -196049.91446   -123693.16842  22099764.2814                   22099763.1484
        37.0004         16.7504
                                  22733765.547
        29.500
 19  3  6 19 50 10.0000000  0  7G07G08G09G27G23G30G16
   -309072.08246   -213217.85543  20560615.7034                   20560611.7504
        40.7504         21.5004
   -219265.27046   -141740.25042  22797083.4304                   22797082.7114
        37.0004         16.7504
    -41575.68746    -26684.61343  20510058.1724                   20510055.1294
        39.5004         19.0004
   -136349.590 4                  22319236.156
        28.000
     84211.17646     43024.30543  22420276.2194                   22420269.4104
        38.2504         19.2504
   -219148.80946   -141692.27042  22095369.4774                   22095367.8014
        36.7504         16.7504
     58544.105 5                  22734976.656
        32.250
 19  3  6 19 50 15.0000000  0  7G07G08G09G27G23G30G16
   -323789.92246   -224686.33243  20557814.7894                   20557810.8134
        40.2504         22.0004
   -242321.71146   -159706.38342  22792695.2894                   22792694.9774
        36.2504         15.5004
    -43291.71946    -28021.77343  20509730.6954                   20509728.3404
        40.2504         20.0004
   -150777.555 4                  22316491.078
        29.000
     89586.85946     47213.10543  22421298.9384                   22421292.7194
        38.7504         19.5004
   -242219.46946   -159669.41042  22090979.3134                   22090977.4264
        37.0004         17.2504
     64927.543 5                  22736193.547
        33.000
 19  3  6 19 50 20.0000000  0  7G07G08G09G27G23G30G16
   -338476.81246   -236130.62943  20555020.3674                   20555015.8754
        40.2504         21.7504
   -265345.22746   -177646.75042  22788314.5864                   22788313.8284
        38.0004         16.7504
    -44972.00046    -29331.07843  20509410.5164                   20509408.2584
        39.5004         20.2504
   -165166.39114                  22313753.133
        29.250
     94992.85246     51425.64543  22422328.2114                   22422322.0474
        37.0004         19.5004
   -265262.24246   -177624.82442  22086593.8054                   22086592.2584
        37.2504         17.2504
     71340.789 5                  22737413.422
        35.250
 19  3  6 19 50 25.0000000  0  7G07G08G09G27G23G30G16
   -353132.69146   -247550.80943  20552231.3204                   20552227.0864
        41.2504         21.0004
   -288335.83646   -195561.50042  22783939.9304                   22783938.8094
        36.2504         17.2504
    -46616.70746    -30612.67243  20509098.2584                   20509095.5554
        39.7504         19.7504
   -179516.26615                  22311022.828
        33.500
    100429.09846     55661.59043  22423362.4384                   22423356.3484
        38.5004         19.2504
   -288277.27746   -195558.57442  22082213.7194                   22082213.1094
        38.0004         16.7504
     77783.750 5                  22738638.688
        32.750
 19  3  6 19 50 30.0000000  0  7G07G08G09G27G23G30G16
   -367758.00046   -258947.13343  20549448.3984                   20549444.0164
        39.7504         21.0004
   -311294.16046   -213451.16842  22779571.0634                   22779569.9614
        36.2504         16.2504
    -48226.06646    -31866.69543  20508791.6094                   20508789.3754
        39.7504         19.0004
   -193827.402 5                  22308299.773
        31.500
    105895.22346     59920.95343  22424402.3834                   22424397.0824
        37.5004         18.2504
   -311264.80946   -213470.99642  22077840.2344                   22077838.4344
        36.0004         17.2504
     84256.227 5                  22739871.078
        32.250
 19  3  6 19 50 35.0000000  0  7G07G08G09G27G23G30G16
   -382352.92646   -270319.84043  20546670.8834                   20546666.2544
        40.0004         22.0004
   -334220.13346   -231315.50042  22775208.3054                   22775207.3984
        36.0004         14.7504
    -49800.41446    -33093.49243  20508491.4144                   20508489.5434
        40.5004         21.2504
   -208099.902 5                  22305583.063
        31.250
    111391.02346     64203.37142  22425449.0084                   22425442.4344
        38.0004         17.7504
   -334225.13346   -231362.13342  22073471.0234                   22073469.4414
        37.5004         16.7504
     90757.922 5                  22741109.133
        32.750
 19  3  6 19 50 40.0000000  0  7G07G08G09G27G23G30G16
   -396917.88746   -281669.15243  20543899.6724                   20543894.7114
        39.2504         21.2504
   -357114.24646   -249155.07842  22770852.2114                   22770850.8674
        36.0004         15.5004
    -51340.10546    -34293.23443  20508198.9774                   20508196.7544
        40.0004         23.5004
   -222334.445 5                  22302874.578
        33.500
    116916.10546     68508.64843  22426500.7274                   22426494.5434
        37.2504         18.2504
   -357158.64846   -249232.38742  22069106.9844                   22069105.1764
        37.7504         16.7504
     97288.410 5                  22742350.617
        32.250
 19  3  6 19 50 45.0000000  0  7G07G08G09G27G23G30G16
   -411453.43046   -292995.57443  20541133.2344                   20541129.3874
        39.7504         22.5004
   -379976.80146   -266970.07843  22766501.0474                   22766499.4024
        37.7504         18.2504
    -52845.74646    -35466.47343  20507912.9534                   20507910.4494
        40.2504         23.5004
   -236531.641 5                  22300173.078
        31.250
    122469.81346     72836.18043  22427557.0944                   22427551.4654
        37.2504         19.2504
   -380065.85246   -267082.14142  22064748.1414                   22064746.1764
        37.2504         16.2504
    103847.031 5                  22743600.258
        33.250
 19  3  6 19 50 50.0000000  0  6G07G08G09G23G30G16
   -425959.70346   -304299.16043  20538372.7504                   20538368.3324
        40.7504         23.7504
   -402808.50446   -284760.96543  22762155.8674                   22762155.2464
        36.7504         19.0004
    -54317.46547    -36613.30144  20507632.4924                   20507629.8244
        44.5004         29.7504
    128051.97345     77185.97743  22428619.7344                   22428613.3954
        35.0004         19.7504
   -402946.95346   -284911.63743  22060393.4534                   22060391.8554
        38.2504         22.7504
    110433.62916                  22744852.391
        37.000
 19  3  6 19 50 55.0000000  0  6G07G08G09G23G30G16
   -440437.35547   -315580.43444  20535617.7894                   20535613.3484
        42.0004         25.0004
   -425609.42646   -302527.89543  22757816.8914                   22757816.0864
        37.7504         19.5004
    -55755.85547    -37734.10244  20507358.3444                   20507356.1844
        43.0004         29.2504
    133662.19145     81557.62943  22429686.1414                   22429681.2584
        34.7504         18.5004
   -425802.56646   -302721.13743  22056044.3754                   22056042.4184
        38.7504         21.5004
                                  22746109.594
        32.500
 19  3  6 19 51  0.0000000  0  6G07G08G09G23G30G16
   -454886.69947   -326839.68044  20532868.5784                   20532864.0594
        42.5004         27.0004
   -448380.293 7                  22753484.648
        42.500
    -57161.40647    -38829.37945  20507091.0164                   20507088.6254
        43.7504         31.7504
    139299.80146     85950.41843  22430759.3054                   22430754.6214
        38.2504         20.2504
   -448633.01646   -320511.13343  22051700.2274                   22051697.3594
        40.2504         22.0004
    123688.992 5                  22747374.602
        32.000
 19  3  6 19 51  5.0000000  0  5G07G08G09G23G30
   -469308.12946   -338077.12143  20530123.5944                   20530119.6294
        38.5004         22.7504
   -471121.26645   -318140.60953  22749156.9774                   22749155.5044
        33.7504         22.0004
    -58534.36746    -39899.18444  20506829.3134                   20506827.4694
        40.2504         28.7504
    144964.54345     90364.44543  22431837.3674                   22431832.2504
        34.2504         19.0004
   -471438.65646   -338281.73443  22047359.9534                   22047357.8054
        36.5004         23.5004
 19  3  6 19 51 30.0000000  0  1G09
                                  20505605.047
        39.500
 19  3  6 19 51 35.0000000  0  1G09
     -1849.32047    -41672.60255  20505376.2344                   20505374.6094
        42.0004         34.2504
 19  3  6 19 51 40.0000000  0  1G09
      -562.75815                  20505149.859
        35.500
 19  3  6 19 51 45.0000000  0  1G09
     -1700.695 6                  20504935.477
        41.750
 19  3  6 19 51 50.0000000  0  1G09
                                  20504725.6024                   20504724.3554
        41.2504         32.5004
 19  3  6 19 51 55.0000000  0  1G09
                                  20504522.2734                   20504520.9694
        31.7504         26.0004
 19  3  6 19 52  0.0000000  0  3G07G09G30
                                  20500247.8054                   20500243.7464
        41.2504         30.0004
                                  20504325.156
        40.000
                                  21999894.4304                   21999892.4884
        37.5004         24.2504
 19  3  6 19 52  5.0000000  0  6G07G08G09G23G30G16
    -49216.85546   -364191.57045  20497563.3134                   20497558.6254
        40.5004         30.0004
                                  22697625.430
        34.750
     -5916.11346    -44499.74655  20504133.7274                   20504132.2704
        39.5004         32.0004
                                  22445131.203
        34.250
    -81231.18046   -383392.26243  21995607.0474                   21995605.1054
        36.0004         22.7504
                                  22764215.781
        31.250
 19  3  6 19 52 10.0000000  0  7G07G08G09G27G23G30G16
    -63305.85946   -375169.99244  20494882.4144                   20494878.0164
        38.5004         28.0004
    -34944.453 6                  22693368.570
        36.000
     -6897.16046    -45264.17244  20503947.7424                   20503945.0944
        37.5004         29.7504
    -22338.10216                  22255253.320
        37.750
      9074.406 6                  22446270.234
        36.750
   -103744.99645   -400935.51643  21991323.2274                   21991320.6134
        35.7504         22.5004
     10869.582 5                  22765549.797
        34.500
 19  3  6 19 52 15.0000000  0  7G07G08G09G27G23G30G16
    -77373.68046   -386131.94944  20492205.3054                   20492200.7154
        39.0004         27.0004
    -57303.402 5                  22689114.492
        32.250
     -7852.48846    -46008.60544  20503765.6334                   20503763.2814
        39.2504         29.2504
    -35920.82846     -8469.05953  22252668.1724                   22252666.6414
        36.5004         19.7504
     15080.781 5                  22447414.617
        34.750
   -126240.69946   -418464.66043  21987042.1024                   21987040.3054
        36.0004         21.2504
     17871.574 5                  22766881.086
        32.500
 19  3  6 19 52 20.0000000  0  7G07G08G09G27G23G30G16
    -91419.97345   -397077.10943  20489532.2034                   20489527.9734
        34.0004         22.5004
    -79638.801 5                  22684862.859
        32.250
     -8781.82046    -46732.78945  20503588.3054                   20503586.3014
        38.5004         30.7504
    -49474.09845    -19030.03143  22250089.5704                   22250087.3204
        35.2504         19.0004
     21107.566 5                  22448559.734
        34.500
   -148718.17246   -435979.50043  21982764.8674                   21982762.5044
        37.0004         20.5004
     24893.563 5                  22768217.234
        35.000
 19  3  6 19 52 25.0000000  0  7G07G08G09G27G23G30G16
   -105444.60946   -408005.42643  20486863.2424                   20486859.2624
        37.7504         21.7504
   -101950.309 5                  22680617.680
        34.000
     -9684.93446    -47436.51645  20503416.9614                   20503414.4534
        39.5004         30.7504
    -62997.40646    -29567.68443  22247515.9064                   22247513.8984
        36.7504         18.2504
     27155.227 6                  22449710.180
        36.000
   -171176.89146   -453479.80543  21978491.0554                   21978488.7584
        36.5004         20.5004
     31935.770 5                  22769557.781
        35.500
 19  3  6 19 52 30.0000000  0  7G07G08G09G27G23G30G16
   -119446.94546   -418916.32843  20484199.1414                   20484194.5984
        37.2504         22.0004
   -124237.480 5                  22676376.188
        33.500
    -10561.20746    -48119.34045  20503250.0634                   20503247.6764
        39.0004         31.0004
    -76490.21545    -40081.56243  22244948.6804                   22244946.5124
        35.5004         18.5004
     33224.145 5                  22450866.586
        35.250
   -193616.48845   -470965.21943  21974220.5944                   21974219.0784
        35.5004         21.2504
     38998.723 5                  22770902.164
        35.000
 19  3  6 19 52 35.0000000  0  7G07G08G09G27G23G30G16
   -133426.66446   -429809.62544  20481538.3594                   20481534.6524
        39.0004         24.5004
   -146499.770 6                  22672140.594
        36.000
    -11410.45346    -48781.09045  20503088.4064                   20503086.1954
        39.0004         30.2504
    -89952.31245    -50571.49243  22242386.1954                   22242384.9224
        35.2504         18.5004
     39314.719 6                  22452024.672
        36.500
   -216036.51246   -488435.36743  21969954.3984                   21969952.5904
        37.0004         22.0004
     46082.770 6                  22772249.492
        36.000
 19  3  6 19 52 40.0000000  0  7G07G08G09G27G23G30G16
   -147384.03546   -440685.45343  20478883.4774                   20478878.5314
        38.2504         22.0004
   -168737.750 5                  22667909.609
        34.750
    -12232.85546    -49421.91844  20502932.0474                   20502929.6804
        39.0004         29.7504
   -103384.391 4                  22239829.664
        28.500
     45426.594 5                  22453188.211
        35.000
   -238437.39845   -505890.69143  21965690.7114                   21965689.7304
        35.5004         20.0004
     53187.434 5                  22773602.000
        32.000
 19  3  6 19 52 45.0000000  0  6G07G08G09G23G30G16
   -161319.41446   -451544.23044  20476230.4614                   20476226.5634
        38.5004         26.2504
   -190951.500 5                  22663682.633
        32.750
    -13028.77746    -50042.09443  20502781.0474                   20502778.1374
        36.5004         22.7504
     51559.578 5                  22454355.281
        33.500
   -260819.35946   -523331.06243  21961432.7424                   21961430.6564
        37.0004         20.7504
     60312.727 5                  22774958.570
        32.750
 19  3  6 19 52 50.0000000  0  6G07G08G09G23G30G16
   -175232.81246   -462385.82443  20473582.3524                   20473579.1294
        37.0004         22.5004
   -213140.992 5                  22659457.805
        32.250
    -13798.16446    -50641.60244  20502634.1414                   20502631.7074
        39.2504         26.7504
     57713.527 5                  22455527.336
        35.250
   -283182.398 5                  21957174.750
        33.000
     67458.348 6                  22776317.266
        36.750
 19  3  6 19 52 55.0000000  0  6G07G08G09G23G30G16
   -189124.30146   -473210.34444  20470939.7424                   20470935.5824
        38.5004         27.0004
   -235306.570 5                  22655239.922
        34.250
    -14541.23846    -51220.64544  20502492.2894                   20502490.2584
        38.7504         26.5004
     63888.246 6                  22456701.234
        36.000
   -305526.582 5                  21952923.242
        31.500
     74624.203 5                  22777680.664
        35.000
 19  3  6 19 53  0.0000000  0  6G07G08G09G23G30G16
   -202994.16446   -484018.05144  20468300.2194                   20468296.3164
        39.7504         27.5004
   -257448.176 5                  22651027.188
        35.250
    -15258.25846    -51779.34844  20502356.0474                   20502353.8054
        40.2504         29.2504
     70083.613 5                  22457880.430
        35.250
   -327852.324 5                  21948676.453
        34.500
     81810.063 5                  22779048.266
        34.500
 19  3  6 19 53  5.0000000  0  6G07G08G09G23G30G16
   -216842.21546   -494808.73044  20465665.3524                   20465661.0434
        38.5004         27.2504
   -279565.891 5                  22646819.305
        35.500
    -15949.00046    -52317.59844  20502224.8674                   20502222.6644
        38.5004         29.0004
     76299.734 5                  22459064.352
        35.500
   -350159.211 5                  21944432.898
        31.500
     89016.137 5                  22780420.148
        34.250
 19  3  6 19 53 10.0000000  0  6G07G08G09G23G30G16
   -230669.32846   -505583.11744  20463034.1334                   20463029.8714
        39.5004         25.5004
   -301660.336 6                  22642614.625
        36.500
    -16614.24646    -52836.00444  20502098.3984                   20502095.6414
        40.0004         29.5004
     82535.828 6                  22460250.125
        36.250
   -372448.395 5                  21940189.758
        34.000
     96241.543 5                  22781794.773
        35.500
 19  3  6 19 53 15.0000000  0  6G07G08G09G23G30G16
   -244475.35546   -516341.05544  20460406.9614                   20460402.7274
        38.7504         25.2504
   -323731.469 5                  22638414.055
        34.750
    -17253.97746    -53334.48444  20501975.9304                   20501974.2034
        39.7504         28.2504
     88792.023 5                  22461439.781
        32.500
   -394719.53515                  21935951.781
        30.750
    103486.340 5                  22783174.523
        35.500
 19  3  6 19 53 20.0000000  0  6G07G08G09G23G30G16
   -258260.59046   -527082.81244  20457783.4384                   20457779.5394
        39.2504         28.5004
   -345779.590 6                  22634218.008
        36.250
    -17868.56246    -53813.36744  20501859.4924                   20501857.2114
        39.5004         29.2504
     95067.777 5                  22462634.695
        35.500
   -416972.848 5                  21931716.328
        34.250
    110750.242 5                  22784556.188
        35.500
 19  3  6 19 53 25.0000000  0  6G07G08G09G23G30G16
   -272025.77346   -537808.93444  20455164.3524                   20455159.7154
        38.5004         25.7504
   -367805.363 5                  22630027.766
        35.750
    -18458.59846    -54273.16844  20501746.9384                   20501744.7194
        40.7504         29.0004
    101362.574 5                  22463831.867
        35.750
   -439209.219 5                  21927484.117
        32.000
    118032.559 6                  22785941.641
        36.000
 19  3  6 19 53 30.0000000  0  6G07G08G09G23G30G16
   -285771.10246   -548519.57444  20452548.5084                   20452544.3204
        40.7504         28.2504
   -389809.113 5                  22625840.031
        35.250
    -19024.44546    -54714.05544  20501639.6024                   20501637.0314
        40.7504         28.2504
    107676.043 5                  22465033.859
        35.500
   -461428.910 6                  21923257.977
        37.000
    125332.902 6                  22787330.820
        36.250
 19  3  6 19 53 35.0000000  0  6G07G08G09G23G30G16
   -299496.75446   -559214.88744  20449936.4454                   20449932.3444
        39.5004         28.2504
   -411790.949 5                  22621656.813
        35.750
    -19566.19546    -55136.20344  20501536.6414                   20501534.0634
        39.0004         26.7504
    114008.039 6                  22466238.938
        36.000
   -483631.953 6                  21919032.555
        36.750
    132651.152 5                  22788723.016
        34.000
 19  3  6 19 53 40.0000000  0  1G07
                                  20447331.2664                   20447324.3524
        29.7504         24.5004
 19  3  6 19 53 45.0000000  0  5G07G08G09G23G16
   -326889.30556   -580559.74654  20444723.5164                   20444719.6024
        39.5004         28.2504
    -17545.72315                  22613301.422
        33.250
    -20582.62116                  20501342.570
        40.000
    126724.77715                  22468658.586
        35.250
    147341.36715                  22791519.773
        35.000
 19  3  6 19 53 50.0000000  0  5G07G08G09G23G16
   -340556.25446   -591209.31244  20442122.8204                   20442119.0784
        38.7504         27.5004
    -39462.000 5                  22609131.992
        34.500
    -21052.50846    -55750.49654  20501254.1094                   20501251.9454
        39.2504         27.7504
    133112.156 5                  22469874.219
        35.250
    154713.082 5                  22792922.977
        35.000
 19  3  6 19 53 55.0000000  0  6G07G08G09G27G23G16
   -354203.85246   -601843.80544  20439525.8594                   20439522.0474
        37.7504         27.5004
                                  22604963.547
        27.500
    -21498.64546    -56098.13744  20501168.7344                   20501167.2304
        38.7504         28.5004
                                  22202160.852
        35.250
    139517.773 5                  22471091.727
        33.500
    162102.332 5                  22794328.008
        34.750
 19  3  6 19 54  0.0000000  0  6G07G09G27G23G30G16
   -367832.36346   -612463.41444  20436932.1954                   20436928.7464
        36.7504         25.7504
    -21921.45746    -56427.62144  20501088.3444                   20501086.7774
        38.0004         28.2504
    -24420.75045    -64265.50453  22199693.0394                   22199690.9184
        35.5004         20.2504
    145940.988 5                  22472316.000
        34.250
                                  21897952.656
        36.750
    169508.719 5                  22795736.563
        33.000
 19  3  6 19 54  5.0000000  0  6G07G09G27G23G30G16
   -381442.12146   -623068.42244  20434342.1954                   20434338.4494
        38.0004         26.2504
    -22320.98446    -56738.94144  20501012.8284                   20501010.5594
        39.0004         29.0004
    -37365.16446    -74352.10943  22197229.7974                   22197228.2034
        36.2504         19.0004
    152382.156 5                  22473542.781
        34.500
    -38916.14846   -535839.66453  21893746.5944                   21893744.4454
        36.0004         22.2504
    176932.297 5                  22797150.227
        35.000
 19  3  6 19 54 10.0000000  0  6G07G09G27G23G30G16
   -395032.87146   -633658.62144  20431755.4924                   20431752.3954
        37.5004         24.5004
    -22697.18746    -57032.09044  20500940.8204                   20500939.0554
        40.0004         27.5004
    -50282.45346    -84417.50843  22194771.5234                   22194769.8594
        36.0004         19.0004
    158841.066 5                  22474770.523
        34.000
    -61005.79746   -553052.34043  21889543.3524                   21889541.5124
        36.2504         22.0004
    184372.934 5                  22798566.680
        35.000
 19  3  6 19 54 15.0000000  0  6G07G09G27G23G30G16
   -408604.79746   -644234.16044  20429173.4844                   20429169.8954
        40.7504         26.0004
    -23050.12146    -57307.10544  20500874.0164                   20500871.8834
        41.0004         29.2504
    -63172.62146    -94461.78543  22192319.2424                   22192317.2424
        36.2504         18.5004
    165317.738 5                  22476004.125
        34.250
    -83079.53146   -570252.69143  21885342.6254                   21885341.1174
        37.0004         22.5004
    191830.602 5                  22799985.000
        34.750
 19  3  6 19 54 20.0000000  0  6G07G09G27G23G30G16
   -422157.91446   -654794.99644  20426594.2664                   20426590.5514
        39.5004         26.2504
    -23379.96146    -57564.10944  20500810.9304                   20500808.9184
        38.5004         27.7504
    -76035.83245   -104485.10542  22189871.0084                   22189869.3634
        35.7504         17.7504
    171811.941 5                  22477239.703
        33.500
   -105137.59045   -587440.73443  21881146.0474                   21881144.0354
        35.2504         21.5004
    199305.219 5                  22801407.648
        34.500
 19  3  6 19 54 25.0000000  0  6G07G09G27G23G30G16
   -435692.44946   -665341.41044  20424018.5314                   20424015.0634
        37.0004         24.2504
    -23686.83646    -57803.26244  20500752.6724                   20500750.6994
        38.5004         26.5004
    -88872.12145   -114487.35943  22187428.6954                   22187426.9454
        35.7504         18.5004
    178323.555 5                  22478478.555
        33.750
   -127180.09045   -604616.68743  21876950.8914                   21876949.0984
        35.5004         21.0004
    206796.563 5                  22802833.859
        34.500
 19  3  6 19 54 30.0000000  0  6G07G09G27G23G30G16
   -449208.88346   -675873.68744  20421447.0164                   20421442.9494
        38.0004         25.5004
    -23971.30546    -58024.91444  20500698.7034                   20500696.8484
        39.0004         25.7504
   -101682.05945   -124469.15643  22184991.2584                   22184989.6024
        35.5004         19.0004
    184852.004 5                  22479719.578
        33.500
   -149207.53946   -621780.95343  21872758.6334                   21872757.4454
        36.2504         19.5004
    214304.094 5                  22804261.648
        34.750
 19  3  6 19 54 35.0000000  0  6G07G09G27G23G30G16
   -462706.91046   -686391.64144  20418878.0394                   20418874.5314
        37.5004         25.5004
    -24233.04346    -58228.87944  20500648.7974                   20500647.0164
        38.7504         27.5004
   -114465.44946   -134430.22343  22182558.5784                   22182557.1254
        36.5004         18.2504
    191397.637 5                  22480965.633
        34.750
   -171219.62546   -638933.22743  21868570.2974                   21868569.0204
        36.5004         19.7504
    221828.098 5                  22805694.008
        34.500
 19  3  6 19 54 40.0000000  0  6G07G09G27G23G30G16
   -476187.15646   -696895.71544  20416312.7274                   20416309.2344
        38.5004         27.2504
    -24472.67646    -58415.58244  20500603.3204                   20500601.1334
        39.5004         28.2504
   -127222.71546   -144370.97343  22180130.5784                   22180129.1414
        36.0004         19.2504
    197959.816 5                  22482214.961
        35.000
   -193216.93046   -656073.98843  21864384.4454                   21864382.9344
        37.2504         20.0004
    229368.016 5                  22807127.469
        35.250
 19  3  6 19 54 45.0000000  0  6G07G09G27G23G30G16
   -489649.75046   -707386.03944  20413751.4694                   20413747.4024
        36.2504         26.0004
    -24690.32046    -58585.18044  20500561.4534                   20500560.1804
        38.2504         26.7504
   -139954.04746   -154291.50043  22177708.2034                   22177706.2974
        36.0004         20.0004
    204538.445 5                  22483466.984
        34.250
   -215199.59446   -673203.33243  21860201.1094                   21860199.5004
        36.2504         20.2504
    236923.645 5                  22808566.203
        34.750
 19  3  6 19 54 50.0000000  0  6G07G09G27G23G30G16
   -503094.71546   -717862.66444  20411192.6724                   20411188.5434
        37.2504         25.5004
    -24885.96546    -58737.64544  20500524.6804                   20500522.8524
        38.7504         27.5004
   -152659.51246   -164191.83243  22175291.1564                   22175288.9614
        36.5004         20.2504
    211133.441 5                  22484721.414
        34.500
   -237167.54745   -690321.17243  21856021.2734                   21856019.9104
        32.2504         19.2504
    244494.977 5                  22810006.938
        35.000
 19  3  6 19 54 55.0000000  0  6G07G09G27G23G30G16
   -516522.23846   -728325.66844  20408637.1954                   20408633.7464
        37.2504         24.5004
    -25059.93446    -58873.21544  20500490.6884                   20500489.7304
        39.0004         26.7504
   -165339.32445   -174072.24243  22172876.1414                   22172875.9184
        35.5004         19.5004
    217744.594 5                  22485979.297
        34.250
   -259121.34046   -707428.06243  21851842.4774                   21851842.0704
        37.2504         20.2504
    252081.84415                  22811449.375
        31.000
 19  3  6 19 55  0.0000000  0  6G07G09G27G23G30G16
   -529932.59046   -738775.27744  20406085.7664                   20406082.0664
        37.7504         25.5004
    -25212.45346    -58992.05544  20500462.4144                   20500460.5594
        38.5004         26.5004
   -177993.70345   -183932.72342  22170469.3204                   22170467.9104
        35.5004         17.7504
    224371.602 5                  22487241.359
        35.000
   -281060.89846   -724523.83243  21847668.6564                   21847667.4064
        36.5004         20.7504
    259683.645 5                  22812897.633
        35.250
 19  3  6 19 55  5.0000000  0  6G07G09G27G23G30G16
   -543325.44546   -749211.27344  20403537.1254                   20403533.3754
        37.7504         25.0004
    -25343.20346    -59093.93444  20500436.8524                   20500435.3954
        38.5004         27.2504
   -190622.32846   -193773.23443  22168065.8914                   22168064.5944
        36.0004         18.2504
    231014.789 5                  22488505.227
        33.750
   -302985.97746   -741608.30143  21843496.1094                   21843495.1054
        36.5004         20.2504
    267301.066 5                  22814346.031
        35.250
 19  3  6 19 55 10.0000000  0  6G07G09G27G23G30G16
   -556700.80146   -759633.61744  20400991.7344                   20400987.8754
        37.2504         25.5004
    -25452.21146    -59178.89144  20500416.3594                   20500415.2624
        38.2504         26.5004
   -203225.25046   -203593.67643  22165668.3834                   22165666.4774
        36.0004         18.2504
    237674.08215                  22489772.141
        34.500
   -324896.65246   -758681.57443  21839327.7504                   21839325.4384
        36.5004         19.2504
    274933.980 5                  22815798.234
        35.000
 19  3  6 19 55 15.0000000  0  6G07G09G27G23G30G16
   -570058.72346   -770042.40244  20398449.4614                   20398445.5314
        37.0004         24.7504
    -25539.49246    -59246.89544  20500400.7584                   20500398.4454
        38.2504         27.0004
   -215802.42246   -213394.08643  22163274.6094                   22163273.2894
        36.2504         18.2504
    244349.594 5                  22491043.180
        33.500
   -346792.84846   -775743.53143  21835159.8054                   21835159.0274
        36.5004         19.5004
    282582.270 5                  22817254.289
        35.500
 19  3  6 19 55 20.0000000  0  6G07G09G27G23G30G16
   -583399.23046   -780437.59444  20395911.2584                   20395907.0704
        37.5004         25.2504
    -25605.10246    -59298.02044  20500388.6414                   20500385.8754
        38.7504         27.0004
   -228354.00046   -223174.53543  22160885.8284                   22160884.8484
        36.0004         18.2504
                                  22492314.984
        32.500
   -368674.71146   -792794.32043  21830997.0004                   21830995.0044
        36.7504         20.0004
    290245.895 5                  22818713.063
        35.000
 19  3  6 19 55 25.0000000  0  6G07G09G27G23G30G16
   -596722.30545   -790819.19143  20393374.2114                   20393372.0234
        34.5004         22.7504
    -25649.17646    -59332.36344  20500378.1254                   20500377.1214
        36.0004         24.5004
   -240880.03945   -232935.05943  22158501.1334                   22158501.2074
        33.5004         18.2504
    257748.60514                  22493588.844
        29.000
   -390542.06245   -809833.80143  21826834.3134                   21826833.8834
        34.5004         19.7504
    297924.820 5                  22820174.523
        32.750
 19  3  6 19 58  0.0000000  0  6G07G08G09G27G16G30
                                  20616127.719
        41.750
                                  22705236.867
        36.250
                                  20801852.141
        41.750
                                  22386729.430
        39.000
                                  23166600.813
        38.500
                                  21998905.7734                   21998906.3364
        38.5004         24.5004
 19  3  6 19 58  5.0000000  0  6G07G08G09G27G16G30
   1519564.49646    428725.09054  20613694.5394                   20613690.7384
        41.2504         28.5004
   1523480.754 6                  22701259.164
        36.500
   1576644.17646   1168536.03955  20801970.8984                   20801970.2194
        40.7504         30.5004
   1551937.05546    986840.46553  22384497.5864                   22384496.3714
        37.5004         22.0004
   1595515.262 6                  23168150.070
        37.000
   1487091.27046    386318.13343  21994828.4064                   21994828.1054
        38.2504         22.7504
 19  3  6 19 58 10.0000000  0  6G07G08G09G27G16G30
   1506794.14846    418774.16844  20611263.5234                   20611260.6644
        39.2504         26.7504
   1502586.539 5                  22697282.094
        32.750
   1577284.54746   1169035.01244  20802091.7274                   20802091.8674
        38.0004         29.5004
   1540230.78545    977718.68043  22382268.9304                   22382268.9104
        33.2504         21.5004
   1603665.883 5                  23169701.070
        34.500
   1465681.80145    369635.41043  21990753.1024                   21990754.0554
        34.7504         22.5004
 19  3  6 19 58 15.0000000  0  6G07G08G09G27G16G30
   1494041.84846    408837.31644  20608837.3134                   20608834.4494
        39.5004         26.7504
                                  22693307.797
        31.750
   1577941.30146   1169546.73044  20802217.6954                   20802216.3954
        38.2504         29.0004
   1528538.30945    968607.65243  22380044.9304                   22380044.2504
        33.5004         19.7504
   1611822.613 6                  23171253.344
        36.750
   1444294.36746    352969.89143  21986683.3754                   21986683.8094
        36.2504         22.2504
 19  3  6 19 58 20.0000000  0  6G07G08G09G27G16G30
   1481305.39146    398912.80944  20606412.9064                   20606410.3244
        41.0004         27.7504
   1460828.90215                  22689336.695
        35.500
   1578617.10246   1170073.35944  20802346.0314                   20802345.1454
        40.0004         27.5004
   1516868.00846    959513.92243  22377823.4064                   22377822.9064
        38.0004         19.2504
   1619991.078 6                  23172807.352
        36.250
   1422921.18446    336315.44143  21982616.0634                   21982616.2934
        36.2504         22.5004
 19  3  6 19 58 50.0000000  0  1G27
                                  22364567.023
        31.500
 19  3  6 19 59 40.0000000  0  2G07G27
                                  20567937.211
        34.750
                                  22342820.727
        33.000
 19  3  6 20  0  0.0000000  0  1G30
                                  21901635.156
        37.750
 19  3  6 20  0  5.0000000  0  4G07G09G27G30
                                  20556055.5554                   20556053.3594
        44.2504         35.5004
                                  20805750.727
        43.500
                                  22332106.375
        38.750
                                  21897610.8754                   21897609.7504
        41.2504         26.0004
 19  3  6 20  0 10.0000000  0  3G07G27G16
   1556006.52756    375525.89154  20553685.9614                   20553685.8634
        37.0004         25.5004
                                  22329975.445
        32.500
                                  23207486.578
        33.250
 19  3  6 20  0 15.0000000  0  6G07G08G09G27G16G30
   1565483.06657    369719.30554  20551324.4614                   20551321.0204
        44.5004         28.0004
   1559039.71716                  22598802.555
        38.000
   1578041.61757   1172181.94554  20806156.0554                   20806156.4304
        42.0004         27.5004
   1548133.68316                  22327852.328
        40.250
   1593578.56616                  23209089.398
        37.250
   1495024.99617                  21889567.859
        42.500
 19  3  6 20  0 20.0000000  0  6G07G08G09G27G16G30
   1553072.07847    360048.39854  20548961.1804                   20548959.4024
        42.0004         27.7504
   1538563.805 6                  22594904.609
        36.750
   1579132.18046   1173031.87544  20806361.4534                   20806363.8794
        41.5004         27.7504
   1536990.34446    949008.07453  22325730.5634                   22325732.1764
        39.5004         21.5004
   1602009.227 6                  23210692.461
        37.000
   1473908.06646    302045.77053  21885548.1024                   21885549.2194
        38.5004         22.5004
 19  3  6 20  0 25.0000000  0  6G07G08G09G27G16G30
   1540674.68447    350388.07444  20546603.5474                   20546598.6994
        44.5004         26.5004
   1518104.898 6                  22591012.586
        36.250
   1580240.18846   1173895.22744  20806573.8984                   20806573.7544
        41.5004         26.7504
   1525869.27746    940342.30543  22323614.8444                   22323614.4064
        40.5004         22.0004
   1610450.813 6                  23212300.742
        38.500
   1452801.74647    285599.24644  21881532.5314                   21881532.0634
        42.0004         24.0004
 19  3  6 20  0 30.0000000  0  5G07G09G27G16G30
   1528290.51447    340738.14344  20544246.4224                   20544240.5234
        42.2504         26.2504
                                  20806787.3834                   20806785.5664
        40.2504         27.0004
                                  22321501.8914                   22321499.8524
        39.7504         22.7504
                                  23213907.813
        32.250
   1431705.46146    269160.62944  21877516.6884                   21877517.0554
        36.5004         24.2504
 19  3  6 20  0 35.0000000  0  4G07G08G09G16
                                  20541893.6884                   20541891.3484
        46.5004         21.5004
                                  22583236.250
        37.000
                                  20807006.8594                   20807002.7734
        45.0004         26.2504
                                  23215520.703
        33.750
 19  3  6 20  0 40.0000000  0  6G07G08G09G27G16G30
   1503564.18047    321470.91443  20539540.0164                   20539537.8284
        47.2504         23.2504
   1456820.27346   1224983.78953  22579350.6414                   22579343.8794
        40.0004         20.2504
   1583664.00447   1176419.10554  20807225.7424                   20807222.8634
        46.5004         25.0004
   1563009.65217                  22317289.414
        44.500
   1635835.567 6                  23217129.773
        38.000
   1548418.62957    254757.17654  21869494.5554                   21869493.4344
        43.0004         24.2504
 19  3  6 20  0 45.0000000  0  6G07G08G09G27G16G30
   1491205.79747    311841.03943  20537188.1644                   20537186.6334
        46.2504         22.7504
   1436413.85946   1209082.71543  22575467.3914                   22575461.8594
        40.0004         19.0004
   1584826.39147   1177324.92243  20807447.1254                   20807445.7304
        45.5004         22.5004
   1551961.930 7                  22315187.391
        44.000
   1644304.590 6                  23218741.508
        37.000
   1527339.19947    238331.68043  21865483.6484                   21865483.1094
        44.7504         21.0004
 19  3  6 20  0 50.0000000  0  6G07G08G09G27G16G30
   1478860.10947    302220.96143  20534836.7584                   20534837.3404
        44.5004         22.0004
   1416025.551 5                  22571585.570
        33.250
   1586005.57046   1178243.70743  20807668.9224                   20807670.9844
        41.5004         22.7504
   1540938.055 6                  22313086.961
        38.000
   1652785.88316                  23220353.492
        36.750
   1506267.78146    221912.37943  21861470.9384                   21861474.3324
        41.5004         20.7504
 19  3  6 20  0 55.0000000  0  6G07G08G09G27G16G30
   1466527.93047    292611.49244  20532492.0314                   20532491.4534
        46.7504         24.5004
   1395652.234 6                  22567710.516
        38.000
   1587201.58647   1179175.70743  20807898.8674                   20807899.9494
        44.7504         23.2504
   1529934.172 6                  22310994.922
        39.750
   1661276.133 6                  23221970.469
        39.000
   1485208.71947    205502.77343  21857466.1644                   21857467.5274
        42.5004         20.5004
 19  3  6 20  1  0.0000000  0  6G07G08G09G27G16G30
   1454213.73047    283016.00443  20530148.2344                   20530148.7464
        45.7504         22.5004
   1375298.941 6                  22563838.125
        36.000
   1588419.11747   1180124.40243  20808130.4844                   20808132.8674
        43.0004         23.2504
   1518955.339 6                  22308905.273
        38.250
   1669779.410 6                  23223588.125
        37.750
   1464164.43547    189104.59443  21853461.2274                   21853464.2584
        42.5004         21.0004
 19  3  6 20  1  5.0000000  0  6G07G08G09G27G16G30
   1441914.82847    273432.43444  20527806.6174                   20527808.7584
        42.5004         24.2504
   1354963.805 6                  22559966.938
        36.750
   1589655.44947   1181087.74643  20808364.6094                   20808368.5634
        42.0004         22.7504
   1507999.746 6                  22306820.375
        37.000
   1678295.109 6                  23225207.375
        36.750
   1443133.88346    172717.10543  21849458.1954                   21849462.0904
        38.7504         21.0004
 19  3  6 20  1 10.0000000  0  7G07G08G09G27G16G28G30
   1429629.56347    263859.52044  20525469.4224                   20525471.4224
        45.0004         27.0004
   1334643.906 6                  22556101.000
        38.000
   1590908.61347   1182064.27744  20808602.8054                   20808607.0474
        43.7504         24.2504
   1497064.484 6                  22304739.547
        39.500
   1686819.488 6                  23226830.305
        38.500
   1385110.73415                  24215188.750
        35.250
   1422114.52347    156338.44943  21845458.8674                   21845462.5124
        43.0004         21.5004
 19  3  6 20  1 15.0000000  0  7G07G08G09G27G16G28G30
   1417354.40247    254294.45744  20523133.6644                   20523135.6214
        44.7504         25.7504
   1314339.445 6                  22552235.891
        38.250
   1592176.41047   1183052.11743  20808844.4924                   20808848.4494
        43.5004         22.5004
   1486149.801 6                  22302662.492
        38.750
   1695352.789 6                  23228453.914
        38.000
   1358859.379 6                  24210193.023
        36.250
   1401101.85947    139964.88743  21841459.9694                   21841464.2734
        42.5004         22.2504
 19  3  6 20  1 20.0000000  0  7G07G08G09G27G16G28G30
   1405089.37947    244737.32444  20520799.2894                   20520802.1024
        43.7504         25.5004
   1294046.156 6                  22548374.477
        38.500
   1593457.07847   1184050.07043  20809087.5634                   20809092.1884
        43.2504         22.7504
   1475251.719 6                  22300587.797
        39.500
   1703891.680 6                  23230079.375
        38.500
   1332612.660 6                  24205198.188
        38.750
   1380097.50846    123597.91043  21837462.5004                   21837467.2304
        40.2504         21.7504
 19  3  6 20  1 25.0000000  0  7G07G08G09G27G16G28G30
   1392837.49247    235190.38344  20518468.2034                   20518470.0904
        44.5004         24.0004
   1273770.727 6                  22544516.336
        38.750
   1594754.51247   1185061.04743  20809334.7424                   20809339.0984
        43.5004         22.7504
   1464377.410 6                  22298518.641
        39.000
   1712442.668 6                  23231706.648
        37.750
   1306370.363 6                  24200204.836
        37.000
   1359101.47346    107237.35943  21833467.5084                   21833472.2544
        41.2504         21.5004
 19  3  6 20  1 30.0000000  0  7G07G08G09G27G16G28G30
   1380598.24647    225653.28944  20516139.7814                   20516141.3204
        45.0004         25.0004
   1253511.258 6                  22540661.867
        38.500
   1596068.57047   1186084.98844  20809585.5004                   20809589.2504
        43.5004         24.0004
   1453523.691 6                  22296454.344
        39.500
   1721002.449 6                  23233336.156
        37.750
   1280135.781 6                  24195212.961
        36.500
   1338115.57446     90884.69943  21829475.0084                   21829479.2194
        41.5004         22.0004
 19  3  6 20  1 35.0000000  0  7G07G08G09G27G16G28G30
   1368368.70747    216123.79744  20513812.3204                   20513813.6914
        45.5004         25.0004
   1233265.531 6                  22536809.344
        37.500
   1597396.38747   1187119.64143  20809837.7344                   20809842.2304
        44.5004         22.5004
   1442688.648 6                  22294391.734
        39.750
   1729569.301 6                  23234965.484
        39.500
   1253906.387 6                  24190222.242
        38.500
   1317136.80546     74537.61743  21825482.3834                   21825486.4574
        41.5004         21.5004
 19  3  6 20  1 40.0000000  0  7G07G08G09G27G16G28G30
   1356149.30147    206602.18843  20511486.6484                   20511488.4734
        42.7504         22.5004
   1213034.195 5                  22532959.078
        34.500
   1598738.62946   1188165.52343  20810092.6414                   20810097.5274
        40.5004         22.2504
   1431872.684 6                  22292333.695
        36.500
   1738143.031 5                  23236597.711
        35.250
   1227681.207 5                  24185231.141
        33.000
   1296164.47746     58195.53943  21821491.7194                   21821496.1294
        40.2504         20.2504
 19  3  6 20  1 45.0000000  0  7G07G08G09G27G16G28G30
   1343940.01647    197088.43043  20509163.9614                   20509166.0124
        44.0004         23.0004
   1192814.516 6                  22529111.766
        38.500
   1600093.95347   1189221.60943  20810351.0164                   20810356.3444
        42.5004         21.2504
   1421073.738 6                  22290278.703
        39.500
   1746722.656 6                  23238229.188
        38.750
   1201461.148 5                  24180241.727
        32.500
   1275200.71946     41860.11743  21817502.6484                   21817507.5004
        40.5004         19.5004
 19  3  6 20  1 50.0000000  0  7G07G08G09G27G16G28G30
   1331741.19557    187582.93054  20506841.4924                   20506844.6684
        45.2504         24.7504
   1172610.12016                  22525266.547
        39.250
   1601463.67747   1190288.97643  20810610.9924                   20810617.7544
        43.7504         22.0004
   1410295.391 6                  22288226.711
        40.250
   1755311.14516                  23239863.117
        37.750
   1175243.24615                  24175250.914
        33.500
   1254243.17646     25529.63343  21813512.8984                   21813519.4304
        40.7504         19.7504
 19  3  6 20  1 55.0000000  0  7G07G08G09G27G16G28G30
   1319550.22747    178083.46944  20504521.7114                   20504524.9964
        46.0004         24.5004
   1152417.605 6                  22521423.758
        39.500
   1602845.22347   1191365.49243  20810874.0634                   20810881.0394
        43.7504         22.5004
   1399533.816 6                  22286178.719
        40.000
   1763904.602 6                  23241498.766
        40.000
   1149029.996 6                  24170263.406
        38.000
   1233291.01246      9203.26243  21809525.3524                   21809532.1294
        41.7504         20.7504
 19  3  6 20  2  0.0000000  0  7G07G08G09G27G16G28G30
   1307370.27347    168592.58644  20502204.3674                   20502207.7114
        47.0004         24.5004
   1132238.199 6                  22517583.477
        38.750
   1604241.01247   1192453.14143  20811139.9844                   20811146.5274
        44.0004         22.5004
   1388790.516 6                  22284134.414
        40.500
   1772504.766 6                  23243135.641
        40.250
   1122821.352 6                  24165276.195
        38.250
   1212347.10947     -7116.64543  21805540.4454                   21805547.1334
        42.2504         21.5004
 19  3  6 20  2  5.0000000  0  7G07G08G09G27G16G28G30
   1295201.29347    159110.22744  20499889.1334                   20499891.8984
        47.0004         24.0004
   1112072.664 6                  22513747.109
        40.750
   1605651.07847   1193551.82443  20811408.3674                   20811414.7814
        44.7504         22.7504
   1378066.195 6                  22282094.750
        41.500
   1781112.508 6                  23244774.172
        41.000
   1096618.699 6                  24160291.453
        39.000
   1191412.04746    -23429.71943  21801557.5944                   21801563.8594
        41.2504         21.0004
 19  3  6 20  2 10.0000000  0  7G07G08G09G27G16G28G30
   1283044.70747    149637.55143  20497575.3524                   20497578.8834
        46.5004         22.5004
   1091921.594 6                  22509911.586
        39.750
   1607077.17647   1194663.04743  20811680.0234                   20811685.9304
        45.2504         22.5004
   1367360.754 6                  22280057.430
        40.250
   1789727.074 6                  23246413.789
        40.500
   1070423.418 6                  24155305.289
        37.500
   1170487.03147    -39734.93443  21797575.9774                   21797581.6134
        42.2504         21.5004
 19  3  6 20  2 15.0000000  0  7G07G08G09G27G16G28G30
   1270896.43447    140171.37144  20495263.7664                   20495265.5314
        46.5004         25.2504
   1071784.023 6                  22506079.578
        40.000
   1608515.21547   1195783.64543  20811953.7424                   20811959.4844
        45.0004         22.5004
   1356674.684 6                  22278024.016
        41.250
   1798349.637 6                  23248054.055
        40.250
   1044229.793 6                  24150321.109
        37.750
   1149566.60547    -56036.53143  21793594.5944                   21793600.2274
        42.0004         21.5004
 19  3  6 20  2 20.0000000  0  7G07G08G09G27G16G28G30
   1258757.25047    130712.28544  20492953.6644                   20492956.0554
        47.0004         24.2504
   1051658.324 6                  22502250.641
        38.750
   1609965.46947   1196913.66843  20812229.1884                   20812235.4574
        44.5004         22.7504
   1346005.910 6                  22275993.008
        40.000
   1806978.055 6                  23249696.250
        40.250
   1018038.953 6                  24145336.617
        38.500
   1128652.45347    -72333.31243  21789614.4694                   21789620.0474
        42.2504         21.5004
 19  3  6 20  2 25.0000000  0  7G07G08G09G27G16G28G30
   1246627.68447    121260.70344  20490645.5234                   20490647.4924
        47.2504         25.5004
   1031546.484 6                  22498422.938
        38.000
   1611428.68847   1198053.91843  20812508.4144                   20812513.2814
        45.0004         22.7504
   1335356.754 6                  22273967.367
        40.000
   1815614.598 6                  23251339.461
        39.500
    991850.777 6                  24140353.695
        38.500
   1107744.30147    -88625.30543  21785635.6804                   21785641.3554
        43.2504         21.5004
 19  3  6 20  2 30.0000000  0  7G07G08G09G27G16G28G30
   1234507.63748    111816.51244  20488339.4144                   20488341.1214
        48.0004         25.2504
   1011448.031 6                  22494597.773
        38.500
   1612905.51647   1199204.66443  20812789.0784                   20812793.5704
        45.0004         22.7504
   1324725.371 6                  22271943.805
        39.750
   1824256.902 6                  23252983.453
        40.750
    965667.699 5                  24135372.063
        35.500
   1086843.09847   -104911.99243  21781658.4064                   21781663.7544
        43.0004         21.7504
 19  3  6 20  2 35.0000000  0  7G07G08G09G27G16G28G30
   1222397.17247    102379.80144  20486035.2734                   20486036.4494
        47.2504         25.7504
    991368.543 6                  22490777.391
        38.500
   1614399.65247   1200368.92243  20813073.9924                   20813077.8284
        45.0004         22.2504
   1314115.383 6                  22269925.016
        39.500
   1832906.113 6                  23254630.383
        40.500
    939491.223 6                  24130389.898
        36.500
   1065946.43447   -121195.07443  21777682.3134                   21777686.6054
        43.0004         21.5004
 19  3  6 20  2 40.0000000  0  7G07G08G09G27G16G28G30
   1210298.73447     92952.43044  20483732.4774                   20483734.1174
        46.5004         25.5004
    971299.234 6                  22486958.016
        38.000
   1615906.84847   1201543.34843  20813360.2734                   20813364.3634
        46.0004         22.5004
   1303521.563 6                  22267909.281
        39.000
   1841561.148 6                  23256276.938
        38.500
    913321.188 6                  24125409.938
        39.000
   1045061.61747   -137468.96943  21773707.9064                   21773712.3874
        42.7504         21.2504
 19  3  6 20  2 45.0000000  0  7G07G08G09G27G16G28G30
   1198212.66447     83534.69544  20481432.6414                   20481433.1604
        47.5004         24.5004
    951243.098 6                  22483142.055
        40.250
   1617428.34447   1202728.92243  20813650.0394                   20813653.5984
        46.0004         22.5004
   1292946.863 6                  22265896.945
        41.750
   1850224.570 7                  23257925.250
        42.000
    887157.242 6                  24120431.750
        38.000
   1024187.46947   -153734.56243  21769736.0314                   21769739.5904
        43.0004         21.0004
 19  3  6 20  2 50.0000000  0  7G07G08G09G27G16G28G30
   1186138.53547     74126.28944  20479135.4384                   20479136.5474
        47.0004         26.2504
    931203.957 6                  22479328.602
        41.000
   1618966.51647   1203927.48043  20813942.8364                   20813946.3594
        46.2504         23.7504
   1282393.324 6                  22263888.938
        41.500
   1858896.496 6                  23259576.438
        40.750
    861000.641 6                  24115454.438
        38.500
   1003321.85546   -169993.46543  21765765.5554                   21765768.9734
        41.5004         21.7504
 19  3  6 20  2 55.0000000  0  7G07G08G09G27G16G28G30
   1174073.14847     64724.66443  20476838.5314                   20476840.2934
        43.2504         22.7504
    911178.086 6                  22475517.172
        37.500
   1620517.22346   1205135.80943  20814236.5704                   20814241.7974
        41.5004         22.5004
   1271858.156 6                  22261882.875
        37.500
   1867575.078 6                  23261226.813
        37.000
    834847.469 5                  24110475.266
        34.250
    982462.01246   -186247.92643  21761794.7114                   21761799.7274
        40.5004         22.0004
 19  3  6 20  3  0.0000000  0  7G07G08G09G27G16G28G30
   1162019.59047     55332.23043  20474545.9144                   20474546.6604
        45.2504         22.5004
    891163.621 6                  22471709.969
        37.500
   1622081.19547   1206354.41843  20814535.6804                   20814539.2384
        44.2504         21.5004
   1261340.441 6                  22259882.828
        37.000
   1876260.113 6                  23262880.102
        39.750
    808698.434 5                  24105501.523
        34.500
    961612.02747   -202494.68443  21757828.6254                   21757832.0744
        43.0004         21.2504
 19  3  6 20  3  5.0000000  0  7G07G08G09G27G16G28G30
   1149974.17247     45946.25843  20472253.0164                   20472254.4804
        45.5004         22.7504
    871161.914 6                  22467902.547
        38.500
   1623657.03547   1207582.42643  20814835.0234                   20814839.0164
        44.0004         22.0004
   1250840.633 6                  22257884.359
        39.750
   1884951.379 6                  23264534.102
        38.500
    782552.125 6                  24100526.000
        36.750
    940767.19146   -218737.34843  21753861.5004                   21753865.4694
        41.7504         20.0004
 19  3  6 20  3 10.0000000  0  7G07G08G09G27G16G28G30
   1137936.41847     36566.16444  20469962.3914                   20469963.5394
        46.0004         24.7504
    851171.832 6                  22464099.445
        38.500
   1625244.62547   1208819.48443  20815138.3054                   20815140.8094
        44.5004         22.0004
   1240356.848 6                  22255889.742
        40.500
   1893646.496 6                  23266189.484
        41.500
    756409.012 6                  24095551.453
        37.500
    919927.38346   -234976.19543  21749895.8674                   21749899.5354
        41.2504         20.0004
 19  3  6 20  3 15.0000000  0  7G07G08G09G27G16G28G30
   1125908.35347     27193.65643  20467674.0314                   20467674.6054
        45.7504         22.5004
    831195.336 6                  22460298.461
        36.250
   1626845.75947   1210067.13343  20815442.8284                   20815445.7934
        44.0004         21.7504
   1229891.313 6                  22253898.945
        37.250
   1902347.957 6                  23267845.766
        38.500
    730270.574 6                  24090578.078
        37.500
    899094.54347   -251209.56343  21745932.0554                   21745935.0274
        43.7504         20.0004
 19  3  6 20  3 20.0000000  0  7G07G08G09G27G16G28G30
   1113890.44147     17829.04743  20465386.7814                   20465387.1254
        45.7504         22.5004
    811232.582 6                  22456499.844
        37.250
   1628461.02747   1211325.76243  20815749.4454                   20815752.7584
        44.0004         22.0004
   1219443.855 6                  22251910.031
        37.750
   1911054.996 6                  23269502.320
        38.500
    704137.664 6                  24085604.695
        40.000
    878269.16447   -267437.11743  21741968.5554                   21741971.8714
        42.0004         19.5004
 19  3  6 20  3 25.0000000  0  7G07G08G09G27G16G28G30
   1101884.39847      8473.70343  20463101.7034                   20463102.4774
        43.5004         22.5004
    791284.844 5                  22452703.102
        35.500
   1630091.43446   1212596.22343  20816059.8754                   20816062.8754
        41.5004         21.7504
   1209016.262 6                  22249925.672
        37.250
   1919769.934 6                  23271159.391
        36.750
    678010.555 5                  24080632.648
        34.000
    857452.83247   -283657.66943  21738007.7194                   21738010.8794
        42.0004         19.5004
 19  3  6 20  3 30.0000000  0  7G07G08G09G27G16G28G30
   1089890.01647      -872.59444  20460820.0784                   20460819.0514
        47.0004         24.5004
    771354.168 6                  22448911.086
        38.000
   1631737.60547   1213878.92243  20816374.1564                   20816375.7664
        45.0004         21.5004
   1198610.770 6                  22247946.320
        39.000
   1928495.305 6                  23272820.750
        39.750
    651890.793 6                  24075662.898
        40.000
    836645.27047   -299871.33643  21734048.5084                   21734051.0664
        44.0004         21.0004
 19  3  6 20  3 35.0000000  0  7G07G08G09G27G16G28G30
   1077907.12547    -10209.94544  20458539.2114                   20458539.4024
        46.0004         25.7504
    751436.328 5                  22445120.016
        34.500
   1633398.93447   1215173.43043  20816689.2584                   20816692.3484
        44.0004         23.2504
   1188221.883 6                  22245968.703
        39.750
   1937224.402 6                  23274481.555
        41.250
    625777.859 6                  24070692.719
        36.500
    815847.21146   -316077.61743  21730089.8284                   21730093.6604
        41.5004         20.5004
 19  3  6 20  3 40.0000000  0  7G07G08G09G27G16G28G30
   1065937.98447    -19536.52744  20456262.9454                   20456261.7664
        47.5004         26.2504
    731535.035 6                  22441333.383
        39.250
   1635077.21147   1216481.20743  20817009.7894                   20817011.6054
        45.5004         22.0004
   1177854.430 7                  22243996.609
        43.000
   1945963.270 6                  23276145.469
        40.000
    599673.883 6                  24065725.867
        38.500
    795060.74247   -332274.88743  21726135.3834                   21726138.2234
        43.0004         20.7504
 19  3  6 20  3 45.0000000  0  7G07G08G09G27G16G28G30
   1053980.18447    -28854.27344  20453987.0004                   20453986.5784
        47.2504         24.0004
    711651.621 6                  22437549.656
        38.500
   1636770.73447   1217800.85243  20817331.5704                   20817333.8484
        44.7504         22.2504
   1167510.402 6                  22242028.734
        41.250
   1954713.559 6                  23277810.297
        39.000
    573574.016 6                  24060759.250
        40.500
    774281.05947   -348466.84443  21722181.4694                   21722184.0124
        43.7504         20.2504
 19  3  6 20  3 50.0000000  0  7G07G08G09G27G16G28G30
   1042031.49447    -38164.92243  20451713.3444                   20451713.1334
        47.0004         23.0004
    691780.551 6                  22433768.227
        38.000
   1638476.98047   1219130.40243  20817656.1174                   20817658.6604
        44.5004         22.2504
   1157183.270 6                  22240063.195
        39.500
   1963468.469 6                  23279476.070
        37.500
    547478.340 7                  24055793.539
        42.750
    753507.88347   -364653.70343  21718227.6414                   21718230.5394
        44.7504         21.0004
 19  3  6 20  3 55.0000000  0  7G07G08G09G27G16G28G30
   1030094.59847    -47466.42644  20449441.7974                   20449441.7114
        47.0004         24.0004
    671920.949 6                  22429989.430
        37.250
   1640197.57047   1220471.08643  20817983.2894                   20817986.5084
        44.5004         22.7504
   1146872.016 6                  22238100.664
        40.500
   1972227.473 6                  23281143.078
        39.500
    521390.566 6                  24050828.523
        38.500
    732746.05947   -380831.73043  21714276.7584                   21714279.8364
        43.2504         20.7504
 19  3  6 20  4  0.0000000  0  7G07G08G09G27G16G28G30
   1018168.87947    -56759.15243  20447170.9454                   20447172.3984
        44.5004         23.2504
    652078.590 6                  22426212.891
        38.500
   1641934.61346   1221824.63343  20818312.9924                   20818316.8054
        41.2504         21.7504
   1136581.637 6                  22236141.602
        40.000
   1980994.164 6                  23282810.008
        41.750
                                  24045864.258
        31.000
    711991.90647   -397003.78543  21710326.7664                   21710330.3204
        42.5004         20.5004
 19  3  6 20  4  5.0000000  0  7G07G08G09G27G16G28G30
   1006256.18447    -66041.82444  20444907.4774                   20444906.1174
        47.5004         25.0004
    632253.734 6                  22422441.102
        37.750
   1643687.11347   1223190.19543  20818648.5704                   20818650.1884
        44.5004         22.0004
   1126315.309 6                  22234189.008
        40.000
   1989773.793 6                  23284482.844
        39.750
    469233.820 6                  24040905.086
        38.250
    691246.56347   -413169.04743  21706381.6254                   21706382.7034
        45.0004         20.2504
 19  3  6 20  4 10.0000000  0  7G07G08G09G27G16G28G30
    994354.00847    -75316.22343  20442640.9304                   20442641.2154
        46.5004         22.5004
    612441.820 6                  22418671.188
        38.500
   1645453.41047   1224566.54343  20818984.0944                   20818987.9104
        45.7504         21.5004
   1116066.402 6                  22232239.008
        40.250
   1998558.914 6                  23286153.680
        37.500
    443163.910 7                  24035942.992
        43.000
    670510.02747   -429327.31643  21702433.5944                   21702437.5944
        43.2504         20.5004
 19  3  6 20  4 15.0000000  0  7G07G08G09G27G16G28G30
    982460.10647    -84584.22943  20440378.3674                   20440378.0274
        47.7504         22.7504
    592641.176 6                  22414903.641
        39.000
   1647230.14847   1225950.99243  20819322.9384                   20819325.9024
        45.2504         21.7504
   1105834.742 6                  22230292.164
        40.750
   2007349.969 6                  23287827.703
        41.000
    417095.051 6                  24030983.148
        40.500
    649778.95347   -445481.48043  21698490.7664                   21698492.8324
        44.7504         21.5004
 19  3  6 20  4 20.0000000  0  7G07G08G09G27G16G28G30
    970575.07048    -93845.31644  20438116.1094                   20438115.9104
        48.2504         24.0004
    572856.191 6                  22411139.453
        37.750
   1649022.48047   1227347.60943  20819664.0784                   20819667.0554
        45.7504         21.5004
   1095620.976 6                  22228349.141
        40.500
   2016144.621 6                  23289501.102
        36.250
    391033.35216                  24026023.914
        41.250
    629053.42547   -461631.22043  21694545.2734                   21694548.3524
        45.2504         21.5004
 19  3  6 20  4 25.0000000  0  7G07G08G09G27G16G28G30
    958700.80148   -103097.97244  20435856.7344                   20435857.9734
        48.5004         24.2504
    553081.887 6                  22407375.102
        37.250
   1650827.15747   1228753.81243  20820006.3984                   20820009.9924
        45.5004         21.5004
   1085423.31347    927576.26955  22226407.7894                   22226398.4654
        42.0004         33.2504
   2024944.082 7                  23291175.711
        42.750
    364976.285 5                  24021066.000
        35.750
    608337.39047   -477773.60443  21690604.0474                   21690607.0944
        44.7504         20.7504
 19  3  6 20  4 30.0000000  0  7G07G08G09G27G16G28G30
    946839.69547   -112340.39244  20433597.2734                   20433600.0394
        46.5004         25.5004
    533324.941 6                  22403614.320
        38.250
   1652647.61147   1230172.38543  20820350.3754                   20820356.1414
        44.7504         21.5004
   1075248.68847    919648.03953  22224469.7424                   22224470.1024
        42.0004         21.0004
   2033755.328 5                  23292851.148
        35.250
    338925.668 6                  24016106.156
        39.250
    587631.35047   -493908.15043  21686661.3754                   21686666.4414
        43.0004         20.5004
 19  3  6 20  4 35.0000000  0  7G07G08G09G27G16G28G30
    934989.58247   -121574.23344  20431343.7734                   20431344.8594
        47.0004         26.0004
    513584.266 6                  22399858.961
        37.500
   1654482.68447   1231602.30443  20820701.9224                   20820705.3594
        44.5004         22.5004
   1065095.77846    911736.73443  22222539.3134                   22222539.1374
        41.5004         18.2504
   2042576.097 7                  23294529.844
        42.500
    312879.074 6                  24011150.273
        36.250
    566932.12947   -510037.39843  21682723.2734                   21682727.4304
        43.7504         21.2504
 19  3  6 20  4 40.0000000  0  7G07G08G09G27G16G28G30
    923148.75048   -130800.85944  20429091.0634                   20429091.3714
        48.5004         25.2504
    493855.723 6                  22396104.352
        39.250
   1656330.05947   1233041.83243  20821053.6724                   20821056.9344
        46.0004         22.5004
   1054959.67246    903838.48842  22220610.5634                   22220610.6294
        40.5004         17.2504
   2051401.867 6                  23296209.508
        36.750
    286837.539 7                  24006195.570
        42.250
    546240.57047   -526160.68443  21678787.1024                   21678789.7974
        45.7504         21.7504
 19  3  6 20  4 45.0000000  0  7G07G08G09G27G16G28G30
    911318.45748   -140019.28144  20426839.2504                   20426840.0514
        48.0004         24.7504
    474139.629 6                  22392353.125
        37.000
   1658189.88347   1234491.02043  20821406.8054                   20821410.7464
        45.0004         22.7504
   1044841.97746    895954.53142  22218684.5234                   22218686.0904
        40.2504         17.2504
   2060234.590 6                  23297890.078
        40.250
    260798.852 6                  24001239.117
        37.500
    525556.71547   -542277.98843  21674849.6254                   21674854.2894
        43.7504         22.7504
 19  3  6 20  4 50.0000000  0  7G07G08G09G27G16G28G30
    899499.93047   -149228.51244  20424588.8594                   20424590.6414
        47.0004         26.0004
    454438.307 6                  22388603.297
        38.500
   1660065.73447   1235952.75043  20821763.6094                   20821768.3014
        44.5004         22.5004
   1034742.57846    888084.88342  22216762.5864                   22216764.8134
        41.5004         17.2504
   2069072.734 6                  23299571.602
        36.000
    234769.027 6                  23996285.414
        39.250
    504882.86347   -558387.45743  21670915.4224                   21670920.5354
        43.5004         22.0004
 19  3  6 20  4 55.0000000  0  7G07G08G09G27G16G28G30
    887694.48848   -158427.57844  20422344.7424                   20422344.1764
        48.0004         24.7504
    434754.727 6                  22384858.516
        39.500
   1661958.24647   1237427.39843  20822125.3834                   20822128.2464
        45.5004         22.7504
   1024665.68846    880232.78942  22214846.5784                   22214847.0474
        41.2504         16.2504
   2077921.039 6                  23301255.938
        37.750
    208746.125 6                  23991335.094
        39.000
    484218.68047   -574489.45743  21666984.6484                   21666988.1414
        44.7504         21.7504
 19  3  6 20  5  0.0000000  0  7G07G08G09G27G16G28G30
    875900.38347   -167617.77744  20420099.2584                   20420100.5274
        47.0004         25.0004
    415083.141 6                  22381113.453
        39.500
   1663864.10547   1238912.50043  20822487.3204                   20822491.1174
        45.2504         23.0004
   1014605.92246    872394.02342  22212930.7584                   22212933.3284
        40.5004         16.7504
   2086774.996 6                  23302940.109
        38.000
    182730.359 6                  23986384.492
        39.000
    463565.08247   -590583.14543  21663052.9694                   21663057.8364
        43.0004         21.5004
 19  3  6 20  5  5.0000000  0  7G07G08G09G27G16G28G30
    864114.72747   -176801.41444  20417856.4614                   20417857.5784
        46.7504         25.7504
    395422.898 5                  22377372.445
        34.750
   1665780.69547   1240405.93044  20822851.6414                   20822855.9924
        44.0004         24.0004
   1004563.15246    864568.43442  22211020.0704                   22211022.8634
        40.7504         16.7504
   2095634.504 6                  23304626.070
        39.500
    156716.000 6                  23981433.305
        37.250
    442917.20747   -606672.41843  21659125.2734                   21659128.3364
        43.7504         22.0004
 19  3  6 20  5 10.0000000  0  7G07G08G09G27G16G28G30
    852339.67248   -185976.78144  20415617.0864                   20415617.4454
        48.7504         24.5004
    375775.906 6                  22373635.141
        39.500
   1667712.39547   1241911.13743  20823220.5004                   20823223.2664
        46.0004         23.0004
    994536.62146    856755.56342  22209112.7894                   22209114.6604
        41.2504         16.7504
   2104496.844 6                  23306313.672
        41.750
    130710.672 6                  23976487.320
        38.000
    422278.73047   -622754.30143  21655197.4454                   21655201.4304
        44.0004         22.0004
 19  3  6 20  5 15.0000000  0  7G07G08G09G27G16G28G30
    840575.44548   -195143.70744  20413378.2274                   20413378.5474
        49.5004         25.7504
    356146.492 6                  22369900.727
        37.500
   1669657.75047   1243427.01243  20823591.1804                   20823594.1024
        46.5004         22.7504
    984534.01646    848961.31342  22207209.3364                   22207211.9774
        41.0004         17.2504
   2113371.594 6                  23308002.688
        41.500
    104706.016 6                  23971538.141
        40.000
    401645.39547   -638832.26243  21651271.8134                   21651275.4924
        46.0004         21.5004
 19  3  6 20  5 20.0000000  0  7G07G08G09G27G16G28G30
    828822.57848   -204301.78144  20411141.5554                   20411141.3444
        49.5004         24.5004
    336529.590 6                  22366166.477
        37.500
   1671617.04747   1244953.74643  20823963.3364                   20823965.7114
        46.7504         22.0004
    974548.38747    841180.33642  22205309.4844                   22205311.4184
        43.0004         17.7504
   2122251.051 6                  23309691.906
        38.250
     78708.000 6                  23966589.781
        37.500
    381022.05147   -654902.37543  21647346.6414                   21647349.2934
        45.5004         21.5004
 19  3  6 20  5 25.0000000  0  7G07G08G09G27G16G28G30
    817078.74248   -213452.82044  20408906.4224                   20408906.2234
        48.5004         26.0004
    316926.234 6                  22362436.305
        38.250
   1673590.29347   1246491.32843  20824338.6254                   20824341.2854
        45.7504         22.5004
    964579.50446    833412.38743  22203411.2584                   22203414.5164
        40.7504         18.2504
   2131133.977 6                  23311381.016
        37.250
     52716.828 6                  23961643.531
        39.750
    360405.66447   -670967.10543  21643422.8914                   21643426.0704
        45.7504         22.5004
 19  3  6 20  5 30.0000000  0  7G07G08G09G27G16G28G30
    805343.74248   -222596.95344  20406672.7344                   20406672.8834
        48.0004         25.2504
    297337.836 6                  22358708.789
        38.250
   1675574.96147   1248037.84443  20824716.0474                   20824718.5124
        46.0004         22.5004
    954631.93046    825661.00042  22201518.1334                   22201521.9024
        40.5004         16.7504
   2140026.563 6                  23313073.641
        38.750
     26724.641 6                  23956696.781
        39.250
    339792.75447   -687029.06243  21639499.6174                   21639503.5824
        44.0004         21.5004
 19  3  6 20  5 35.0000000  0  7G07G08G09G27G16G28G30
    793617.09447   -231734.60544  20404441.2974                   20404441.8444
        47.7504         24.5004
    277763.344 6                  22354982.805
        37.750
   1677573.52047   1249595.14143  20825096.0004                   20825099.3284
        45.5004         22.5004
    944700.87946    817922.55942  22199628.7814                   22199632.5554
        39.5004         15.5004
   2148922.109 6                  23314766.289
        39.000
       739.598 6                  23951751.648
        39.500
    319186.16847   -703086.15643  21635578.6024                   21635582.8364
        44.0004         21.5004
 19  3  6 20  5 40.0000000  0  7G07G08G09G27G16G28G30
    781901.01648   -240864.00344  20402211.8284                   20402212.5864
        48.7504         27.2504
    258200.245 6                  22351260.234
        40.500
   1679584.04247   1251161.79243  20825478.6094                   20825482.1954
        46.5004         22.7504
    934787.07447    810197.52042  22197742.3594                   22197746.6414
        44.0004         15.5004
   2157823.496 6                  23316460.906
        39.250
    -25242.178 6                  23946808.258
        41.250
    298588.04947   -719136.64043  21631659.5784                   21631663.2584
        44.5004         21.5004
 19  3  6 20  5 45.0000000  0  7G07G08G09G27G16G28G30
    770195.69747   -249985.05544  20399984.2974                   20399985.9694
        47.0004         25.5004
    238651.949 6                  22347540.578
        37.750
   1681608.30947   1252739.13243  20825863.7194                   20825867.5704
        44.7504         22.5004
    924893.33946    802488.12842  22195859.0004                   22195864.3284
        41.0004         16.7504
   2166732.852 6                  23318155.492
        38.500
    -51219.195 6                  23941864.523
        39.250
    277997.65147   -735181.08743  21627740.9534                   21627745.3404
        43.0004         21.7504
 19  3  6 20  5 50.0000000  0  8G05G07G08G09G27G16G28G30
   1487144.91416                  23152184.945
        38.250
    758501.71848   -259097.25244  20397759.7894                   20397762.4574
        48.0004         24.0004
    219118.388 6                  22343823.906
        41.750
   1683647.74747   1254328.28843  20826252.3984                   20826257.0744
        46.5004         22.0004
    915017.58246    794792.69542  22193980.2034                   22193985.3874
        41.7504         16.2504
   2175647.238 6                  23319852.789
        37.750
    -77188.539 7                  23936923.789
        42.000
    257416.65247   -751218.24243  21623825.1024                   21623830.3204
        44.2504         21.0004
 19  3  6 20  5 55.0000000  0  8G05G07G08G09G27G16G28G30
   1476725.590 6                  23150201.266
        40.500
    746821.38748   -268198.79743  20395536.6414                   20395541.1884
        48.0004         22.7504
    199600.668 6                  22340109.172
        40.500
   1685703.09047   1255929.82843  20826643.1804                   20826648.7504
        45.5004         22.2504
    905163.07446    787113.91442  22192104.6954                   22192110.8794
        39.7504         16.2504
   2184570.920 6                  23321550.484
        39.500
   -103150.512 6                  23931982.711
        38.000
    236846.94847   -767246.57443  21619911.1414                   21619916.5664
        43.7504         20.2504
 19  3  6 20  6  0.0000000  0  8G05G07G08G09G27G16G28G30
   1466325.152 6                  23148223.219
        39.000
    735153.28548   -277290.85243  20393317.4304                   20393320.0164
        49.5004         22.5004
    180099.520 6                  22336400.008
        41.250
   1687773.68447   1257543.29743  20827038.2584                   20827042.9454
        46.5004         21.5004
    895330.09447    779451.84442  22190234.7114                   22190239.7384
        45.0004         15.5004
   2193504.004 6                  23323250.938
        40.500
   -129106.441 6                  23927043.750
        36.000
    216286.34847   -783267.86343  21615999.5164                   21616003.8404
        47.0004         20.5004
 19  3  6 20  6  5.0000000  0  8G05G07G08G09G27G16G28G30
   1455935.398 7                  23146245.914
        42.500
    723491.80148   -286377.69143  20391097.5234                   20391102.1724
        49.0004         22.7504
    160614.32846   1184804.43453  22332691.0314                   22332694.6644
        39.5004         19.0004
   1689854.70347   1259164.87943  20827433.6564                   20827439.5004
        46.7504         22.0004
    885519.34446    771807.06642  22188366.5394                   22188373.6454
        40.2504         16.7504
   2202447.406 6                  23324952.758
        39.750
   -155065.047 6                  23922104.172
        40.500
    195725.83247   -799289.05943  21612086.5084                   21612092.7584
        46.0004         21.2504
 19  3  6 20  6 10.0000000  0  8G05G07G08G09G27G16G28G30
   1445560.613 7                  23144273.180
        45.500
    711837.28548   -295459.19944  20388881.8834                   20388885.2934
        50.7504         24.2504
    141137.68446   1169627.88342  22328986.7194                   22328988.8094
        41.0004         16.2504
   1691946.23448   1260794.59443  20827833.5164                   20827837.9774
        49.0004         22.5004
    875720.45347    764171.59442  22186503.9694                   22186509.1564
        44.0004         16.7504
   2211389.695 6                  23326656.625
        40.250
   -181019.254 6                  23917167.016
        41.000
    175171.41847   -815305.46943  21608176.5394                   21608182.3094
        46.5004         20.7504
 19  3  6 20  6 15.0000000  0  8G05G07G08G09G27G16G28G30
   1435203.750 7                  23142300.555
        44.250
    700192.42248   -304533.10543  20386663.9304                   20386669.8244
        48.5004         22.5004
    121672.66846   1154460.32842  22325280.2504                   22325285.0204
        39.5004         15.5004
   1694049.85947   1262433.78943  20828232.6484                   20828239.6094
        47.0004         22.0004
    865938.02747    756548.86742  22184640.4534                   22184649.0234
        43.0004         15.5004
   2220336.348 6                  23328355.781
        38.250
   -206968.844 6                  23912226.086
        41.000
    154624.96147   -831315.69943  21604264.4064                   21604272.3754
        44.5004         19.5004
 19  3  6 20  6 20.0000000  0  8G05G07G08G09G27G16G28G30
   1424864.078 7                  23140332.125
        46.500
    688558.35548   -313598.61344  20384449.2114                   20384455.4264
        49.0004         24.7504
    102223.83646   1139305.33242  22321579.3204                   22321584.9924
        39.2504         14.7504
   1696168.57047   1264084.72343  20828634.2274                   20828642.1484
        47.0004         22.5004
    856175.68846    748941.90642  22182783.2274                   22182791.1644
        41.7504         14.7504
   2229290.246 6                  23330060.586
        38.500
   -232911.570 6                  23907289.563
        41.250
    134086.49247   -847319.72743  21600355.7734                   21600363.7234
        45.5004         20.0004
 19  3  6 20  6 25.0000000  0  8G05G07G08G09G27G16G28G30
   1414542.23447   1226634.27352  23138368.5864                   23138371.8014
        46.5004         16.7504
    676934.78148   -322655.92244  20382238.1414                   20382243.2274
        49.0004         24.7504
     82788.89547   1124161.23842  22317880.8914                   22317887.1604
        42.0004         15.5004
   1698301.16047   1265746.50044  20829040.8594                   20829048.2234
        47.0004         24.0004
    846431.41047    741348.94542  22180928.9614                   22180937.3524
        43.7504         13.7504
   2238249.504 6                  23331765.000
        40.500
   -258848.020 6                  23902354.711
        39.750
    113556.33247   -863317.20343  21596449.0634                   21596456.7304
        45.0004         19.7504
 19  3  6 20  6 30.0000000  0  8G05G07G08G09G27G16G28G30
   1404241.53948   1218607.77042  23136408.0084                   23136412.2114
        48.5004         16.7504
    665324.44148   -331702.91044  20380028.3594                   20380033.1294
        49.5004         25.7504
     63369.40246   1109029.22742  22314185.6094                   22314192.4144
        39.0004         15.5004
   1700448.73847   1267419.95743  20829449.4144                   20829457.0004
        46.7504         22.7504
    836708.17646    733772.42642  22179078.2894                   22179086.3244
        40.0004         13.7504
   2247217.950 6                  23333471.578
        41.000
   -284778.328 6                  23897420.289
        37.500
     93036.91847   -879306.35543  21592544.1804                   21592552.2034
        46.0004         20.5004
 19  3  6 20  6 35.0000000  0  8G05G07G08G09G27G16G28G30
   1393960.66448   1210596.62543  23134453.8594                   23134455.7424
        50.0004         18.2504
    653727.07448   -340739.89543  20377823.1024                   20377826.3754
        50.0004         23.7504
     43967.14846   1093910.56642  22310495.0704                   22310500.6644
        37.7504         14.7504
   1702612.09047   1269105.60543  20829862.7344                   20829868.3674
        47.7504         22.7504
    827007.24246    726213.19942  22177233.2734                   22177240.7624
        40.2504         16.2504
   2256196.570 6                  23335182.508
        39.500
   -310702.074 6                  23892489.039
        40.250
     72527.33647   -895287.91043  21588643.5314                   21588649.8094
        46.5004         21.5004
 19  3  6 20  6 40.0000000  0  8G05G07G08G09G27G16G28G30
   1383695.81647   1202598.08242  23132498.0164                   23132503.1994
        45.5004         17.2504
    642138.44948   -349769.93043  20375615.7424                   20375622.0474
        48.2504         22.0004
     24576.22346   1078800.77342  22306803.4924                   22306811.6954
        40.7504         15.5004
   1704788.84447   1270801.82843  20830274.3134                   20830283.6644
        46.2504         21.7504
    817320.09847    718664.80142  22175388.6254                   22175397.8364
        44.2504         14.7504
   2265175.281 6                  23336887.484
        37.750
   -336618.105 6                  23887553.617
        37.500
     52025.64547   -911263.16443  21584739.8754                   21584748.7974
        44.5004         21.0004
 19  3  6 20  6 45.0000000  0  8G05G07G08G09G27G16G28G30
   1373449.58647   1194613.99642  23130549.4844                   23130553.9844
        46.0004         16.7504
    630560.79348   -358791.49243  20373413.0864                   20373418.1214
        49.2504         22.7504
      5199.74246   1063702.23442  22303117.3524                   22303124.9534
        41.5004         14.7504
   1706977.97747   1272507.62143  20830692.4224                   20830699.7974
        47.2504         22.0004
    807653.72347    711132.50442  22173550.1024                   22173559.2384
        44.5004         13.7504
   2274163.453 6                  23338600.109
        39.250
   -362531.680 6                  23882624.742
        41.500
     31531.54347   -927232.61343  21580840.7814                   21580848.7624
        45.5004         21.0004
 19  3  6 20  6 50.0000000  0  8G05G07G08G09G27G16G28G30
   1363214.45347   1186638.63742  23128601.9224                   23128606.5044
        46.0004         16.7504
    618988.36348   -367808.92244  20371211.3364                   20371215.1374
        50.0004         24.0004
    -14163.953 6                  22299431.859
        40.000
   1709177.32848   1274221.45743  20831110.5864                   20831117.2814
        48.0004         22.0004
    798003.85546    703613.30142  22171713.1094                   22171722.1954
        41.0004         14.7504
   2283155.137 6                  23340310.898
        38.250
   -388443.406 7                  23877693.930
        42.000
     11039.16047   -943200.70343  21576941.5634                   21576948.0744
        46.5004         22.5004
 19  3  6 20  6 55.0000000  0  8G05G07G08G09G27G16G28G30
   1352990.48047   1178671.83642  23126655.1564                   23126660.9534
        44.5004         15.5004
    607425.36748   -376819.07044  20369010.1254                   20369013.2854
        48.5004         24.0004
    -33510.988 6                  22295750.055
        39.250
   1711391.62147   1275946.85243  20831530.9694                   20831537.3244
        45.5004         22.0004
    788373.57446    696109.15242  22169881.0704                   22169889.7344
        41.2504         15.5004
   2292151.824 6                  23342021.836
        39.750
   -414351.840 6                  23872762.211
        37.500
     -9449.03547   -959165.52743  21573041.6414                   21573048.5664
        45.7504         21.5004
 19  3  6 20  7  0.0000000  0  8G05G07G08G09G27G16G28G30
   1342789.01647   1170722.66042  23124714.5944                   23124719.5744
        45.0004         14.7504
    595874.90248   -385819.42244  20366812.9774                   20366814.8364
        49.5004         25.5004
    -52843.410 6                  22292070.836
        36.750
   1713620.40247   1277683.58243  20831955.3834                   20831960.7974
        47.0004         23.0004
    778763.21546    688620.58242  22168051.3834                   22168060.6764
        40.5004         15.5004
   2301156.973 6                  23343736.289
        38.750
   -440252.133 6                  23867834.922
        40.750
    -29925.84047   -975121.46943  21569145.4384                   21569151.7704
        46.0004         22.5004
 19  3  6 20  7  5.0000000  0  8G05G07G08G09G27G16G28G30
   1332600.01247   1162783.23042  23122776.1484                   23122780.8634
        46.7504         15.5004
    584332.06348   -394813.82844  20364616.7814                   20364617.9734
        50.0004         24.5004
    -72161.645 6                  22288395.516
        41.500
   1715862.33648   1279430.55543  20832383.3524                   20832387.6914
        48.0004         22.5004
    769169.61346    681145.08242  22166226.4144                   22166234.5944
        41.2504         14.7504
   2310165.035 6                  23345451.313
        37.500
   -466147.480 6                  23862906.547
        40.750
    -50398.22347   -991073.95743  21565250.4534                   21565255.3524
        47.0004         21.7504
 19  3  6 20  7 10.0000000  0  8G05G07G08G09G27G16G28G30
   1322440.93847   1154867.03142  23120842.0394                   23120847.4144
        46.5004         15.5004
    572803.01848   -403797.49944  20362421.8204                   20362422.7774
        49.0004         26.2504
    -91474.926 6                  22284718.922
        40.500
   1718115.22747   1281186.03943  20832811.1174                   20832815.8244
        46.5004         22.7504
    759587.75146    673678.64642  22164402.5474                   22164410.9804
        41.2504         15.5004
   2319174.906 6                  23347164.492
        40.500
   -492033.953 6                  23857978.852
        39.500
    -70853.19947  -1007012.88743  21561357.0394                   21561362.9734
        45.5004         21.5004
 19  3  6 20  7 15.0000000  0  8G05G07G08G09G27G16G28G30
   1312299.51247   1146964.59442  23118912.6174                   23118918.2774
        45.7504         16.2504
    561286.90648   -412771.10243  20360230.3984                   20360232.3874
        48.2504         23.0004
   -110768.184 6                  22281048.453
        41.000
   1720384.72347   1282954.45343  20833243.1804                   20833248.7854
        46.7504         23.2504
    750030.83646    666231.74642  22162583.6884                   22162592.7154
        41.5004         13.7504
   2328197.094 6                  23348882.055
        38.500
   -517915.027 6                  23853054.578
        40.000
    -91299.99647  -1022945.48843  21557466.2584                   21557472.8874
        44.0004         21.0004
 19  3  6 20  7 20.0000000  0  8G05G07G08G09G27G16G28G30
   1302171.47747   1139072.56342  23116985.7504                   23116990.6294
        47.0004         16.7504
    549781.78548   -421736.18044  20358042.4844                   20358043.7194
        50.0004         26.0004
   -130041.430 6                  22277381.609
        39.250
   1722669.99247   1284735.15243  20833679.0234                   20833682.4614
        47.5004         22.5004
    740498.25846    658803.69142  22160770.6804                   22160778.9494
        39.5004         16.2504
   2337230.004 6                  23350601.719
        38.500
   -543792.648 6                  23848131.477
        40.250
   -111741.95347  -1038874.34443  21553577.0164                   21553582.4844
        47.5004         21.2504
 19  3  6 20  7 25.0000000  0  8G05G07G08G09G27G16G28G30
   1292062.41047   1131195.47342  23115062.6884                   23115068.2934
        46.0004         15.5004
    538284.01248   -430695.45344  20355855.2114                   20355857.1294
        49.7504         24.5004
   -149308.71947   1036614.08653  22273715.7034                   22273718.8204
        42.0004         19.0004
   1724965.86347   1286524.16043  20834116.3134                   20834121.2384
        47.5004         22.2504
    730974.03547    651382.21542  22158959.1024                   22158967.2544
        42.0004         16.7504
   2346258.336 6                  23352318.641
        39.000
   -569661.285 6                  23843209.016
        40.750
   -132174.27347  -1054795.54743  21549689.9304                   21549696.1214
        46.2504         21.0004
 19  3  6 20  7 30.0000000  0  8G05G07G08G09G27G16G28G30
   1281968.39147   1123330.03542  23113140.2664                   23113146.8484
        44.5004         14.7504
    526799.76648   -439644.18043  20353668.4224                   20353670.9774
        48.0004         22.5004
   -168552.66846   1021618.85543  22270051.3674                   22270057.5084
        37.7504         18.2504
   1727278.01947   1288325.90143  20834556.1254                   20834561.0864
        46.5004         22.5004
    721479.98846    643984.34442  22157150.7034                   22157160.8484
        37.0004         14.7504
   2355304.545 6                  23354039.430
        38.250
   -595529.637 6                  23838285.766
        40.000
   -152601.35547  -1070712.72343  21545801.1804                   21545808.0354
        44.7504         20.2504
 19  3  6 20  7 35.0000000  0  8G05G07G08G09G27G16G28G30
   1271885.60947   1115473.24642  23111221.1954                   23111229.2274
        42.0004         14.7504
                                  20351482.0784                   20351487.4384
        44.2504         22.5004
                                  22266393.008
        33.500
   1729605.65247   1290139.59843  20834995.2424                   20835003.1954
        42.0004         22.0004
    712006.47346    636602.30142  22155346.9614                   22155358.3634
        36.0004         14.7504
   2364356.691 5                  23355761.477
        34.500
   -621391.797 5                  23833362.414
        34.500
                                  21541912.8054                   21541922.1484
        40.0004         19.5004
 19  3  6 20  7 40.0000000  0  8G05G07G08G09G27G16G28G30
   1261814.572 6                  23109304.477
        40.750
    503854.83357   -457523.33553  20349299.9384                   20349305.9734
        46.0004         22.5004
   -206989.81917                  22262737.891
        42.000
   1731945.14547   1291816.67854  20835440.6174                   20835448.7114
        44.0004         26.5004
    702550.14857    629233.80052  22153547.3594                   22153559.2154
        44.5004         14.7504
   2373412.61716                  23357485.406
        37.750
   -647251.87516                  23828442.164
        39.500
   -193445.20246  -1102539.07343  21538027.8054                   21538036.6334
        40.5004         19.0004
 19  3  6 20  7 45.0000000  0  8G05G07G08G09G27G16G28G30
   1251763.02747   1108262.44553  23107392.0474                   23107395.1374
        43.7504         20.2504
    492397.38747   -466451.18043  20347120.4774                   20347124.5394
        47.0004         23.0004
   -226188.453 6                  22259083.984
        40.500
   1734296.98447   1293649.23443  20835889.9614                   20835895.0044
        46.0004         22.2504
    693112.84046    621880.09842  22151751.5394                   22151762.5044
        38.7504         15.5004
   2382475.39516                  23359209.531
        39.000
   -673108.266 6                  23823522.023
        37.000
   -213856.68747  -1118444.09443  21534143.2194                   21534152.0514
        42.7504         18.5004
 19  3  6 20  7 50.0000000  0  8G05G07G08G09G27G16G28G30
   1241711.75046   1100430.23043  23105479.3364                   23105483.3164
        38.5004         18.5004
    480942.09647   -475377.37843  20344940.6414                   20344945.8874
        44.5004         22.2504
   -245368.454 6                  22255434.063
        41.250
   1736660.39347   1295490.87843  20836339.4614                   20836345.6524
        42.2504         21.7504
    683695.64446    614542.07342  22149960.0394                   22149970.8054
        41.0004         14.7504
   2391543.027 6                  23360935.227
        38.500
   -698966.379 6                  23818600.648
        37.000
   -234274.17646  -1134353.83643  21530258.0704                   21530266.9184
        37.7504         19.2504
 19  3  6 20  7 55.0000000  0  8G05G07G08G09G27G16G28G30
   1231689.50447   1092620.66842  23103571.8914                   23103576.3794
        42.5004         16.7504
    469500.67247   -484292.78943  20342763.1804                   20342768.9534
        45.2504         21.7504
                                  22251785.133
        37.500
   1739033.29347   1296970.92754  20836791.1484                   20836790.7504
        43.5004         27.5004
    674291.03956    607213.69152  22148169.2974                   22148181.3484
        38.7504         15.5004
   2400613.641 5                  23362660.023
        35.750
   -724819.656 6                  23813681.172
        39.000
   -254675.52346  -1150251.03542  21526375.5784                   21526384.7544
        41.7504         17.7504
 19  3  6 20  8  0.0000000  0  7G05G07G08G09G27G16G30
   1221683.98846   1084824.07842  23101667.4694                   23101673.2154
        36.5004         15.5004
    458070.28547   -493199.57843  20340587.1414                   20340593.8444
        45.5004         22.7504
   -283703.156 6                  22248138.750
        36.750
                                  20837244.117
        42.750
                                  22146384.0004                   22146395.2154
        42.5004         16.2504
                                  23364387.289
        36.250
   -275068.55147  -1166141.64142  21522494.9304                   21522504.1134
        43.2504         17.7504
 19  3  6 20  8  5.0000000  0  8G05G07G08G09G27G16G28G30
   1211700.22346   1077044.64842  23099768.3524                   23099773.7664
        41.2504         16.2504
    446653.03147   -502096.14844  20338415.5164                   20338420.9064
        46.2504         25.0004
   -302846.64146   1004254.13753  22244496.8364                   22244501.3404
        38.7504         19.2504
   1743827.04947   1297645.23354  20837703.8834                   20837698.3634
        45.5004         28.0004
    655538.21947    592600.93042  22144602.9144                   22144612.9924
        45.2504         17.7504
   2418771.703 6                  23366117.258
        38.250
                                  23803848.367
        37.500
   -295449.16047  -1182022.70743  21518618.0314                   21518625.7664
        43.7504         19.5004
 19  3  6 20  8 10.0000000  0  8G05G07G08G09G27G16G28G30
   1201728.39146   1069274.29752  23097869.7344                   23097876.4694
        39.5004         15.5004
    435236.86347   -510991.82843  20336242.0944                   20336248.6294
        42.0004         22.0004
   -321989.246 6                  22240852.648
        37.500
   1746231.82047   1299369.03953  20838159.9534                   20838167.9454
        42.5004         22.5004
    646180.77746    585309.43042  22142821.0554                   22142831.8164
        38.7504         16.7504
   2427852.63716                  23367843.406
        38.000
   -802342.066 6                  23798929.063
        38.750
   -315830.45746  -1197904.19943  21514738.2584                   21514747.1374
        39.0004         18.5004
 19  3  6 20  8 15.0000000  0  8G05G07G08G09G27G16G28G30
   1191761.684 6                  23095974.492
        41.500
    423823.38747   -519885.46543  20334071.0234                   20334076.6024
        43.0004         22.0004
   -341119.157 6                  22237213.227
        39.250
   1748648.86347   1301252.49643  20838619.2894                   20838628.2304
        42.0004         22.0004
    636835.17646    578027.06342  22141042.4064                   22141053.7814
        36.0004         15.5004
   2436929.059 6                  23369571.469
        38.250
   -828179.586 6                  23794012.539
        37.500
   -336212.28946  -1213786.07042  21510860.6174                   21510868.4384
        40.5004         17.7504
 19  3  6 20  8 20.0000000  0  8G05G07G08G09G27G16G28G30
   1181810.95746   1065863.30553  23094080.6414                   23094081.3204
        40.7504         19.2504
    412418.05947   -528772.73443  20331900.6024                   20331906.1524
        43.0004         22.0004
   -360238.602 6                  22233575.383
        38.750
   1751077.28147   1303144.75443  20839082.5314                   20839089.9024
        42.2504         21.7504
    627503.47746    570755.70342  22139266.6334                   22139277.9774
        39.5004         15.5004
   2446006.277 5                  23371298.430
        35.000
   -854011.875 6                  23789097.359
        36.750
   -356587.21547  -1229662.62542  21506982.9844                   21506991.3014
        42.0004         17.7504
 19  3  6 20  8 25.0000000  0  8G05G07G08G09G27G16G28G30
   1171877.77746   1058123.05942  23092189.9924                   23092191.7734
        40.0004         17.2504
    401024.49547   -537650.82443  20329732.6484                   20329738.1414
        42.7504         22.0004
   -379341.457 6                  22229939.398
        39.000
   1753525.14847   1305052.22343  20839547.5784                   20839556.1804
        42.0004         22.5004
    618187.83246    563496.64142  22137494.2034                   22137505.5234
        40.2504         14.7504
   2455083.87915                  23373026.344
        35.000
   -879828.629 6                  23784184.172
        38.500
   -376950.81447  -1245530.35143  21503108.0554                   21503116.7734
        42.2504         19.2504
 19  3  6 20  8 30.0000000  0  8G05G07G08G09G27G16G28G30
   1161960.80146   1050395.62542  23090302.2274                   23090305.1764
        37.5004         16.2504
    389642.28547   -546520.10243  20327566.4454                   20327571.7704
        43.5004         22.5004
   -398426.336 6                  22226307.438
        39.250
   1755989.64147   1306972.60543  20840017.3914                   20840025.0004
        43.5004         23.5004
    608892.68846    556253.72342  22135725.2344                   22135736.5274
        37.2504         13.7504
                                  23374754.289
        36.250
   -905637.156 5                  23779272.922
        35.500
   -397306.34847  -1261391.83243  21499234.2114                   21499242.5664
        42.5004         19.2504
 19  3  6 20  8 35.0000000  0  8G05G07G08G09G27G16G28G30
   1152060.97747   1042681.33642  23088419.5234                   23088422.6414
        43.5004         15.5004
    378272.72447   -555379.60143  20325404.6024                   20325409.0354
        46.5004         22.5004
   -417492.145 6                  22222680.414
        39.750
   1758473.12547   1308907.69543  20840491.0634                   20840498.7384
        45.0004         23.2504
    599617.75446    549026.46142  22133961.1644                   22133972.4534
        38.5004         14.7504
                                  23376485.109
        35.250
   -931433.863 6                  23774365.297
        40.500
   -417651.92247  -1277245.65443  21495363.7274                   21495373.1374
        44.5004         20.2504
 19  3  6 20  8 40.0000000  0  7G05G07G08G09G27G28G30
   1142178.473 6                  23086537.359
        40.000
    366915.01247   -564229.74243  20323241.0394                   20323249.0004
        44.5004         22.0004
   -436538.273 6                  22219055.063
        38.000
   1760972.02047   1310854.84443  20840965.5554                   20840975.6374
        42.5004         21.5004
    590367.78545    541818.60942  22132199.8594                   22132212.5394
        35.5004         15.5004
   -957225.503 6                  23769456.156
        39.000
   -437990.33146  -1293093.77643  21491492.3524                   21491502.4304
        41.5004         19.0004
 19  3  6 20  8 45.0000000  0  7G05G07G08G09G27G28G30
   1132312.09814                  23084660.844
        29.000
    355570.555 5                  20321083.359
        33.250
   -455565.945 4                  22215434.430
        28.500
   1763490.535 5                  20841445.500
        33.000
    581137.074 4                  22130444.766
        28.750
   -983005.89114                  23764550.719
        28.250
   -458318.609 5                  21487624.594
        31.500
 19  3  6 20  8 50.0000000  0  7G05G07G08G09G27G28G30
   1122459.53517                  23082786.617
        43.000
    344236.875 7                  20318926.656
        46.000
   -474571.47716                  22211818.531
        38.750
   1766026.305 7                  20841928.313
        43.250
    571931.414 6                  22128692.500
        40.500
  -1008779.238 6                  23759647.125
        40.000
   -478641.65217                  21483756.867
        45.250
 19  3  6 20  8 55.0000000  0  7G05G07G08G09G27G28G30
   1112628.332 5                  23080916.555
        33.000
    332915.711 6                  20316773.461
        40.000
   -493563.715 5                  22208205.656
        34.750
   1768576.258 6                  20842414.188
        39.750
                                  22126945.203
        36.250
                                  23754744.594
        33.000
   -498953.043 6                  21479892.641
        37.500
 19  3  6 20  9  0.0000000  0  7G05G07G08G09G27G28G30
                                  23079047.359
        35.500
    321604.523 6                  20314620.164
        40.500
   -512537.941 5                  22204592.633
        33.250
   1771142.078 6                  20842901.094
        38.750
    553575.914 5                  22125199.484
        33.250
  -1060305.203 5                  23749841.539
        34.500
   -519259.504 6                  21476027.086
        37.750
 19  3  6 20  9  5.0000000  0  7G05G07G08G09G27G28G30
   1093014.441 7                  23077183.938
        42.250
    310305.449 7                  20312470.750
        47.250
   -531498.81217                  22200986.172
        43.000
                                  20843391.539
        44.500
                                  22123461.266
        41.750
                                  23744940.008
        41.000
   -539557.04717                  21472166.469
        44.750
 19  3  6 20  9 10.0000000  0  7G05G07G08G09G27G28G30
   1083231.656 6                  23075322.516
        40.500
    299013.352 7                  20310321.477
        47.000
   -550445.945 6                  22197380.242
        41.000
   1776301.605 7                  20843883.906
        44.750
    535306.516 6                  22121724.125
        40.250
  -1111827.430 6                  23740038.039
        41.500
   -559851.055 7                  21468304.188
        43.500
 19  3  6 20  9 15.0000000  0  8G05G07G08G09G27G16G28G30
   1073462.555 6                  23073463.313
        41.500
    287732.38347   -574468.46555  20308174.8834                   20308170.8404
        47.5004         30.2504
   -569375.293 6                  22193778.242
        41.000
   1778905.82847   1313155.33454  20844378.9694                   20844380.3094
        46.0004         27.2504
    526198.086 6                  22119989.883
        40.250
   1602125.08614                  23390378.672
        26.750
  -1137576.125 7                  23735136.977
        42.500
   -580137.129 7                  21464442.961
        43.250
 19  3  6 20  9 20.0000000  0  8G05G07G08G09G27G16G28G30
   1063712.656 6                  23071608.031
        40.000
    276460.906 7                  20306029.969
        47.500
   -588291.391 6                  22190178.336
        41.750
   1781517.820 7                  20844875.711
        45.750
    517112.254 6                  22118260.711
        41.500
                                  23392124.234
        27.500
  -1163327.738 7                  23730237.094
        42.500
   -600417.598 7                  21460584.516
        43.500
 19  3  6 20  9 25.0000000  0  7G05G07G08G09G27G28G30
   1053981.078 6                  23069755.375
        39.250
    265200.699 7                  20303887.063
        47.250
   -607192.398 6                  22186581.430
        41.750
   1784140.586 7                  20845375.586
        47.000
    508049.215 6                  22116536.219
        41.500
  -1189080.141 6                  23725335.664
        40.750
   -620691.266 7                  21456725.750
        44.000
 19  3  6 20  9 30.0000000  0  7G05G07G08G09G27G28G30
   1044268.004 6                  23067906.625
        41.250
    253952.469 7                  20301745.969
        47.250
   -626077.051 6                  22182987.250
        39.750
   1786781.105 7                  20845876.820
        44.500
    499003.633 6                  22114815.008
        39.750
  -1214819.824 6                  23720437.719
        39.500
   -640954.027 7                  21452869.914
        44.500
 19  3  6 20  9 35.0000000  0  7G05G07G08G09G27G28G30
   1034575.992 6                  23066063.430
        41.250
    242716.80147   -588497.48454  20299608.4534                   20299607.0044
        47.0004         24.7504
   -644945.836 7                  22179397.500
        42.000
   1789431.14147   1314805.88754  20846382.0164                   20846385.9774
        46.2504         25.5004
    489984.281 6                  22113098.281
        39.500
  -1240563.012 6                  23715540.023
        40.000
   -661209.348 7                  21449015.820
        44.500
 19  3  6 20  9 40.0000000  0  7G05G07G08G09G27G28G30
   1024905.12516                  23064222.398
        37.500
    231491.94947   -597244.14153  20297472.0554                   20297475.2074
        46.2504         21.0004
   -663804.082 6                  22175808.352
        41.500
   1792100.156 7                  20846889.547
        46.000
    480972.520 6                  22111383.586
        41.250
  -1266284.234 6                  23710644.742
        41.500
   -681449.387 7                  21445164.047
        42.500
 19  3  6 20  9 45.0000000  0  7G05G07G08G09G27G28G30
   1015248.207 6                  23062385.219
        41.250
    220282.19147   -605979.07443  20295339.7034                   20295343.0124
        47.5004         20.2504
   -682636.496 6                  22172225.492
        41.500
   1794789.113 7                  20847401.188
        44.750
    471990.426 6                  22109674.688
        41.500
  -1292000.906 6                  23705751.438
        41.250
   -701682.680 7                  21441314.531
        43.000
 19  3  6 20  9 50.0000000  0  7G05G07G08G09G27G28G30
   1005615.162 6                  23060552.375
        38.750
    209086.52447   -614702.90743  20293208.8674                   20293214.5664
        45.0004         18.5004
   -701450.660 6                  22168644.594
        37.000
   1797489.401 6                  20847915.023
        41.250
    463037.067 6                  22107971.531
        39.500
  -1317717.809 6                  23700857.281
        36.750
   -721906.459 6                  21437465.727
        40.000
 19  3  6 20  9 55.0000000  0  7G05G07G08G09G27G28G30
    995998.496 6                  23058721.734
        37.000
    197902.707 7                  20291080.008
        42.250
   -720247.875 5                  22165067.820
        34.000
   1800209.262 6                  20848432.328
        37.750
    454099.504 6                  22106269.844
        36.750
  -1343420.012 5                  23695965.844
        34.250
   -742119.547 6                  21433618.805
        38.500
 19  3  6 20 10  0.0000000  0  7G05G07G08G09G27G28G30
    986406.000 4                  23056896.148
        28.750
    186733.813 5                  20288955.500
        35.750
   -739029.918 5                  22161494.039
        30.500
   1802947.004 5                  20848953.680
        34.000
    445179.828 5                  22104572.477
        30.000
  -1369108.547 4                  23691078.242
        25.250
   -762317.297 5                  21429775.914
        30.500
 19  3  6 20 10  5.0000000  0  7G05G07G08G09G27G28G30
    976829.62515                  23055074.820
        33.250
    175573.109 6                  20286831.430
        37.000
   -757797.461 5                  22157922.477
        34.000
   1805692.258 6                  20849476.070
        36.000
    436283.594 6                  22102880.695
        36.250
  -1394801.24215                  23686188.195
        33.000
   -782511.934 5                  21425932.641
        35.500
 19  3  6 20 10 10.0000000  0  7G05G07G08G09G27G28G30
    967266.62116                  23053254.688
        38.250
    164420.941 6                  20284708.898
        39.750
   -776551.238 5                  22154353.961
        34.250
   1808448.754 6                  20850000.859
        36.000
    427405.582 5                  22101191.102
        35.750
  -1420492.902 5                  23681299.883
        35.500
   -802702.203 6                  21422090.141
        36.500
 19  3  6 20 10 15.0000000  0  7G05G07G08G09G27G28G30
    957720.238 5                  23051438.211
        31.500
    153279.082 6                  20282589.070
        37.750
   -795290.277 5                  22150786.773
        33.000
   1811221.887 5                  20850528.969
        35.250
    418542.539 5                  22099505.398
        33.500
  -1446172.238 5                  23676414.641
        33.500
   -822882.973 5                  21418250.992
        34.250
 19  3  6 20 10 20.0000000  0  7G05G07G08G09G27G28G30
    948187.820 5                  23049623.805
        31.750
    142147.887 6                  20280471.195
        36.000
   -814012.449 5                  22147226.750
        34.000
   1814011.457 6                  20851059.336
        36.500
    409697.80115                  22097821.375
        35.500
  -1471843.621 5                  23671530.516
        32.000
   -843056.516 5                  21414411.844
        33.750
 19  3  6 20 10 25.0000000  0  7G05G07G08G09G27G28G30
    938667.305 5                  23047812.820
        33.500
    131024.156 6                  20278353.867
        38.500
   -832718.727 5                  22143665.172
        34.500
   1816811.508 6                  20851593.180
        37.500
    400874.133 5                  22096141.461
        35.000
  -1497515.574 5                  23666643.914
        30.500
   -863227.855 5                  21410573.289
        35.750
 19  3  6 20 10 30.0000000  0  7G05G07G08G09G27G28G30
                                  23046002.453
        30.500
    119904.078 6                  20276239.195
        39.750
   -851413.496 6                  22140107.367
        37.500
   1819618.250 6                  20852127.148
        38.750
    392067.152 6                  22094465.664
        37.250
  -1523192.074 4                  23661758.055
        27.500
   -883400.930 5                  21406734.094
        35.500
 19  3  6 20 10 35.0000000  0  7G05G07G08G09G27G28G30
                                  23044194.586
        31.500
    108787.152 6                  20274123.281
        41.500
   -870096.289 6                  22136553.492
        37.000
   1822433.242 6                  20852662.344
        40.000
    383275.125 6                  22092792.195
        38.500
                                  23656871.203
        26.750
   -903576.202 6                  21402895.336
        38.500
 19  3  6 20 10 40.0000000  0  6G07G08G09G27G28G30
     97681.160 5                  20272010.359
        34.000
   -888766.340 5                  22133000.219
        34.500
   1825258.297 6                  20853199.656
        36.250
    374502.973 5                  22091123.250
        33.000
  -1574548.45315                  23651984.570
        30.000
   -923742.770 5                  21399059.211
        32.250
 19  3  6 20 10 45.0000000  0  7G07G08G09G27G16G28G30
     86582.723 7                  20269896.891
        42.750
                                  22129449.422
        38.000
   1828094.071 6                  20853739.914
        40.500
    365750.801 6                  22089457.258
        39.250
   1590626.96116                  23421972.898
        40.250
  -1600225.41815                  23647099.477
        34.250
   -943906.637 6                  21395219.906
        40.000
 19  3  6 20 10 50.0000000  0  7G07G08G09G27G16G28G30
   1650913.60517                  20567579.164
        45.750
    649365.11746   2207592.45753  22425695.9844                   22425699.4924
        41.2504         22.2504
   3406362.098 7                  21154073.516
        43.250
   1932440.58217                  22387588.984
        44.500
   3175324.867 7                  23723531.383
        42.750
    -50477.59015                  23942005.336
        32.750
    611354.750 6                  21691176.578
        39.500
 19  3  6 20 10 55.0000000  0  7G07G08G09G27G16G28G30
   1639831.227 7                  20565470.727
        45.750
    630739.67247   2193079.09043  22422152.0944                   22422155.8284
        44.5004         20.2504
   3409218.094 7                  21154617.250
        43.500
   1923728.78547   1760403.38753  22385931.0394                   22385926.5394
        45.5004         21.2504
   3184614.730 7                  23725298.789
        42.000
    -76154.359 5                  23937120.328
        31.500
    591198.488 6                  21687340.891
        38.750
 19  3  6 20 11  0.0000000  0  8G05G07G08G09G27G16G28G30
                                  23334985.469
        37.750
   1628761.91047    603865.57855  20563363.7274                   20563359.7034
        46.2504         32.2504
    612132.78946   2178580.27343  22418610.4454                   22418617.0744
        41.2504         20.5004
   3412091.71547   2545611.64854  21155163.6884                   21155166.2234
        43.7504         29.5004
   1915037.78547   1753631.13743  22384277.0944                   22384276.4924
        44.2504         21.2504
   3193910.80547   2460871.29753  23727068.1484                   23727077.8834
        42.5004         20.2504
                                  23932235.133
        36.000
    571051.941 6                  21683507.477
        40.500
 19  3  6 20 11  5.0000000  0  8G05G07G08G09G27G16G28G30
   3135125.746 6                  23333199.852
        36.750
   1617717.64847    595948.65254  20561261.7584                   20561274.7664
        46.2504         25.0004
    593533.63747   2164087.39143  22415071.7734                   22415078.6764
        42.5004         20.7504
   3414980.31347   2547862.50043  21155713.0164                   21155720.4694
        43.2504         23.2504
   1906365.19947   1746873.28543  22382626.6954                   22382628.8914
        44.5004         21.5004
   3203218.21546   2468123.78943  23728839.0634                   23728849.6414
        41.7504         18.5004
   -127471.152 6                  23927353.883
        36.500
    550938.805 6                  21679680.117
        40.750
 19  3  6 20 11 10.0000000  0  8G05G07G08G09G27G16G28G30
   3125771.746 5                  23331420.906
        35.500
   1606690.78947    587356.30144  20559163.7814                   20559176.5704
        46.0004         25.2504
    574956.14847   2149611.43843  22411537.3594                   22411544.6294
        43.2504         21.5004
   3417888.94547   2550128.96944  21156266.2194                   21156275.4494
        43.5004         24.5004
   1897718.26647   1740135.39843  22380981.1484                   22380985.2624
        44.7504         22.5004
   3212538.14546   2475386.07442  23730611.7664                   23730623.5944
        41.7504         17.2504
   -153108.465 6                  23922475.703
        36.750
    530840.49246   -103257.61353  21675855.1884                   21675863.0514
        40.7504         19.7504
 19  3  6 20 11 15.0000000  0  8G05G07G08G09G27G16G28G30
   3116443.137 6                  23329645.211
        36.750
   1595682.49647    578778.41444  20557069.0394                   20557082.1414
        46.0004         25.2504
    556401.62947   2135153.36343  22408006.4844                   22408015.2424
        43.0004         21.5004
   3420818.80547   2552411.95743  21156824.0084                   21156834.4144
        43.7504         22.5004
   1889098.28947   1733418.53143  22379340.6884                   22379346.8164
        44.5004         21.5004
   3221871.85246   2482659.13342  23732388.6644                   23732399.8794
        40.7504         16.2504
   -178732.180 6                  23917599.219
        36.500
    510758.23046   -118906.09443  21672033.7734                   21672042.7544
        40.7504         18.5004
 19  3  6 20 11 20.0000000  0  8G05G07G08G09G27G16G28G30
   3107141.277 5                  23327874.109
        34.500
   1584694.18047    570216.08644  20554977.6174                   20554991.1914
        45.7504         24.0004
    537871.40246   2120714.19143  22404479.3834                   22404489.8324
        41.5004         20.5004
   3423771.27347   2554712.57043  21157386.7734                   21157396.9144
        44.5004         22.5004
   1880506.61347   1726723.71543  22377706.2584                   22377713.5084
        45.0004         21.5004
   3231220.60546   2489943.81342  23734166.8134                   23734179.5314
        41.2504         14.7504
   -204341.000 6                  23912726.188
        37.750
    490693.38746   -134541.05142  21668215.5704                   21668225.2424
        40.2504         17.7504
 19  3  6 20 11 25.0000000  0  8G05G07G08G09G27G16G28G30
   3097866.152 6                  23326109.727
        37.500
   1573725.74247    561669.23844  20552890.8984                   20552904.5784
        46.0004         24.5004
    519365.37546   2106293.93443  22400958.0314                   22400968.5744
        41.7504         19.7504
   3426746.21547   2557030.69543  21157951.9144                   21157964.0784
        44.0004         22.2504
   1871943.12547   1720050.85943  22376076.0634                   22376085.0004
        44.0004         20.5004
   3240584.39846   2497240.32042  23735949.0704                   23735961.4924
        41.5004         14.7504
   -229934.996 5                  23907855.125
        35.750
    470645.86346   -150162.52042  21664400.2114                   21664411.0904
        40.2504         16.7504
 19  3  6 20 11 30.0000000  0  8G05G07G08G09G27G16G28G30
   3088616.754 6                  23324349.406
        39.500
   1562776.33647    553137.23843  20550806.8134                   20550821.4144
        45.7504         23.2504
    500882.78947   2091891.92643  22397441.1094                   22397452.0944
        42.5004         20.7504
   3429742.77747   2559365.69943  21158522.4384                   21158535.2074
        44.2504         22.5004
   1863407.00447   1713399.33243  22374452.1254                   22374461.9224
        44.7504         21.2504
   3249962.29347   2504547.75042  23737734.3204                   23737746.4224
        42.0004         13.7504
   -255514.934 5                  23902987.797
        35.750
    450614.86746   -165771.03542  21660588.3134                   21660599.6454
        39.0004         16.2504
 19  3  6 20 11 35.0000000  0  8G05G07G08G09G27G16G28G30
   3079392.531 6                  23322594.398
        38.750
   1551845.12947    544619.42243  20548727.3284                   20548741.2894
        46.2504         22.7504
    482422.75046   2077507.44943  22393927.9224                   22393940.5554
        41.5004         21.2504
   3432760.16447   2561716.89143  21159096.9844                   21159109.4184
        44.7504         22.5004
   1854897.39847   1706768.47343  22372832.7344                   22372843.4144
        45.0004         22.0004
   3259353.55146   2511865.59842  23739520.4384                   23739533.8954
        41.0004         14.7504
   -281081.594 5                  23898122.813
        34.000
    430599.52346   -181367.43042  21656780.0634                   21656791.7114
        41.7504         16.2504
 19  3  6 20 11 40.0000000  0  8G05G07G08G09G27G16G28G30
   3070192.289 5                  23320843.453
        32.500
   1540931.16847    536115.02343  20546650.1954                   20546664.5864
        46.2504         22.7504
    463984.32446   2063139.83643  22390418.4454                   22390432.3914
        39.0004         20.0004
   3435797.41047   2564083.56343  21159675.1484                   21159688.5864
        43.2504         22.7504
   1846413.34047   1700157.54343  22371217.8914                   22371229.6214
        43.7504         21.5004
   3268757.07846   2519193.03942  23741310.0864                   23741323.5474
        41.2504         15.5004
   -306636.01214                  23893260.875
        28.250
    410596.24616                  21652974.055
        37.000
 19  3  6 20 11 45.0000000  0  8G05G07G08G09G27G16G28G30
   3061015.582 6                  23319097.508
        40.000
   1530034.02347    527623.75443  20544576.2344                   20544591.2274
        46.2504         22.5004
    445566.94947   2048788.72343  22386915.0084                   22386928.0394
        42.2504         20.2504
   3438853.99647   2566465.32043  21160255.7344                   21160270.3754
        45.7504         22.7504
   1837954.45347   1693566.18443  22369608.5084                   22369620.2234
        45.0004         20.7504
   3278172.52346   2526529.77742  23743101.8984                   23743115.7304
        40.0004         14.7504
   -332178.668 4                  23888400.461
        26.250
    390609.590 6                  21649170.414
        37.500
 19  3  6 20 11 50.0000000  0  8G05G07G08G09G27G16G28G30
   3051861.402 5                  23317355.875
        31.000
   1519152.36747    519144.55543  20542505.6954                   20542520.6174
        46.5004         21.7504
    427169.54347   2034453.00843  22383413.9534                   22383428.3244
        43.2504         19.5004
   3441928.71547   2568861.19143  21160841.3364                   21160856.4344
        45.5004         22.5004
   1829519.41847   1686993.44143  22368003.6254                   22368015.8324
        46.0004         19.7504
   3287598.56346   2533874.69942  23744896.2424                   23744909.6764
        41.7504         14.7504
   -357710.75815                  23883542.438
        31.500
                                  21645370.008
        31.500
 19  3  6 20 11 55.0000000  0  8G05G07G08G09G27G16G28G30
   3042728.570 6                  23315617.867
        38.000
   1508285.57847    510676.90643  20540438.2734                   20540453.1644
        47.7504         23.5004
    408791.40246   2020132.41443  22379916.6174                   22379931.4144
        41.2504         19.2504
   3445020.79747   2571270.58643  21161430.3284                   21161445.0514
        46.2504         22.5004
   1821107.50047   1680438.69143  22366403.4144                   22366415.3874
        47.0004         20.0004
   3297034.43846   2541227.32042  23746691.4304                   23746705.3914
        41.2504         14.7504
   -383233.047 5                  23878685.375
        32.000
    350675.441 5                  21641572.164
        35.750
 19  3  6 20 12  0.0000000  0  8G05G07G08G09G27G16G28G30
   3033616.680 6                  23313884.359
        36.000
   1497432.75048    502220.14143  20538373.3674                   20538387.6804
        48.0004         22.7504
    390431.59446   2005826.05543  22376422.9384                   22376438.2734
        41.2504         19.0004
   3448129.41047   2573692.91843  21162020.8364                   21162037.3444
        44.5004         23.7504
   1812717.86347   1673901.29343  22364806.4224                   22364819.1214
        45.7504         20.0004
   3306479.27746   2548586.87542  23748488.9144                   23748502.4884
        41.2504         14.7504
   -408746.316 4                  23873830.641
        29.750
    330725.719 6                  21637775.648
        37.250
 19  3  6 20 12  5.0000000  0  8G05G07G08G09G27G16G28G30
   3024525.121 5                  23312154.063
        32.500
   1486593.48847    493773.95344  20536310.0784                   20536324.7074
        47.7504         24.0004
    372089.74647   1991533.71943  22372933.1024                   22372948.5704
        43.0004         20.7504
   3451254.09047   2576127.74643  21162616.0084                   21162632.3954
        44.0004         22.0004
   1804350.07447   1667380.93443  22363213.9924                   22363226.8094
        44.5004         20.0004
   3315932.72746   2555953.22342  23750288.3984                   23750302.0394
        41.7504         16.7504
                                  23868976.164
        34.750
    310787.074 6                  21633981.484
        38.750
 19  3  6 20 12 10.0000000  0  8G05G07G08G09G27G16G28G30
   3015453.473 5                  23310427.672
        31.750
   1475767.46548    485338.10244  20534249.9924                   20534265.0004
        48.0004         24.5004
    353765.60247   1977255.17643  22369445.5784                   22369462.5394
        43.7504         19.7504
   3454394.57047   2578574.86343  21163213.5234                   21163229.7154
        44.2504         22.5004
   1796003.84447   1660877.34443  22361626.0314                   22361638.6334
        45.0004         19.5004
   3325394.37546   2563325.93042  23752088.1094                   23752102.8954
        41.5004         14.7504
   -459747.477 5                  23864123.852
        34.250
    290859.199 6                  21630189.227
        38.750
 19  3  6 20 12 15.0000000  0  8G05G07G08G09G27G16G28G30
   3006401.625 5                  23308704.688
        31.750
   1464954.28948    476912.24244  20532192.3134                   20532206.8554
        48.5004         24.2504
    335458.69947   1962990.09443  22365961.8594                   22365979.4454
        43.7504         19.7504
   3457550.42647   2581033.96143  21163813.4384                   21163830.4884
        43.7504         22.2504
   1787678.81647   1654390.34443  22360041.4224                   22360054.5084
        45.5004         20.2504
   3334863.97746   2570704.80542  23753889.9384                   23753905.0124
        41.2504         15.5004
   -485236.004 5                  23859273.938
        33.750
    270941.668 6                  21626398.914
        39.500
 19  3  6 20 12 20.0000000  0  8G05G07G08G09G27G16G28G30
   2997368.934 5                  23306988.094
        30.250
   1454153.52348    468496.06644  20530137.1804                   20530151.7114
        48.2504         25.5004
    317168.75047   1948738.18443  22362481.8754                   22362499.7894
        44.7504         21.2504
   3460721.21947   2583504.67643  21164417.6414                   21164433.7584
        44.5004         22.5004
   1779374.47747   1647919.40243  22358461.3364                   22358474.4144
        45.0004         20.0004
   3344340.91846   2578089.44542  23755694.3204                   23755708.3204
        41.7504         14.7504
   -510716.957 5                  23854424.938
        32.500
    251034.125 6                  21622611.281
        38.250
 19  3  6 20 12 25.0000000  0  8G05G07G08G09G27G16G28G30
   2988355.047 5                  23305270.961
        31.750
   1443364.89148    460089.35544  20528083.8204                   20528098.4574
        48.0004         25.0004
    298895.34047   1934499.14543  22359004.8364                   22359022.7424
        44.2504         22.5004
   3463906.66047   2585986.88343  21165024.0394                   21165039.9184
        45.0004         22.0004
   1771090.57447   1641464.39543  22356884.5704                   22356898.3484
        44.7504         19.7504
   3353824.97346   2585479.63742  23757498.2584                   23757512.8834
        40.5004         15.5004
   -536190.750 5                  23849578.227
        33.000
    231136.031 6                  21618824.227
        37.750
 19  3  6 20 12 30.0000000  0  8G05G07G08G09G27G16G28G30
                                  23303559.203
        31.500
   1432588.14148    451691.87144  20526033.5234                   20526047.7464
        48.7504         26.2504
    280638.25447   1920272.84843  22355528.8914                   22355548.7424
        43.0004         21.7504
   3467106.45747   2588480.23443  21165632.8754                   21165649.2274
        44.5004         21.7504
   1762826.86347   1635025.15643  22355312.9694                   22355326.0474
        45.2504         19.0004
   3363315.80547   2592875.07042  23759305.1254                   23759319.0314
        42.0004         14.7504
   -561657.582 5                  23844731.633
        34.000
    211247.414 6                  21615039.508
        38.750
 19  3  6 20 12 35.0000000  0  8G05G07G08G09G27G16G28G30
   2970383.520 4                  23301852.086
        29.500
   1421823.46548    443303.81644  20523984.5944                   20523998.9064
        48.5004         26.0004
    262397.69547   1906059.42243  22352058.5704                   22352077.8404
        43.5004         21.0004
   3470320.83247   2590984.94143  21166243.6254                   21166261.1174
        44.0004         22.0004
   1754583.55147   1628601.78143  22353743.9774                   22353757.7234
        45.0004         19.0004
   3372813.69146   2600276.03142  23761111.1954                   23761126.4884
        41.0004         16.2504
   -587117.234 5                  23839886.109
        33.000
    191368.387 6                  21611256.656
        38.750
 19  3  6 20 12 40.0000000  0  8G05G07G08G09G27G16G28G30
   2961425.84815                  23300146.641
        30.000
   1411070.59448    434924.96144  20521938.7504                   20521952.3054
        49.0004         24.2504
    244173.44547   1891858.71143  22348591.1174                   22348609.6174
        44.5004         19.7504
   3473549.50847   2593500.77743  21166859.3524                   21166875.2974
        45.2504         22.5004
   1746360.33647   1622194.10943  22352179.0634                   22352192.4774
        45.5004         19.0004
   3382318.30146   2607682.16842  23762920.9924                   23762935.3404
        41.5004         15.5004
   -612570.070 5                  23835041.992
        35.000
    171498.637 6                  21607476.117
        39.250
 19  3  6 20 12 45.0000000  0  8G05G07G08G09G27G16G28G30
   2952486.508 5                  23298445.586
        30.750
   1400329.31648    426555.12144  20519894.8134                   20519908.1564
        49.0004         26.0004
    225965.18847   1877670.50043  22345126.2814                   22345145.6684
        44.2504         20.7504
   3476792.24647   2596027.57043  21167475.7424                   21167492.7464
        44.0004         21.7504
   1738156.96147   1615801.82843  22350617.9064                   22350632.1454
        45.5004         19.0004
   3391829.37146   2615093.44542  23764730.2814                   23764745.5204
        41.2504         14.7504
   -638016.289 5                  23830199.438
        35.000
    151638.004 6                  21603696.328
        39.250
 19  3  6 20 12 50.0000000  0  8G05G07G08G09G27G16G28G30
   2943565.582 5                  23296747.008
        32.000
   1389599.65248    418194.34843  20517852.8284                   20517866.8914
        48.7504         23.0004
    207773.04747   1863494.80943  22341664.1644                   22341683.9614
        44.0004         20.7504
   3480049.01647   2598565.31643  21168095.3754                   21168112.8244
        44.2504         21.5004
   1729973.56347   1609425.18043  22349060.7344                   22349075.6054
        45.2504         19.5004
   3401346.97747   2622509.79342  23766541.6024                   23766556.8984
        42.0004         15.5004
   -663455.766 5                  23825359.063
        34.750
    131786.453 6                  21599918.344
        39.000
 19  3  6 20 12 55.0000000  0  8G05G07G08G09G27G16G28G30
   2934662.88315                  23295054.031
        32.000
   1378881.50048    409842.55544  20515813.2734                   20515827.0664
        48.7504         24.7504
    189596.95747   1849331.61743  22338205.6564                   22338225.1134
        44.5004         19.2504
   3483319.75447   2601113.93443  21168718.3364                   21168735.4574
        44.2504         22.0004
   1721809.91447   1603063.89143  22347507.0474                   22347522.1804
        45.0004         20.0004
   3410870.94546   2629930.99242  23768353.4534                   23768369.9774
        41.2504         15.5004
   -688888.648 5                  23820519.469
        32.750
    111943.961 6                  21596142.516
        39.250
 19  3  6 20 13  0.0000000  0  8G05G07G08G09G27G16G28G30
                                  23293362.313
        27.500
   1368174.97348    401499.79744  20513776.1094                   20513790.3484
        49.0004         24.5004
    171436.90247   1835180.90643  22334749.9144                   22334769.8284
        44.2504         19.2504
   3486604.53147   2603673.49643  21169342.2584                   21169361.0514
        42.7504         21.7504
   1713666.18847   1596718.13343  22345957.3284                   22345973.0474
        45.5004         20.2504
   3420401.39847   2637357.30942  23770167.8674                   23770184.0944
        42.7504         15.5004
   -714314.879 5                  23815682.344
        34.750
     92110.523 6                  21592367.867
        39.250
 19  3  6 20 13  5.0000000  0  8G05G07G08G09G27G16G28G30
   2916912.65615                  23291675.664
        30.750
   1357479.93048    393166.00444  20511740.6724                   20511755.9534
        48.7504         24.5004
    153292.94147   1821042.75843  22331296.5474                   22331317.2464
        44.2504         20.0004
   3489903.24647   2606243.91843  21169970.9924                   21169989.6094
        44.0004         21.0004
   1705542.27747   1590387.81343  22344411.8054                   22344427.3594
        45.5004         19.5004
   3429938.20346   2644788.54342  23771982.1414                   23771999.1054
        41.0004         15.5004
   -739734.516 5                  23810843.289
        33.250
     72286.152 6                  21588594.930
        38.000
 19  3  6 20 13 10.0000000  0  8G05G07G08G09G27G16G28G30
   2908064.809 4                  23289990.805
        26.750
   1346796.46148    384841.21943  20509707.8754                   20509722.5274
        48.7504         23.2504
    135165.09847   1806917.20743  22327847.5164                   22327867.2854
        44.5004         19.7504
   3493216.03147   2608825.28943  21170601.8134                   21170619.2974
        44.5004         21.5004
   1697438.23447   1584072.95743  22342869.4614                   22342885.1414
        45.5004         19.2504
   3439481.44947   2652224.89142  23773799.3914                   23773815.6884
        43.0004         15.5004
   -765147.426 5                  23806007.742
        33.500
     52470.910 6                  21584825.516
        39.250
 19  3  6 20 13 15.0000000  0  8G05G07G08G09G27G16G28G30
   2899235.574 5                  23288311.195
        31.750
   1336124.62948    376525.50844  20507676.7344                   20507691.6294
        48.0004         25.5004
    117053.39147   1792804.16043  22324400.5944                   22324419.8874
        45.0004         19.5004
   3496542.77347   2611417.58643  21171233.1884                   21171253.0044
        42.5004         21.2504
   1689354.07847   1577773.64843  22341330.8204                   22341346.9924
        45.0004         20.2504
   3449031.13746   2659666.21542  23775614.7344                   23775633.0634
        40.5004         15.5004
   -790553.617 5                  23801173.602
        34.000
     32664.742 6                  21581055.727
        38.000
 19  3  6 20 13 20.0000000  0  8G05G07G08G09G27G16G28G30
   2890424.281 4                  23286632.617
        29.750
   1325464.17648    368218.66043  20505648.3834                   20505663.1804
        48.2504         23.7504
     98957.68047   1778703.59443  22320956.7974                   22320976.4264
        44.0004         19.5004
   3499883.32047   2614020.59443  21171870.3984                   21171888.5664
        43.7504         22.0004
   1681289.61347   1571489.62543  22339796.3364                   22339812.8284
        45.2504         20.2504
   3458587.05547   2667112.33242  23777434.3204                   23777451.4224
        42.2504         16.2504
   -815953.312 5                  23796340.016
        34.000
     12867.543 6                  21577289.008
        39.500
 19  3  6 20 13 25.0000000  0  8G05G07G08G09G27G16G28G30
   2881631.08215                  23284961.094
        31.000
   1314815.11348    359920.68444  20503621.4144                   20503636.7464
        48.0004         25.0004
     80877.76247   1764615.36743  22317516.7584                   22317536.1134
        44.0004         19.5004
   3503237.72747   2616634.37943  21172509.1804                   21172526.8914
        43.2504         21.5004
   1673244.80547   1565220.95743  22338265.8524                   22338282.0204
        45.0004         20.7504
   3468149.10946   2674563.26242  23779253.6954                   23779271.3954
        41.0004         14.7504
   -841346.559 5                  23791508.023
        31.750
     -6920.734 6                  21573522.781
        39.500
 19  3  6 20 13 30.0000000  0  8G05G07G08G09G27G16G28G30
                                  23283290.281
        35.500
   1304177.50848    351631.64543  20501597.5784                   20501612.4964
        48.2504         22.7504
     62813.83247   1750539.59843  22314078.7664                   22314098.1254
        43.5004         19.5004
   3506605.80947   2619258.89543  21173147.4774                   21173168.1684
        43.0004         20.5004
   1665219.72347   1558967.62143  22336738.0864                   22336755.2854
        44.5004         21.0004
   3477717.39547   2682019.08642  23781074.2424                   23781092.8754
        43.0004         14.7504
   -866733.15215                  23786677.266
        30.500
    -26700.148 6                  21569759.445
        38.000
 19  3  6 20 13 35.0000000  0  8G05G07G08G09G27G16G28G30
   2864099.557 6                  23281625.500
        38.250
   1293551.39847    343351.55543  20499575.7114                   20499590.7774
        46.0004         22.5004
     44765.97747   1736476.29743  22310644.8914                   22310663.7934
        44.0004         19.0004
   3509987.80147   2621894.14843  21173793.1564                   21173812.3444
        44.2504         20.7504
   1657214.34047   1552729.67243  22335214.8754                   22335232.7974
        45.5004         20.2504
   3487291.92646   2689479.75842  23782895.7504                   23782915.2274
        41.0004         13.7504
   -892113.03115                  23781848.594
        32.000
    -46470.71515                  21565997.016
        32.000
 19  3  6 20 13 40.0000000  0  7G05G07G08G09G27G16G30
   2855361.129 6                  23279962.500
        40.750
   1282936.90648    335080.51243  20497554.8754                   20497570.9884
        48.0004         22.5004
     26734.26247   1722425.59443  22307212.8444                   22307232.4264
        44.0004         19.7504
   3513383.80147   2624540.39843  21174438.6564                   21174458.1454
        42.5004         21.5004
   1649228.87547   1546507.23043  22333694.9924                   22333712.6884
        45.2504         19.7504
   3496872.84046   2696945.39542  23784719.6954                   23784738.8284
        41.0004         13.7504
    -66231.69916                  21562237.234
        36.500
 19  3  6 20 13 45.0000000  0  7G05G07G08G09G27G16G30
   2846641.199 6                  23278303.930
        37.000
   1272333.98847    326818.50443  20495537.8204                   20495553.7544
        47.2504         22.0004
      8718.68047   1708387.50443  22303785.2504                   22303804.1414
        44.5004         19.7504
   3516793.69147   2627197.47343  21175087.2664                   21175108.0274
        43.0004         21.5004
   1641263.30547   1540300.24643  22332179.6094                   22332197.7464
        45.5004         20.0004
   3506460.06646   2704415.93442  23786543.2894                   23786563.6484
        40.7504         13.7504
    -85983.66016                  21558477.914
        37.250
 19  3  6 20 13 50.0000000  0  7G05G07G08G09G27G16G30
   2837939.848 6                  23276648.914
        37.500
   1261742.93447    318565.71943  20493522.8284                   20493537.7384
        45.0004         22.2504
     -9280.37947   1694362.24243  22300360.6724                   22300378.8874
        42.5004         18.2504
   3520217.82447   2629865.55943  21175741.0164                   21175758.9224
        45.5004         22.5004
   1633317.82447   1534108.93443  22330668.4924                   22330685.6484
        45.5004         20.5004
   3516053.96147   2711891.59042  23788370.8364                   23788389.7114
        42.5004         14.7504
   -105726.316 5                  21554723.117
        34.000
 19  3  6 20 13 55.0000000  0  7G05G07G08G09G27G16G30
   2829256.633 6                  23274996.328
        40.250
   1251163.53547    310322.05543  20491509.6884                   20491523.3874
        46.0004         22.5004
    -27263.24647   1680349.64843  22296938.5554                   22296955.9494
        43.0004         18.2504
   3523655.87547   2632544.57443  21176394.4454                   21176412.3954
        44.5004         22.2504
   1625392.25047   1527933.19543  22329160.0634                   22329177.2274
        45.7504         20.2504
   3525654.08646   2719372.34042  23790196.8754                   23790216.7974
        40.7504         14.7504
   -125460.20717                  21550966.555
        43.750
 19  3  6 20 14  0.0000000  0  7G05G07G08G09G27G16G28
   2820591.926 6                  23273347.000
        41.000
   1240595.81647    302087.45344  20489499.0554                   20489511.2894
        47.2504         25.0004
    -45229.68447   1666349.78143  22293520.0084                   22293536.4104
        43.7504         19.5004
   3527107.94547   2635234.49243  21177051.0394                   21177067.6724
        45.5004         21.7504
   1617486.64847   1521772.97743  22327655.8594                   22327671.7384
        46.2504         20.2504
   3535260.70346   2726857.95742  23792025.7974                   23792045.2934
        41.5004         13.7504
                                  23757717.313
        36.250
 19  3  6 20 14  5.0000000  0  8G05G07G08G09G27G16G28G30
   2811945.547 6                  23271701.422
        39.000
   1230039.64847    293861.88743  20487489.8914                   20487501.3094
        47.0004         22.0004
    -63180.02047   1652362.54743  22290103.9304                   22290119.9024
        43.0004         20.2504
   3530573.91047   2637935.27343  21177710.7034                   21177726.9384
        45.5004         21.7504
   1609600.87147   1515628.23043  22326155.3364                   22326170.2894
        46.0004         19.7504
   3544873.52746   2734348.49242  23793854.5634                   23793874.2234
        41.7504         15.5004
   3082841.438 6                  23752895.914
        37.000
   -164899.56217                  21543461.781
        42.000
 19  3  6 20 14 10.0000000  0  8G05G07G08G09G27G16G28G30
   2803317.469 6                  23270059.727
        39.750
   1219495.10247    285645.36344  20485483.3444                   20485493.7304
        47.0004         24.5004
    -81114.05947   1638388.03143  22286690.9064                   22286706.2154
        43.5004         19.2504
   3534053.80547   2640646.87943  21178373.5944                   21178388.0904
        45.5004         21.0004
   1601735.00047   1509498.96143  22324658.3204                   22324672.8524
        45.7504         19.5004
   3554492.64547   2741843.81642  23795685.2344                   23795704.7584
        42.7504         15.5004
   3057509.055 6                  23748076.602
        36.250
   -184605.535 6                  21539711.547
        41.500
 19  3  6 20 14 15.0000000  0  8G05G07G08G09G27G16G28G30
   2794707.504 6                  23268421.133
        39.000
   1208961.97347    277437.73043  20483479.2974                   20483488.8164
        47.2504         22.5004
    -99032.10947   1624425.86343  22283281.7664                   22283296.1954
        43.7504         19.5004
   3537547.41847   2643369.18843  21179037.1414                   21179052.5904
        45.0004         21.2504
   1593888.75847   1503385.02743  22323165.4384                   22323179.0904
        45.5004         19.2504
   3564117.75446   2749343.95742  23797516.5554                   23797535.8134
        41.7504         15.5004
   3032183.117 6                  23743257.211
        37.000
   -204302.598 6                  21535963.250
        41.750
 19  3  6 20 14 20.0000000  0  8G05G07G08G09G27G16G28G30
   2786115.785 6                  23266786.383
        40.000
   1198440.37147    269239.07443  20481477.1564                   20481486.0704
        47.2504         23.5004
   -116933.88747   1610476.40243  22279874.8524                   22279889.1724
        43.5004         19.2504
   3541054.87147   2646102.24643  21179705.2424                   21179719.5594
        45.5004         21.0004
   1586062.36747   1497286.50843  22321675.9454                   22321689.1724
        45.5004         19.2504
   3573749.08647   2756848.83642  23799350.0394                   23799368.7234
        42.0004         14.7504
   3006864.027 6                  23738438.695
        37.500
   -223990.488 7                  21532216.992
        42.000
 19  3  6 20 14 25.0000000  0  8G05G07G08G09G27G16G28G30
   2777542.527 6                  23265155.234
        40.000
   1187930.48047    261049.55544  20479477.1024                   20479485.5944
        47.2504         24.5004
   -134819.33647   1596539.71943  22276471.0944                   22276485.5394
        42.5004         19.7504
   3544576.25847   2648846.18843  21180374.4144                   21180388.9494
        44.5004         21.2504
   1578255.87147   1491203.55143  22320190.0634                   22320202.8404
        45.7504         20.2504
   3583386.72747   2764358.71942  23801183.0554                   23801202.9454
        42.0004         13.7504
   2981551.742 6                  23733621.906
        37.250
   -243669.160 6                  21528472.281
        41.500
 19  3  6 20 14 30.0000000  0  8G05G07G08G09G27G16G28G30
   2768987.570 6                  23263526.523
        39.750
   1177432.27747    252869.13344  20477479.8594                   20477487.2894
        47.5004         24.7504
   -152688.53947   1582615.67243  22273071.2344                   22273084.5784
        43.2504         20.7504
   3548111.58247   2651600.97743  21181047.7974                   21181061.6134
        45.7504         21.5004
   1570469.32047   1485136.08243  22318708.5234                   22318721.5314
        45.2504         19.7504
   3593030.65247   2771873.49242  23803019.0004                   23803037.5944
        42.2504         13.7504
   2956246.363 6                  23728806.758
        37.250
   -263338.613 7                  21524728.953
        42.000
 19  3  6 20 14 35.0000000  0  8G05G07G08G09G27G16G28G30
   2760451.070 6                  23261903.109
        40.750
   1166945.83647    244697.88744  20475483.5704                   20475491.8484
        47.5004         24.5004
   -170541.30947   1568704.41043  22269673.9614                   22269687.0434
        43.0004         20.0004
   3551660.94947   2654366.71543  21181723.9144                   21181736.1254
        45.5004         21.5004
   1562702.77047   1479084.23843  22317231.0944                   22317242.8204
        46.0004         19.7504
   3602680.90246   2779393.16042  23804854.4224                   23804873.7664
        41.7504         14.7504
   2930947.926 6                  23723993.063
        37.000
   -282998.742 7                  21520988.289
        42.000
 19  3  6 20 14 40.0000000  0  8G05G07G08G09G27G16G28G30
   2751933.117 6                  23260281.961
        40.500
   1156471.18047    236535.80943  20473490.3914                   20473498.5354
        47.7504         23.5004
   -188377.58247   1554806.06643  22266279.8674                   22266292.8134
        43.0004         21.5004
   3555224.34847   2657143.41043  21182401.7274                   21182414.4494
        45.5004         22.5004
   1554956.27347   1473047.99643  22315756.7034                   22315768.7114
        45.2504         20.2504
   3612337.58647   2786917.78142  23806693.2194                   23806711.3754
        42.5004         14.7504
   2905656.496 6                  23719179.414
        37.500
   -302649.492 6                  21517248.758
        41.750
 19  3  6 20 14 45.0000000  0  8G05G07G08G09G27G16G28G30
   2743433.727 6                  23258664.273
        40.500
   1146008.43447    228383.02744  20471499.5864                   20471507.1684
        47.5004         25.2504
   -206197.27747   1540920.56643  22262889.1564                   22262902.1804
        43.0004         22.2504
   3558801.91447   2659931.11343  21183082.5164                   21183094.4844
        45.0004         22.5004
   1547229.95347   1467027.48443  22314286.5314                   22314298.4144
        45.2504         20.0004
   3622000.82447   2794447.62542  23808531.3594                   23808550.3134
        42.0004         13.7504
   2880372.223 6                  23714368.898
        37.750
   -322290.770 6                  21513511.031
        41.750
 19  3  6 20 14 50.0000000  0  8G05G07G08G09G27G16G28G30
   2734953.277 6                  23257050.430
        40.500
   1135557.98047    220239.80543  20469510.9224                   20469518.5124
        47.7504         23.7504
   -224000.21546   1527048.13343  22259500.1334                   22259514.4144
        40.5004         22.2504
   3562393.87147   2662730.05543  21183764.7894                   21183778.1484
        44.0004         21.5004
   1539524.05947   1461022.88343  22312820.2344                   22312831.5704
        45.2504         20.5004
   3631670.82446   2801982.67642  23810371.5784                   23810390.1724
        41.5004         14.7504
   2855095.434 6                  23709558.094
        38.000
   -341922.266 6                  21509774.813
        41.750
 19  3  6 20 14 55.0000000  0  8G05G07G08G09G27G16G28G30
   2726491.414 6                  23255440.680
        41.000
   1125119.43447    212105.85243  20467524.5394                   20467531.9574
        47.5004         23.0004
   -241786.49647   1513188.73443  22256116.6334                   22256129.7774
        42.5004         21.5004
   3566000.00447   2665540.00443  21184452.9384                   21184463.9064
        45.7504         21.2504
   1531838.34047   1455034.01643  22311357.1724                   22311368.4384
        44.5004         20.2504
   3641347.30146   2809522.75042  23812213.0394                   23812231.8364
        41.2504         14.7504
   2829825.789 6                  23704749.570
        38.500
   -361544.250 6                  21506041.117
        41.750
 19  3  6 20 15  0.0000000  0  8G05G07G08G09G27G16G28G30
   2718048.344 6                  23253833.750
        41.250
   1114693.01247    203981.39543  20465540.2894                   20465547.9534
        47.5004         23.7504
   -259555.88747   1499342.45743  22252735.5944                   22252748.7074
        44.5004         22.0004
   3569620.48447   2668361.15243  21185142.0554                   21185152.6844
        45.0004         21.5004
   1524172.97347   1449060.99243  22309898.7504                   22309909.5864
        45.0004         19.5004
   3651030.38347   2817068.01642  23814055.7424                   23814074.6094
        42.0004         14.7504
   2804563.449 6                  23699942.133
        37.250
   -381156.539 7                  21502309.406
        42.000
 19  3  6 20 15  5.0000000  0  8G05G07G08G09G27G16G28G30
                                  23252230.727
        39.250
   1104278.55947    195866.21943  20463558.7734                   20463565.9184
        47.7504         22.7504
   -277308.53947   1485509.23443  22249356.8524                   22249370.5634
        43.7504         22.0004
   3573255.11747   2671193.36743  21185832.2894                   21185844.3364
        44.2504         21.7504
   1516527.80947   1443103.71943  22308443.5554                   22308454.8204
        44.5004         20.0004
   3660719.93047   2824618.30542  23815899.2424                   23815918.0234
        42.0004         15.5004
   2779308.344 6                  23695136.992
        38.000
   -400759.293 7                  21498579.563
        42.250
 19  3  6 20 15 10.0000000  0  8G05G07G08G09G27G16G28G30
   2701217.418 6                  23250630.313
        38.000
   1093876.17248    187760.47343  20461579.5164                   20461586.6954
        48.0004         23.7504
   -295044.44947   1471689.03943  22245981.4694                   22245995.7664
        43.7504         21.5004
   3576904.00047   2674036.63343  21186526.7584                   21186538.5704
        44.7504         22.5004
   1508902.96947   1437162.29343  22306993.0704                   22307004.0004
        44.7504         19.2504
   3670416.07447   2832173.75442  23817745.1804                   23817763.3594
        42.7504         16.2504
   2754060.539 6                  23690331.773
        38.250
   -420352.352 7                  21494850.438
        42.750
 19  3  6 20 15 15.0000000  0  8G05G07G08G09G27G16G28G30
   2692830.098 6                  23249035.078
        36.500
   1083485.70347    179664.00043  20459601.5864                   20459609.5594
        47.5004         22.0004
   -312763.44947   1457882.02043  22242609.8284                   22242624.4534
        45.0004         21.2504
   3580567.21547   2676891.07443  21187224.4304                   21187235.5904
        44.5004         22.2504
   1501298.40647   1431236.68043  22305545.6564                   22305556.7464
        44.7504         19.7504
   3680118.67247   2839734.20342  23819590.8754                   23819610.0594
        42.0004         15.5004
   2728819.883 6                  23685528.086
        37.750
   -439936.039 6                  21491123.734
        41.500
 19  3  6 20 15 20.0000000  0  8G05G07G08G09G27G16G28G30
   2684461.547 6                  23247442.523
        36.500
   1073107.05147    171576.73443  20457627.0784                   20457635.3204
        47.7504         22.5004
   -330466.17247   1444087.71943  22239241.1804                   22239256.7734
        45.2504         21.2504
   3584244.21147   2679756.27343  21187923.6564                   21187935.8714
        44.5004         20.7504
   1493713.79747   1425326.56343  22304102.1484                   22304114.4344
        45.0004         18.5004
   3689827.52347   2847299.55542  23821438.7504                   23821457.8554
        42.5004         13.7504
   2703586.301 6                  23680726.305
        37.500
   -459510.180 6                  21487398.617
        41.500
 19  3  6 20 15 25.0000000  0  8G05G07G08G09G27G16G28G30
   2676112.043 5                  23245853.570
        35.750
   1062740.91847    163499.22743  20455654.3204                   20455662.6764
        47.5004         22.5004
   -348151.58647   1430306.88743  22235875.7664                   22235892.1524
        45.5004         22.0004
   3587935.87947   2682632.87943  21188625.5704                   21188638.4884
        43.7504         21.0004
   1486149.90247   1419432.64543  22302663.2734                   22302675.7074
        44.5004         19.0004
   3699543.434 6                  23823287.273
        41.500
   2678360.504 6                  23675926.688
        38.000
   -479074.180 6                  21483676.430
        41.500
 19  3  6 20 15 30.0000000  0  8G05G07G08G09G27G16G28G30
   2667781.414 6                  23244267.539
        39.000
   1052386.97347    155431.23043  20453683.0234                   20453693.2974
        46.2504         22.5004
   -365819.84447   1416539.41443  22232512.2894                   22232530.5084
        44.2504         20.7504
   3591642.14147   2685520.81643  21189331.5474                   21189344.3554
        43.0004         20.0004
   1478606.50047   1413554.61743  22301227.3134                   22301240.2034
        45.5004         18.5004
   3709266.023 6                  23825136.266
        41.250
   2653142.270 5                  23671126.883
        35.000
   -498628.445 6                  21479954.391
        40.250
 19  3  6 20 15 35.0000000  0  8G05G07G08G09G27G16G28G30
   2659469.953 6                  23242686.656
        39.500
   1042045.44147    147372.88743  20451715.4144                   20451725.5904
        46.2504         22.2504
   -383471.11747   1402785.18843  22229153.4384                   22229172.0044
        44.5004         20.0004
   3595362.75447   2688420.04743  21190039.5164                   21190053.0824
        43.0004         19.2504
   1471083.67247   1407692.66043  22299795.4534                   22299809.4494
        45.5004         19.5004
   3718995.395 7                  23826988.453
        42.000
   2627931.625 6                  23666329.141
        36.000
   -518172.660 6                  21476235.414
        38.750
 19  3  6 20 15 40.0000000  0  8G05G07G08G09G27G16G28G30
   2651178.094 6                  23241108.172
        40.250
   1031716.86347    139324.63743  20449749.7584                   20449760.8874
        46.2504         22.2504
   -401104.63347   1389044.81343  22225798.0704                   22225816.7624
        45.0004         20.0004
   3599098.41447   2691330.92643  21190749.2814                   21190764.5234
        42.0004         19.7504
   1463582.01647   1401847.23443  22298368.0864                   22298382.0984
        45.5004         19.2504
   3728732.176 7                  23828840.898
        42.000
   2602729.133 5                  23661534.078
        35.250
   -537706.277 6                  21472518.133
        39.000
 19  3  6 20 15 45.0000000  0  8G05G07G08G09G27G16G28G30
   2642905.750 6                  23239534.406
        39.500
   1021401.27747    131286.51243  20447787.4224                   20447798.0824
        46.2504         22.0004
   -418720.32847   1375318.24643  22222446.2894                   22222464.7814
        44.5004         19.5004
   3602849.23847   2694253.65243  21191464.4534                   21191478.6884
        43.2504         19.7504
   1456101.59447   1396018.31343  22296944.6884                   22296959.0594
        45.7504         19.2504
   3738476.293 6                  23830694.617
        41.750
   2577534.938 5                  23656739.141
        35.750
   -557229.430 6                  21468802.563
        41.000
 19  3  6 20 15 50.0000000  0  8G05G07G08G09G27G16G28G30
   2634644.406 6                  23237961.953
        38.250
   1011096.54347    123256.84443  20445825.8054                   20445837.0434
        47.2504         22.2504
   -436312.85947   1361609.76243  22219098.0474                   22219117.5084
        44.5004         19.7504
   3606615.12147   2697187.99243  21192181.5004                   21192195.2814
        43.7504         19.7504
   1448647.97747   1390210.25443  22295525.4454                   22295541.2734
        43.5004         19.5004
   3748233.191 7                  23832552.266
        42.500
   2552342.992 6                  23651944.773
        36.500
   -576749.297 6                  21465087.758
        40.750
 19  3  6 20 15 55.0000000  0  8G05G07G08G09G27G16G28G30
   2626393.026 6                  23236391.766
        40.000
   1000802.73047    115235.73043  20443867.2194                   20443878.7034
        46.7504         22.0004
   -453880.69547   1347920.53943  22215755.2664                   22215774.6844
        44.0004         19.2504
   3610398.30147   2700136.02343  21192899.6414                   21192915.2114
        43.0004         19.5004
   1441220.72347   1384422.83643  22294112.4064                   22294127.5744
        45.7504         19.5004
   3758001.219 6                  23834410.953
        41.500
   2527156.152 5                  23647152.930
        35.250
   -596265.855 6                  21461374.641
        40.500
 19  3  6 20 16  0.0000000  0  8G05G07G08G09G27G16G28G30
   2618163.309 5                  23234825.563
        34.750
    990524.00847    107226.30543  20441910.7424                   20441921.5084
        45.7504         22.5004
   -471430.08247   1334245.68443  22212416.2034                   22212434.5744
        44.2504         19.0004
   3614198.39847   2703097.11343  21193622.9614                   21193638.5004
        43.0004         19.7504
   1433815.14847   1378652.21143  22292703.6094                   22292717.8204
        45.5004         20.5004
   3767776.738 7                  23836270.805
        42.000
                                  23642361.250
        33.500
   -615769.201 6                  21457663.172
        40.250
 19  3  6 20 16  5.0000000  0  8G05G07G08G09G27G16G28G30
   2609951.965 6                  23233266.188
        38.500
    980257.30947     99226.28943  20439959.6254                   20439967.7194
        47.2504         22.0004
   -488960.73447   1320585.44943  22209083.6564                   22209099.0164
        45.0004         19.2504
   3618013.99647   2706070.29343  21194351.9924                   21194364.6374
        43.0004         20.2504
   1426430.98847   1372898.32443  22291299.9534                   22291312.3714
        45.7504         19.0004
   3777559.668 6                  23838134.930
        41.500
   2476812.063 5                  23637572.992
        33.250
   -635263.301 6                  21453955.555
        40.750
 19  3  6 20 16 10.0000000  0  7G05G07G08G09G27G16G30
   2601760.230 6                  23231704.406
        39.000
    970004.28947     91236.86343  20438006.4614                   20438017.3444
        46.5004         22.2504
   -506472.81247   1306939.59043  22205747.8914                   22205765.7034
        43.5004         19.2504
   3621845.71947   2709055.98042  21195078.9534                   21195094.7234
        42.5004         17.7504
   1419068.33647   1367161.12543  22289896.9534                   22289911.9574
        45.0004         18.2504
   3787349.918 7                  23839996.211
        42.250
   -654746.270 6                  21450247.281
        40.500
 19  3  6 20 16 20.0000000  0  5G07G08G09G27G30
   3141840.68017                  20434113.680
        44.500
   3136851.92217                  22199094.914
        42.500
   3153780.41017                  21196547.578
        43.000
   3143216.03117                  22287109.273
        45.500
   3136825.15616                  21442839.758
        38.500
 19  3  6 20 16 25.0000000  0  7G07G08G09G27G16G28G30
   3131624.771 7                  20432168.922
        42.000
   3119394.406 6                  22195771.930
        40.000
                                  21197283.313
        38.500
   3135917.637 7                  22285718.805
        42.000
                                  23845595.203
        35.500
                                  23618433.945
        26.250
   3117369.910 5                  21439135.992
        35.500
 19  3  6 20 16 30.0000000  0  7G07G08G09G27G16G28G30
   3121419.79347     79765.93854  20430226.0164                   20430227.9454
        47.7504         25.0004
   3101953.430 7                  22192451.945
        42.250
   3161544.844 6                  21198022.406
        41.500
   3128640.13347   1360072.91854  22284334.2424                   22284336.4884
        45.2504         24.2504
   3168884.117 6                  23847462.258
        40.250
   3107912.86715                  23613649.531
        35.750
   3097922.30547   -186305.48853  21435434.0554                   21435437.0634
        42.0004         20.5004
 19  3  6 20 16 35.0000000  0  8G05G07G08G09G27G16G28G30
                                  23223962.656
        41.000
   3111227.67648     71823.85243  20428286.4064                   20428291.3754
        48.0004         22.0004
   3084530.65647   1296587.37555  22189136.9614                   22189151.9614
        44.0004         34.2504
   3165449.82846   2714373.90653  21198766.3204                   21198784.7194
        41.0004         19.5004
   3121382.48847   1354417.68043  22282952.7344                   22282959.8324
        47.2504         21.5004
   3178709.105 7                  23849332.180
        43.000
                                  23608869.031
        30.000
   3078485.23447   -201451.14543  21431736.2894                   21431739.4654
        42.7504         19.0004
 19  3  6 20 16 40.0000000  0  8G05G07G08G09G27G16G28G30
   3136599.605 6                  23222424.555
        40.000
   3101048.24648     63891.84043  20426349.0314                   20426355.9064
        48.5004         22.2504
   3067124.95747   1283024.47743  22185823.5164                   22185841.7154
        43.2504         20.0004
   3169368.70747   2717427.55543  21199512.9694                   21199531.0824
        42.7504         18.2504
   3114145.93447   1348778.77043  22281575.6804                   22281584.2734
        45.7504         21.5004
   3188541.547 7                  23851203.000
        42.500
   3057674.82815                  23604090.180
        34.500
   3059058.51247   -216588.86343  21428038.8754                   21428043.6294
        42.0004         18.2504
 19  3  6 20 16 45.0000000  0  8G05G07G08G09G27G16G28G30
   3128536.148 6                  23220889.906
        39.250
   3090881.60247     55969.78544  20424414.7734                   20424422.5004
        47.5004         24.7504
   3049736.14547   1269474.71543  22182514.6334                   22182532.8874
        44.0004         18.2504
   3173301.08247   2720491.75443  21200261.1024                   21200279.1414
        43.5004         18.2504
   3106930.47347   1343156.33643  22280202.6334                   22280212.2304
        47.0004         22.2504
   3198381.676 7                  23853074.977
        42.250
   3032565.695 6                  23599310.594
        36.000
   3039641.99246   -231718.66042  21424344.1644                   21424350.4654
        41.5004         17.7504
 19  3  6 20 16 50.0000000  0  8G05G07G08G09G27G16G28G30
   3120490.727 5                  23219357.039
        34.500
   3080726.59247     48056.80243  20422480.9614                   20422491.0904
        43.0004         22.0004
   3032364.25746   1255938.14842  22179209.2584                   22179227.1094
        39.7504         16.7504
   3177246.54646   2723566.02442  21201010.0554                   21201030.6254
        38.0004         16.2504
   3099735.85046   1337550.18443  22278832.1804                   22278843.6954
        41.2504         20.5004
   3208229.141 6                  23854948.281
        37.750
   3007462.35915                  23594534.328
        34.250
   3020234.41046   -246841.40242  21420649.5314                   21420657.5634
        37.2504         16.7504
 19  3  6 20 16 55.0000000  0  8G05G07G08G09G27G16G28G30
   3112463.426 6                  23217830.422
        36.250
   3070583.99247     40153.47543  20420551.6564                   20420561.1414
        46.0004         20.0004
   3015010.01747   1242415.33942  22175906.6254                   22175925.5904
        44.7504         14.7504
   3181207.05547   2726652.20742  21201765.2424                   21201785.0664
        43.7504         14.7504
   3092561.69647   1331959.85843  22277468.2504                   22277479.3754
        46.5004         18.5004
   3218082.598 6                  23856823.727
        41.500
   2982367.09816                  23589758.906
        36.500
   3000836.37946   -261956.82842  21416958.9844                   21416967.2704
        40.5004         16.2504
 19  3  6 20 17  0.0000000  0  8G05G07G08G09G27G16G28G30
   3104454.965 6                  23216305.203
        36.500
   3060453.02347     32259.28143  20418622.8134                   20418633.1374
        42.5004         20.5004
   2997671.66846   1228905.14542  22172606.5704                   22172626.1054
        40.0004         15.5004
   3185180.03946   2729748.09842  21202519.3914                   21202541.1454
        38.2504         14.7504
   3085407.49646   1326385.27743  22276105.6484                   22276118.0314
        40.2504         18.5004
   3227942.715 6                  23858699.547
        37.250
   2957277.766 5                  23584983.984
        34.500
   2981447.87946   -277064.64142  21413268.9144                   21413278.4574
        38.0004         16.2504
 19  3  6 20 17  5.0000000  0  8G05G07G08G09G27G16G28G30
   3096467.566 5                  23214785.719
        31.000
   3050333.28747     24373.80343  20416698.0084                   20416706.7344
        42.0004         21.7504
   2980346.51546   1215405.01742  22169310.7974                   22169328.9924
        39.5004         14.7504
   3189165.80046   2732853.94042  21203278.4924                   21203299.3874
        38.5004         13.7504
   3078269.44946   1320823.15343  22274748.1564                   22274759.1174
        41.0004         19.5004
   3237805.191 6                  23860576.570
        38.750
   2932197.664 5                  23580209.344
        35.250
   2962070.66046   -292163.76242  21409581.9304                   21409591.1994
        38.5004         14.7504
 19  3  6 20 17 10.0000000  0  8G05G07G08G09G27G16G28G30
   3088498.61717                  23213270.875
        42.000
   3040224.75047     16496.96944  20414775.0004                   20414782.6644
        47.7504         26.5004
   2963036.91447   1201916.97342  22166017.4064                   22166034.6684
        43.5004         16.7504
   3193164.34947   2735969.69842  21204040.0314                   21204059.1254
        42.2504         16.2504
   3071150.44947   1315275.88343  22273394.0234                   22273404.4344
        45.0004         22.0004
   3247673.012 7                  23862455.242
        42.500
   2907124.211 6                  23575441.281
        37.500
   2942702.64547   -307255.75042  21405897.9454                   21405906.3204
        42.2504         14.7504
 19  3  6 20 17 15.0000000  0  8G05G07G08G09G27G16G28G30
   3080546.051 5                  23211756.578
        30.750
   3030126.97746      8628.61343  20412852.3914                   20412861.5274
        40.5004         23.5004
   2945743.68046   1188441.75043  22162725.6254                   22162743.2074
        37.2504         18.2504
   3197176.30546   2739095.88343  21204803.0314                   21204822.1334
        37.5004         18.2504
   3064050.59046   1309743.55943  22272042.7194                   22272053.0474
        39.0004         21.7504
   3257545.535 6                  23864333.188
        36.000
   2882056.914 5                  23570668.531
        33.500
   2923342.66446   -322341.41042  21402212.4384                   21402222.4924
        36.5004         16.2504
 19  3  6 20 17 20.0000000  0  8G05G07G08G09G27G16G28G30
                                  23210246.430
        37.750
   3020040.34047       768.82043  20410934.5944                   20410942.0084
        46.0004         22.5004
   2928468.55547   1174980.61342  22159439.4224                   22159454.6024
        42.0004         17.7504
   3201203.06646   2742233.55543  21205569.8674                   21205587.5004
        39.5004         18.2504
   3056971.00847   1304226.96143  22270697.1484                   22270705.3554
        44.0004         22.0004
   3267423.797 6                  23866214.547
        40.750
   2856997.43815                  23565899.773
        35.250
   2903990.66446   -337420.88742  21398529.7584                   21398539.7384
        41.7504         16.7504
 19  3  6 20 17 25.0000000  0  3G09G27G16
                                  21206339.859
        37.750
   3145766.46916                  22269353.672
        41.000
                                  23868096.078
        36.250
 19  3  6 20 17 50.0000000  0  1G27
   3147778.83816                  22262692.063
        38.500
 19  3  6 20 17 55.0000000  0  3G07G09G27
   3137638.60717                  20397565.117
        45.500
   3152260.21517                  21211009.305
        42.500
   3140842.27017                  22261373.539
        43.000
 19  3  6 20 18  0.0000000  0  7G07G08G09G27G16G28G30
   3127652.31947    -12357.20453  20395662.8444                   20395669.5204
        42.5004         22.2504
   3134389.87916                  22133257.242
        39.000
   3156403.263 6                  21211797.320
        38.750
   3133927.021 6                  22260056.313
        40.250
   3159974.93416                  23881293.500
        37.000
                                  23527804.461
        33.750
   3134652.17216                  21369139.141
        39.250
 19  3  6 20 18 10.0000000  0  5G07G08G09G27G16
                                  20391869.8914                   20391867.8444
        44.5004         26.7504
                                  22126746.320
        38.250
                                  21213383.352
        41.000
                                  22257438.1254                   22257439.4804
        42.0004         27.0004
                                  23885076.445
        37.500
 19  3  6 20 18 15.0000000  0  5G07G08G09G27G16
   3130924.99246    -28490.25854  20389978.4304                   20389979.3714
        41.0004         24.5004
   3118779.094 6                  22123497.273
        37.000
   3158227.273 6                  21214181.125
        37.000
   3138778.117 6                  22256135.328
        38.250
   3167158.328 6                  23886973.750
        37.500
 19  3  6 20 18 20.0000000  0  6G07G08G09G27G16G30
   3120989.24047    -36232.42444  20388088.6954                   20388090.5744
        46.0004         26.0004
   3101715.877 6                  22120250.734
        41.250
   3162428.549 6                  21214979.070
        41.250
   3131947.497 7                  22254836.063
        44.250
   3177116.306 7                  23888868.477
        42.250
   3129298.98616                  21354491.703
        41.500
 19  3  6 20 18 25.0000000  0  7G07G08G09G27G16G28G30
   3111069.48846    -43962.13744  20386199.6724                   20386203.1374
        41.2504         24.5004
   3084672.184 6                  22117006.438
        39.000
   3166646.797 6                  21215782.406
        38.250
   3125139.738 6                  22253539.516
        40.500
   3187083.020 6                  23890764.625
        38.750
                                  23504045.914
        33.000
   3110082.96546   -347620.46553  21350833.6254                   21350838.3054
        36.5004         20.7504
 19  3  6 20 18 35.0000000  0  2G07G27
                                  20382433.5234                   20382427.3674
        43.5004         36.0004
                                  22250962.4924                   22250959.5634
        42.0004         34.0004
 19  3  6 20 18 40.0000000  0  2G07G27
   3135818.10917                  20380553.938
        44.250
   3140585.38357   1288280.46153  22249679.2894                   22249683.9734
        42.7504         22.0004
 19  3  6 20 18 50.0000000  0  4G07G08G28G30
                                  20376800.688
        36.000
                                  22100843.133
        33.000
                                  23480330.883
        28.250
                                  21332583.039
        33.250
 19  3  6 20 18 55.0000000  0  4G07G08G27G30
   3144947.68257    -58390.66655  20374931.4454                   20374933.5704
        46.7504         32.7504
   3117644.24217                  22097623.430
        42.000
   3120502.85057   1281380.82254  22245856.2034                   22245849.8134
        45.0004         28.5004
   3119423.73416                  21328943.344
        41.500
 19  3  6 20 19  0.0000000  0  6G07G08G09G27G16G30
   3135122.24647    -66046.75843  20373061.8914                   20373065.2974
        46.5004         22.5004
   3100732.853 6                  22094404.898
        41.500
   3156027.46916                  21221485.594
        41.000
   3113847.74247   1276611.03553  22244590.0704                   22244598.0084
        43.7504         22.7504
   3162252.81616                  23904083.820
        38.750
   3100284.08246   -359565.61753  21325300.6254                   21325301.2074
        41.0004         21.5004
 19  3  6 20 19  5.0000000  0  7G07G08G09G27G16G28G30
   3125310.34947    -73692.39143  20371194.3594                   20371198.1604
        46.0004         23.5004
   3083838.238 6                  22091189.680
        40.500
   3160367.455 6                  21222311.250
        41.750
   3107213.67647   1271441.57543  22243327.3674                   22243335.5784
        43.5004         22.5004
   3172280.227 6                  23905992.172
        38.750
   3121348.27716                  23466122.508
        39.500
   3081156.47346   -374470.25843  21321660.8524                   21321662.2664
        40.7504         20.0004
 19  3  6 20 19 10.0000000  0  7G07G08G09G27G16G28G30
   3115513.96147    -81325.94143  20369329.4224                   20369334.5904
        42.7504         22.5004
   3066963.768 6                  22087977.984
        41.000
   3164724.383 6                  21223139.750
        40.750
   3100602.60446   1266290.13743  22242067.8204                   22242076.4614
        41.0004         22.0004
   3182316.021 6                  23907899.586
        39.500
   3096475.44516                  23461387.867
        36.750
   3062041.76746   -389364.80343  21318023.3984                   21318025.0744
        39.7504         19.5004
 19  3  6 20 19 15.0000000  0  7G07G08G09G27G16G28G30
   3105728.58647    -88950.84443  20367467.7034                   20367473.4654
        43.7504         22.7504
   3050106.512 6                  22084770.117
        40.000
   3169094.66847   2747867.06353  21223971.9454                   21223986.6254
        42.0004         20.7504
   3094011.93446   1261154.55543  22240814.5314                   22240823.1844
        41.7504         22.0004
   3192358.629 6                  23909811.688
        39.250
   3071610.418 6                  23456657.844
        36.500
   3042936.05546   -404252.34443  21314387.7664                   21314390.3054
        41.5004         18.5004
 19  3  6 20 19 20.0000000  0  7G07G08G09G27G16G28G30
   3095959.28147    -96563.29343  20365609.2734                   20365614.0394
        45.2504         22.7504
   3033270.539 7                  22081568.250
        42.500
   3173482.09447   2751285.81653  21224806.3594                   21224820.6134
        42.7504         19.0004
   3087445.64847   1256037.97743  22239565.6644                   22239573.1414
        43.0004         21.5004
   3202410.848 6                  23911726.211
        41.250
   3046754.129 6                  23451926.516
        40.250
   3023842.80546   -419130.22742  21310754.3984                   21310757.6604
        41.2504         17.7504
 19  3  6 20 19 25.0000000  0  7G07G08G09G27G16G28G30
   3146938.98057   -101125.71156  20363752.1644                   20363746.9384
        44.5004         36.0004
   3016451.38316                  22078366.773
        41.000
   3177885.89157   2754717.61753  21225645.1954                   21225657.9964
        42.5004         18.5004
   3080902.48857   1250939.25053  22238319.8754                   22238327.8484
        43.0004         21.5004
   3212470.11316                  23913639.500
        40.000
   3021909.03115                  23447199.555
        34.500
   3004762.31316                  21307124.617
        40.500
 19  3  6 20 19 35.0000000  0  7G07G08G09G27G16G28G30
                                  20360046.563
        44.750
                                  22071975.078
        42.000
                                  21227327.875
        41.500
                                  22235839.703
        42.500
                                  23917471.195
        40.500
                                  23437746.992
        33.500
                                  21299866.266
        39.750
 19  3  6 20 19 40.0000000  0  7G07G08G09G27G16G28G30
   3117743.91447   -112659.41655  20358198.0554                   20358191.1724
        42.0004         30.7504
   3115948.504 6                  22068787.164
        40.750
   3191178.89616                  21228174.688
        40.500
   3137328.44516                  22234606.219
        41.000
   3171382.06616                  23919388.125
        39.250
                                  23433025.383
        29.250
   3111964.887 6                  21296243.578
        38.250
 19  3  6 20 19 45.0000000  0  7G07G08G09G27G16G28G30
   3108035.04747   -120224.83653  20356349.9304                   20356349.3674
        46.2504         22.7504
   3099196.09047   1153291.00853  22065598.0634                   22065600.6294
        43.0004         21.5004
   3195635.191 7                  21229023.273
        45.500
   3130860.10247   1244447.40654  22233375.2424                   22233379.6484
        43.7504         25.5004
   3181461.543 7                  23921307.133
        42.500
   2922609.48816                  23428303.477
        38.000
   3092923.676 7                  21292618.898
        43.750
 19  3  6 20 19 50.0000000  0  7G07G08G09G27G16G28G30
   3098338.19947   -127780.87143  20354504.5784                   20354505.3874
        47.0004         22.5004
   3082463.34447   1140252.48843  22062414.1484                   22062416.9264
        44.5004         20.0004
   3200106.184 7                  21229872.953
        44.500
   3124413.734 7                  22232148.492
        45.250
   3191547.750 7                  23923226.203
        43.500
   2897800.672 6                  23423580.813
        37.250
   3073889.652 7                  21288996.523
        42.750
 19  3  6 20 19 55.0000000  0  7G07G08G09G27G16G28G30
   3088655.59447   -135325.72743  20352660.6334                   20352664.3284
        44.5004         23.7504
   3065749.18447   1127228.42643  22059232.3134                   22059237.1914
        42.2504         20.0004
   3204592.121 7                  21230725.883
        42.000
   3117989.26247   1240844.24253  22230924.9924                   22230935.0044
        42.2504         23.0004
   3201641.813 6                  23925146.078
        39.000
   2873000.965 6                  23418861.813
        38.750
   3054867.988 6                  21285376.813
        40.000
 19  3  6 20 20  0.0000000  0  6G07G08G09G27G16G30
   3078984.94156   -142861.31653  20350820.2664                   20350824.0984
        40.7504         22.5004
   3049052.38356   1114217.96553  22056054.7814                   22056059.9964
        38.2504         19.2504
   3209091.90616                  21231581.641
        38.000
   3111584.86756   1235853.71953  22229705.1414                   22229715.1604
        40.2504         21.5004
   3211741.68416                  23927067.555
        38.250
   3035855.84056   -434574.62153  21281757.4774                   21281763.5084
        39.0004         20.5004
 19  3  6 20 20  5.0000000  0  6G07G08G09G27G16G30
                                  20348983.6334                   20348986.8244
        41.2504         21.2504
                                  22052880.797
        39.500
                                  21232442.828
        40.500
                                  22228491.9224                   22228499.6954
        40.5004         20.5004
                                  23928992.289
        38.000
                                  21278143.3444                   21278148.1764
        39.2504         18.5004
 19  3  6 20 20 10.0000000  0  6G07G08G09G27G16G30
   3059681.03957   -157903.09554  20347148.3914                   20347150.4774
        45.0004         24.5004
   3015712.07056   1107458.45353  22049711.4694                   22049713.1254
        41.7504         21.0004
   3218118.54717                  21233303.719
        42.250
   3098836.23457   1225919.55553  22227281.1334                   22227288.6214
        43.2504         21.5004
   3231960.91016                  23930916.094
        40.750
   2997860.81856   -464181.14753  21274528.6334                   21274533.5234
        41.5004         19.0004
 19  3  6 20 20 15.0000000  0  6G07G08G09G27G16G30
   3050046.73447   -165410.33643  20345317.1024                   20345315.5594
        45.2504         23.2504
   2999065.80147   1094487.66843  22046544.2194                   22046546.3674
        42.0004         21.2504
   3222659.445 6                  21234168.297
        41.000
   3092490.65247   1220974.94943  22226075.4224                   22226078.1954
        44.2504         22.7504
   3242076.750 6                  23932842.367
        39.250
   2978879.58646   -478971.70342  21270917.6174                   21270920.8244
        41.0004         17.2504
 19  3  6 20 20 20.0000000  0  7G07G08G09G27G16G28G30
   3040423.30547   -172909.08243  20343483.6024                   20343486.4344
        42.2504         23.0004
   2982437.60246   1081530.55943  22043379.5704                   22043382.3674
        40.0004         20.5004
   3227213.363 6                  21235034.766
        40.000
   3086165.90246   1216046.56643  22224871.0314                   22224876.9734
        41.0004         22.0004
   3252198.828 6                  23934767.406
        38.000
   3133002.98415                  23395288.164
        32.250
   2959905.35546   -493756.81242  21267307.0944                   21267312.0864
        39.7504         16.7504
 19  3  6 20 20 25.0000000  0  7G07G08G09G27G16G28G30
   3030813.68657   -180397.15853  20341655.1724                   20341657.4414
        42.7504         22.2504
   2965828.21646   1068588.19343  22040218.5554                   22040222.3324
        40.7504         19.7504
   3231783.73416                  21235904.477
        39.750
   3079861.60946   1211134.11543  22223670.5864                   22223677.4304
        41.0004         22.5004
   3262327.23816                  23936694.547
        39.750
                                  23390577.977
        31.750
   2940943.00056   -508532.65652  21263697.8134                   21263703.9414
        37.2504         16.7504
 19  3  6 20 20 30.0000000  0  2G08G30
                                  22037061.148
        32.250
                                  21260093.031
        28.500
 19  3  6 20 20 55.0000000  0  1G07
   3146604.12917                  20330717.742
        42.500
 19  3  6 20 21  5.0000000  0  1G07
                                  20327084.789
        42.000
 19  3  6 20 29  0.0000000  0  3G07G09G30
   4696217.68057   1038904.66354  20466388.6724                   20466389.9224
        46.7504         26.7504
   4742217.34816                  21639788.438
        41.250
   4670550.12117                  21203083.367
        44.750
 19  3  6 20 29  5.0000000  0  6G07G08G09G30G27G28
   4687979.37747   1032485.23944  20464821.8674                   20464824.2814
        47.0004         26.5004
   4696312.38316                  22030306.039
        41.250
   4748256.21747   3990287.40453  21640938.0944                   21640941.0594
        45.0004         20.7504
   4652776.039 7                  21199701.234
        45.250
   4720558.38316                  22420200.930
        41.500
   4695545.84416                  23209829.305
        40.750
 19  3  6 20 29 10.0000000  0  6G07G08G09G30G27G28
   4679744.25047   1026068.21943  20463254.6484                   20463256.3284
        46.0004         22.7504
   4681620.570 6                  22027510.336
        39.750
   4754293.63047   3994991.88643  21642086.6884                   21642089.7304
        43.0004         19.2504
   4635000.62547    705949.78955  21196318.0474                   21196328.3794
        42.5004         32.5004
   4716411.77846   3680733.81953  22419412.2114                   22419414.6024
        39.0004         18.5004
   4671753.188 6                  23205301.719
        40.000
 19  3  6 20 30 25.0000000  0  2G07G30
   4718058.37517                  20440019.844
        44.500
   4715691.34817                  21145776.188
        43.500
 19  3  6 20 30 40.0000000  0  3G07G30G28
   4694080.996 7                  20435457.813
        44.500
   4662954.293 7                  21135741.961
        43.250
   4699810.37516                  23124045.297
        41.500
 19  3  6 20 30 45.0000000  0  5G07G09G30G27G28
   4686125.469 7                  20433943.922
        47.000
   4735867.23016                  21664396.906
        41.250
   4645408.56647    690495.54855  21132402.5314                   21132400.9224
        45.0004         30.5004
   4721456.04316                  22405208.867
        37.750
   4676210.215 7                  23119554.695
        43.500
 19  3  6 20 30 50.0000000  0  6G07G08G09G30G27G28
   4678184.848 7                  20432432.758
        45.750
   4704304.16815                  21972404.195
        35.250
   4742208.789 6                  21665603.789
        40.500
   4627875.88347    676833.65253  21129066.3444                   21129064.8874
        43.5004         21.5004
   4717770.207 6                  22404506.523
        36.000
   4652621.109 7                  23115064.781
        42.000
 19  3  6 20 30 55.0000000  0  6G07G08G09G30G27G28
   4670257.781 7                  20430924.258
        46.000
   4690061.742 6                  21969692.164
        36.000
   4748564.141 6                  21666813.469
        41.500
   4610354.93847    663180.96143  21125731.8054                   21125730.9414
        43.7504         21.0004
   4714105.340 6                  22403810.742
        36.500
   4629041.844 7                  23110578.023
        43.000
 19  3  6 20 31  0.0000000  0  6G07G08G09G30G27G28
   4662343.629 7                  20429417.805
        45.500
   4675838.141 5                  21966986.539
        35.500
   4754932.676 6                  21668024.797
        40.750
   4592845.08647    649536.92643  21122399.3524                   21122399.4924
        43.5004         20.5004
   4710460.762 6                  22403116.484
        36.250
   4605471.703 7                  23106092.461
        42.500
 19  3  6 20 31  5.0000000  0  6G07G08G09G30G27G28
   4654441.39547   1014605.92654  20427914.8594                   20427910.0274
        46.2504         24.7504
   4661632.520 6                  21964283.781
        37.000
   4761313.391 6                  21669239.383
        41.500
   4575345.35247    635900.81343  21119070.4064                   21119069.8594
        44.7504         20.7504
   4706835.547 6                  22402426.906
        37.500
   4581909.801 7                  23101610.211
        43.000
 19  3  6 20 31 10.0000000  0  6G07G08G09G30G27G28
   4646550.51647   1008457.21143  20426412.2894                   20426409.1564
        45.0004         21.2504
   4647444.273 5                  21961583.000
        35.750
   4767705.656 6                  21670455.664
        40.250
   4557855.15247    622272.04343  21115741.2274                   21115741.3834
        43.0004         19.5004
   4703229.086 5                  22401739.633
        35.750
   4558355.496 6                  23097126.273
        41.500
 19  3  6 20 31 15.0000000  0  6G07G08G09G30G27G28
   4638671.02047   1002317.32843  20424913.5864                   20424909.9884
        47.0004         21.5004
   4633273.352 6                  21958886.820
        36.500
   4774109.320 6                  21671674.711
        41.250
   4540374.39547    608650.70343  21112415.6564                   21112415.0044
        45.2504         19.2504
   4699641.230 6                  22401057.922
        37.500
   4534808.680 7                  23092646.219
        42.500
 19  3  6 20 31 20.0000000  0  6G07G08G09G30G27G28
   4630802.33647    996185.92243  20423416.8754                   20423413.1884
        43.2504         20.7504
   4619119.234 5                  21956193.586
        33.500
   4780524.043 6                  21672895.133
        38.250
   4522902.68446    595036.39843  21109091.4694                   21109090.6914
        41.2504         18.2504
   4696071.625 5                  22400377.773
        35.250
   4511268.891 6                  23088166.570
        39.250
 19  3  6 20 31 25.0000000  0  6G07G08G09G30G27G28
   4622944.12547    990062.63343  20421920.9924                   20421917.3634
        44.5004         20.2504
   4604981.609 5                  21953503.031
        35.000
   4786949.438 6                  21674118.680
        39.500
   4505439.62147    581428.79743  21105768.4924                   21105767.3444
        42.7504         18.2504
   4692519.867 6                  22399702.789
        36.500
   4487735.938 6                  23083688.813
        41.250
 19  3  6 20 31 35.0000000  0  2G07G30
                                  20418933.508
        45.000
                                  21099122.938
        43.750
 19  3  6 20 31 40.0000000  0  2G07G30
   4716234.71147    981266.09853  20417445.1724                   20417444.5394
        45.5004         22.7504
   4701849.906 7                  21095806.484
        43.750
 19  3  6 20 31 45.0000000  0  3G07G30G28
                                  20415956.3984                   20415956.0234
        41.5004         21.2504
   4684415.191 6                  21092488.836
        41.250
                                  23065785.797
        39.250
 19  3  6 20 31 50.0000000  0  6G07G08G09G30G27G28
   4700600.47357    969083.58253  20414469.8594                   20414469.4344
        45.2504         21.7504
   4711076.72716                  21940094.102
        36.000
   4735060.07016                  21680256.398
        40.500
   4666989.86317                  21089172.000
        43.250
   4721813.81315                  22396368.117
        35.000
   4681123.80517                  23061312.797
        42.750
 19  3  6 20 31 55.0000000  0  6G07G08G09G30G27G28
   4692802.09447    963006.93043  20412986.4384                   20412985.4654
        45.7504         21.5004
   4697035.387 6                  21937423.281
        36.250
   4741546.125 6                  21681492.539
        40.000
   4649575.891 7                  21085859.281
        43.750
   4718365.980 6                  22395713.672
        36.750
   4657628.441 7                  23056842.133
        42.500
 19  3  6 20 32  0.0000000  0  6G07G08G09G30G27G28
   4685016.74647    956940.42243  20411504.8054                   20411504.2894
        46.0004         21.7504
   4683013.113 5                  21934755.070
        35.250
   4748045.363 6                  21682729.188
        40.000
   4632173.223 7                  21082547.750
        43.500
   4714938.574 5                  22395061.977
        35.250
   4634142.422 6                  23052373.344
        41.500
 19  3  6 20 32  5.0000000  0  4G07G09G30G28
   4677243.71146    950883.53143  20410025.2504                   20410024.7544
        41.2504         21.0004
   4754557.055 6                  21683968.398
        36.500
   4614781.09047    572191.28955  21079239.2344                   21079238.3244
        43.0004         34.0004
   4610665.125 7                  23047905.930
        42.000
 19  3  6 20 32 10.0000000  0  4G07G09G30G28
   4669482.26215                  20408547.328
        34.500
   4761081.31615                  21685210.047
        31.750
   4597399.59816                  21075931.031
        37.000
   4587196.43815                  23043440.586
        35.750
 19  3  6 20 32 15.0000000  0  4G07G09G30G28
   4661733.555 7                  20407074.438
        43.000
   4767616.43416                  21686453.820
        36.750
   4580028.324 6                  21072625.484
        41.500
   4563736.090 6                  23038974.938
        39.500
 19  3  6 20 32 20.0000000  0  4G07G09G30G28
   4653996.180 7                  20405602.305
        45.500
   4774163.840 6                  21687701.094
        41.500
   4562666.531 7                  21069321.578
        43.000
   4540283.348 7                  23034512.906
        42.750
 19  3  6 20 32 25.0000000  0  4G07G09G30G28
   4646271.270 7                  20404132.570
        43.000
   4780723.949 6                  21688949.570
        37.750
   4545315.422 6                  21066019.547
        41.750
   4516839.371 6                  23030052.414
        40.500
 19  3  6 20 32 30.0000000  0  4G07G09G30G28
   4638553.04317                  20402663.719
        46.000
                                  21690197.219
        34.750
   4527971.53917                  21062716.953
        42.500
                                  23025588.906
        38.500
 19  3  6 20 32 35.0000000  0  5G07G09G30G27G28
   4630846.625 7                  20401197.188
        45.500
   4793868.840 6                  21691450.242
        39.500
   4510635.348 7                  21059419.320
        43.250
                                  22390597.055
        40.000
   4469967.359 6                  23021131.414
        41.500
 19  3  6 20 32 40.0000000  0  5G07G09G30G27G28
   4623150.473 7                  20399732.891
        45.750
   4800457.680 6                  21692703.977
        40.750
   4493307.699 7                  21056122.383
        43.500
   4720871.023 6                  22389973.578
        40.500
   4446541.102 6                  23016673.195
        40.250
 19  3  6 20 32 45.0000000  0  5G07G09G30G27G28
   4615465.676 7                  20398269.805
        45.500
   4807057.848 6                  21693961.477
        40.000
   4475989.67647    557040.06354  21052826.5554                   21052825.7384
        42.7504         26.7504
   4717609.785 6                  22389353.461
        41.000
   4423122.543 6                  23012217.727
        40.750
 19  3  6 20 32 50.0000000  0  6G07G08G09G30G27G28
   4607792.070 7                  20396810.258
        45.750
   4707964.77716                  21908255.492
        36.500
   4813669.188 6                  21695218.398
        40.250
   4458681.05147    543552.82043  21049532.6484                   21049534.5274
        43.7504         22.7504
   4714366.988 6                  22388735.789
        41.500
   4399711.473 6                  23007762.391
        40.750
 19  3  6 20 32 55.0000000  0  6G07G08G09G30G27G28
   4600129.633 7                  20395351.500
        45.500
   4694132.504 6                  21905623.758
        37.000
   4820291.707 6                  21696479.250
        39.500
   4441381.88747    530072.95343  21046241.6334                   21046242.8244
        44.0004         22.0004
   4711142.676 6                  22388121.984
        40.750
   4376308.031 6                  23003309.055
        40.750
 19  3  6 20 33  0.0000000  0  6G07G08G09G30G27G28
   4592478.559 7                  20393896.391
        45.250
   4680317.766 6                  21902993.977
        37.750
   4826925.551 6                  21697741.789
        39.500
   4424092.35547    516600.57843  21042951.1414                   21042953.2274
        43.2504         22.0004
   4707936.934 6                  22387513.086
        41.000
   4352912.316 6                  22998856.266
        40.250
 19  3  6 20 33  5.0000000  0  6G07G08G09G30G27G28
   4584838.67647    941534.73454  20392442.3984                   20392441.8244
        44.7504         24.0004
   4666520.375 6                  21900369.063
        37.500
   4833570.563 6                  21699005.141
        40.500
   4406812.25847    503135.57443  21039662.9534                   21039665.0314
        44.0004         22.2504
   4704749.656 6                  22386906.227
        40.750
   4329524.125 6                  22994406.406
        40.750
 19  3  6 20 33 10.0000000  0  6G07G08G09G30G27G28
   4577209.84847    935590.16443  20390990.5084                   20390989.8444
        45.5004         21.5004
   4652740.180 6                  21897746.398
        38.000
   4840226.598 6                  21700271.734
        40.000
   4389541.49647    489677.82843  21036377.3364                   21036378.9414
        44.2504         21.5004
   4701580.688 6                  22386302.063
        40.750
   4306143.383 6                  22989956.688
        40.500
 19  3  6 20 33 15.0000000  0  6G07G08G09G30G27G28
   4569591.98847    929654.19143  20389540.9694                   20389540.9774
        45.0004         21.7504
   4638977.129 6                  21895127.148
        38.250
   4846893.547 6                  21701541.242
        39.500
   4372279.98047    476227.31643  21033091.6724                   21033093.9614
        44.2504         21.7504
   4698429.910 6                  22385703.016
        40.750
   4282770.020 6                  22985509.172
        41.000
 19  3  6 20 33 20.0000000  0  6G07G08G09G30G27G28
   4561984.96147    923726.61343  20388093.1414                   20388092.9614
        45.5004         22.5004
   4625231.000 6                  21892512.188
        38.000
   4853571.191 6                  21702811.930
        37.500
   4355027.53947    462783.84443  21029808.7424                   21029811.0084
        43.5004         21.5004
   4695297.152 6                  22385106.961
        41.500
   4259403.816 6                  22981062.469
        40.750
 19  3  6 20 33 25.0000000  0  6G07G08G09G30G27G28
   4554388.96147    917807.64543  20386648.5084                   20386647.6254
        44.5004         22.7504
   4611502.016 6                  21889900.109
        39.000
   4860259.820 6                  21704083.734
        39.500
   4337784.39547    449347.62143  21026527.3054                   21026529.6644
        43.7504         21.5004
   4692182.656 6                  22384514.109
        40.750
   4236045.031 6                  22976617.039
        40.500
 19  3  6 20 33 30.0000000  0  6G07G08G09G30G27G28
   4546803.94147    911897.25843  20385204.9304                   20385204.4964
        45.0004         22.0004
   4597790.133 6                  21887289.695
        38.500
   4866959.250 6                  21705359.078
        38.250
   4320550.46147    435918.59843  21023247.8054                   21023250.0354
        43.7504         22.0004
   4689086.281 6                  22383925.133
        41.000
   4212693.598 6                  22972173.953
        40.750
 19  3  6 20 33 35.0000000  0  6G07G08G09G30G27G28
   4539229.81647    905995.34843  20383763.0704                   20383763.2344
        45.2504         22.2504
   4584095.273 6                  21884684.539
        38.250
   4873669.414 6                  21706635.945
        38.000
   4303325.62947    422496.64843  21019970.4144                   21019972.4574
        44.5004         21.7504
   4686007.926 6                  22383339.547
        41.000
   4189349.383 6                  22967731.758
        40.500
 19  3  6 20 33 40.0000000  0  6G07G08G09G30G27G28
   4531666.52347    900101.85943  20382324.3364                   20382323.9964
        45.0004         22.0004
   4570417.406 6                  21882080.953
        38.000
   4880390.316 6                  21707915.305
        38.500
   4286109.96547    409081.84043  21016694.5864                   21016696.4184
        44.5004         21.0004
   4682947.637 6                  22382757.461
        41.500
   4166012.492 6                  22963291.320
        40.750
 19  3  6 20 33 45.0000000  0  6G07G08G09G30G27G28
   4524114.05947    894216.84043  20380887.2424                   20380886.6884
        45.0004         20.5004
   4556756.461 6                  21879481.945
        37.000
   4887122.004 6                  21709196.156
        39.750
   4268903.53947    395674.25043  21013419.2894                   21013422.3984
        43.2504         20.2504
   4679905.336 6                  22382177.375
        40.750
   4142683.004 6                  22958851.344
        41.250
 19  3  6 20 33 50.0000000  0  6G07G08G09G30G27G28
   4516572.13347    888339.99643  20379451.6254                   20379451.0274
        45.2504         21.5004
   4543112.219 6                  21876884.961
        38.500
   4893863.965 6                  21710477.922
        38.000
   4251706.00847    382273.59043  21010146.6724                   21010149.8594
        43.0004         20.2504
   4676880.762 6                  22381602.844
        41.000
   4119360.355 6                  22954412.867
        41.000
 19  3  6 20 33 55.0000000  0  6G07G08G09G30G27G28
   4509040.69147    882471.32443  20378017.6804                   20378018.4024
        44.7504         21.5004
   4529484.711 6                  21874292.141
        39.000
   4900616.227 6                  21711763.805
        37.500
   4234517.25447    368879.77043  21006875.5474                   21006878.6844
        43.2504         20.2504
   4673873.898 6                  22381030.492
        41.000
   4096044.633 6                  22949975.820
        40.750
 19  3  6 20 36  0.0000000  0  3G07G09G27
   4712299.55557    874679.30554  20342778.7814                   20342779.5864
        45.7504         26.0004
   4739254.38716                  21744405.344
        40.000
   4721482.80916                  22367718.719
        41.500
 19  3  6 20 36  5.0000000  0  6G07G08G09G30G27G28
                                  20341397.1884                   20341400.7774
        43.7504         22.5004
                                  21807848.305
        37.000
                                  21745737.273
        40.250
                                  20922432.773
        43.750
                                  22367232.375
        39.000
                                  22835048.594
        41.000
 19  3  6 20 36 10.0000000  0  7G07G08G09G16G30G27G28
   4697801.58247    863382.21144  20340018.6724                   20340022.5124
        45.7504         25.0004
   4695663.086 6                  21805339.125
        41.000
   4753284.289 6                  21747073.898
        41.500
   4753404.34016                  24620060.945
        36.500
   4672064.90647    356632.40653  20919211.4144                   20919215.3364
        45.2504         22.7504
   4716393.043 7                  22366749.656
        42.000
   4657800.492 6                  22830650.109
        39.000
 19  3  6 20 36 15.0000000  0  4G07G08G09G30
   4723093.33257    861580.84155  20338643.2114                   20338642.3984
        45.5004         35.5004
   4717312.62516                  21802833.102
        39.000
   4731323.22316                  21748412.031
        40.250
   4655148.43457    343451.73853  20915992.2814                   20915996.6524
        44.5004         21.5004
 19  3  6 20 36 20.0000000  0  6G07G08G09G30G27G28
   4715876.47357    855957.34853  20337270.0944                   20337271.4454
        43.0004         22.5004
                                  21800330.484
        38.500
   4738368.43416                  21749753.070
        39.750
   4638241.57457    330277.26253  20912775.2584                   20912779.2624
        43.5004         21.2504
                                  22365795.969
        39.750
   4707784.83216                  22821858.609
        40.000
 19  3  6 20 36 25.0000000  0  6G07G08G09G30G27G28
   4708668.77347    850340.98044  20335897.8674                   20335899.6914
        45.5004         24.5004
   4691029.758 6                  21797831.656
        39.750
   4745422.250 6                  21751095.031
        40.500
   4621344.15247    317110.52343  20909559.6254                   20909563.5084
        45.0004         21.7504
   4721683.918 7                  22365323.773
        42.000
   4684695.516 6                  22817464.547
        37.750
 19  3  6 20 36 30.0000000  0  7G07G08G09G16G30G27G28
   4701471.20757    844732.39553  20334528.6724                   20334531.6294
        43.5004         22.7504
   4677914.590 6                  21795336.039
        38.000
   4752487.61746   4000089.32853  21752439.2424                   21752443.7734
        38.5004         19.2504
                                  24628479.852
        33.000
   4604454.46147    303949.70343  20906345.8674                   20906351.0824
        43.5004         21.7504
   4719221.94946   3677706.76253  22364855.0704                   22364857.5744
        39.7504         19.5004
   4661613.359 6                  22813072.789
        38.500
 19  3  6 20 36 35.0000000  0  7G07G08G09G16G30G27G28
   4694284.20747    839132.07044  20333160.9534                   20333163.6294
        45.0004         24.7504
   4664815.46546   2287560.78153  21792843.8914                   21792845.8404
        39.5004         18.5004
   4759561.28146   4005601.19542  21753785.8594                   21753790.1254
        39.0004         17.2504
   4743967.133 5                  24630586.422
        35.750
   4587573.67647    290795.79343  20903133.4924                   20903138.5864
        45.5004         22.2504
   4716777.58646   3675801.86343  22364390.4064                   22364393.0864
        40.5004         18.5004
   4638537.059 6                  22808682.320
        38.500
 19  3  6 20 36 45.0000000  0  1G07
                                  20330429.914
        39.500
 19  3  6 20 37 45.0000000  0  4G08G09G30G28
   4717520.31616                  21758213.141
        40.750
   4732587.30817                  21772759.766
        42.000
   4713496.47357    269754.52755  20858264.6724                   20858264.1604
        43.5004         34.2504
                                  22747273.617
        40.500
 19  3  6 20 37 55.0000000  0  3G09G30G28
   4729143.68816                  21775499.906
        41.250
   4719553.93017                  20851881.000
        45.500
   4717994.38916                  22738522.313
        40.250
 19  3  6 20 38 10.0000000  0  5G07G08G30G27G28
   4716994.73857    824209.30954  20307459.6484                   20307461.3554
        45.7504         26.5004
                                  21746001.711
        40.500
   4707515.28957    231101.98154  20842323.4064                   20842329.0084
        46.0004         26.7504
   4723959.99617                  22356088.773
        42.250
   4712485.20316                  22725410.305
        40.250
 19  3  6 20 38 15.0000000  0  7G07G08G09G16G30G27G28
   4709994.75147    818754.78343  20306126.8524                   20306131.7774
        45.5004         23.7504
   4707296.875 6                  21743568.883
        39.500
   4733803.54316                  21781008.141
        38.500
   4742659.52716                  24672672.031
        36.750
   4690790.22347    218069.47343  20839140.1094                   20839147.4844
        43.7504         23.5004
   4721841.494 6                  22355684.719
        41.500
   4689530.268 6                  22721041.688
        39.000
 19  3  6 20 38 20.0000000  0  7G07G08G09G16G30G27G28
   4703008.26647    813310.69543  20304797.6644                   20304802.0904
        44.0004         22.0004
   4694536.68056   2268227.88353  21741140.7974                   21741147.2424
        37.0004         18.2504
   4741067.98816                  21782390.602
        38.500
   4753743.566 5                  24674781.242
        32.500
   4674074.94947    205044.57843  20835959.8134                   20835966.9574
        43.0004         22.5004
   4719744.82816                  22355286.078
        38.500
   4666584.617 6                  22716675.406
        38.250
 19  3  6 20 38 25.0000000  0  7G07G08G09G16G30G27G28
   4696034.21047    807876.40543  20303470.5314                   20303475.2344
        44.0004         22.7504
   4681793.41846   2258298.14342  21738715.5784                   21738722.8484
        39.0004         16.7504
   4748342.272 6                  21783774.031
        38.500
   4764830.340 6                  24676891.102
        36.000
   4657372.25247    192029.52143  20832780.9694                   20832788.1954
        44.5004         23.7504
   4717666.563 6                  22354890.117
        41.000
   4643648.297 6                  22712310.078
        37.000
 19  3  6 20 38 30.0000000  0  7G07G08G09G16G30G27G28
   4689073.35947    802452.35243  20302145.5704                   20302150.4774
        44.5004         22.2504
   4669071.16546   2248384.62242  21736294.4694                   21736302.1294
        38.7504         14.7504
   4755630.371 6                  21785161.773
        40.000
   4775921.355 5                  24679001.156
        33.750
   4640679.95747    179022.52743  20829604.6024                   20829612.0434
        45.0004         22.5004
   4715608.566 6                  22354498.180
        40.250
   4620721.684 6                  22707947.211
        38.750
 19  3  6 20 38 35.0000000  0  7G07G08G09G16G30G27G28
   4682122.75847    797036.26643  20300825.1564                   20300828.4654
        45.5004         23.5004
   4656364.74046   2238483.58342  21733877.9774                   21733884.7814
        38.5004         13.7504
   4762927.698 6                  21786551.945
        39.000
   4787013.730 5                  24681113.570
        35.500
   4623997.44947    166023.12144  20826431.5084                   20826438.2814
        45.5004         25.5004
   4713567.265 7                  22354111.727
        42.000
   4597802.926 6                  22703587.836
        38.250
 19  3  6 20 38 40.0000000  0  3G07G08G16
                                  20299504.8984                   20299509.9224
        38.7504         21.7504
                                  21731462.6484                   21731469.5744
        29.5004         14.7504
                                  24683223.977
        28.500
 19  3  6 20 38 45.0000000  0  1G07
   4668308.53557    789715.17655  20298183.4694                   20298177.5984
        43.0004         32.7504
 19  3  6 20 38 50.0000000  0  1G07
                                  20296867.375
        43.750
 19  3  6 20 38 55.0000000  0  3G07G08G28
                                  20295549.758
        41.000
                                  21724235.797
        36.000
                                  22686152.313
        35.750
 19  3  6 20 39  0.0000000  0  5G07G08G30G27G28
                                  20294236.0164                   20294239.1134
        43.7504         21.5004
                                  21721832.055
        37.500
                                  20810578.3754                   20810584.2584
        43.0004         22.5004
                                  22352213.594
        38.250
                                  22681795.695
        39.500
 19  3  6 20 39  5.0000000  0  6G07G08G09G30G27G28
   4640667.32047    775295.53143  20292923.9454                   20292927.8754
        43.5004         22.5004
   4580466.426 6                  21719432.070
        36.750
                                  21794916.258
        39.500
   4661662.02647    118791.43643  20807412.8284                   20807418.6764
        43.2504         22.7504
   4723205.188 6                  22351844.367
        38.000
   4639274.016 6                  22677441.367
        38.500
 19  3  6 20 39 10.0000000  0  6G07G08G09G30G27G28
   4633780.69347    769929.28744  20291613.6484                   20291617.1604
        44.7504         24.2504
   4567868.615 6                  21717035.242
        38.500
   4737145.556 6                  21796315.648
        39.000
   4645034.49647    105834.88244  20804249.0314                   20804254.6024
        44.2504         24.2504
   4721274.578 6                  22351476.594
        39.750
   4616398.574 6                  22673088.664
        38.000
 19  3  6 20 39 15.0000000  0  7G07G08G09G16G30G27G28
   4626906.30547    764572.64543  20290304.8054                   20290308.8834
        45.5004         23.0004
   4555289.629 6                  21714641.070
        37.500
   4744510.66046   4014094.24253  21797716.9774                   21797720.8874
        39.2504         19.5004
   4741800.89115                  24698000.891
        33.500
   4628416.93047     92886.15644  20801086.2814                   20801092.2624
        45.2504         26.0004
   4719364.51246   3673017.63753  22351112.8834                   22351124.4964
        39.0004         19.0004
   4593528.742 6                  22668736.813
        39.500
 19  3  6 20 39 20.0000000  0  7G07G08G09G16G30G27G28
   4620040.49647    759222.62944  20288999.7894                   20289002.2814
        46.0004         25.7504
   4542725.828 6                  21712251.164
        39.500
   4751886.20746   4019841.40243  21799121.5944                   21799124.4064
        40.0004         18.5004
   4752895.949 6                  24700112.953
        36.250
   4611806.90647     79943.25444  20797926.5554                   20797931.2344
        45.7504         27.0004
   4717468.05546   3671539.98043  22350752.4384                   22350762.6134
        41.5004         18.2504
   4570667.492 6                  22664387.664
        38.750
 19  3  6 20 39 25.0000000  0  7G07G08G09G16G30G27G28
   4613183.67247    753879.65644  20287694.1024                   20287696.9104
        46.0004         25.2504
   4530177.33246   2221934.46953  21709862.6024                   21709867.6884
        38.5004         20.0004
   4759269.48446   4025594.59442  21800525.9454                   21800529.9414
        39.5004         17.2504
   4763990.578 5                  24702224.023
        33.500
   4595204.42647     67006.25844  20794766.5234                   20794771.6804
        45.5004         26.0004
   4715587.19146   3670074.31342  22350394.3134                   22350403.8984
        41.2504         17.2504
   4547811.656 6                  22660037.359
        38.750
 19  3  6 20 39 30.0000000  0  7G07G08G09G16G30G27G28
   4606337.60947    748545.04744  20286392.0314                   20286394.3794
        47.0004         27.2504
   4517647.14146   2212170.74243  21707478.5314                   21707484.2894
        39.0004         18.2504
   4766663.05946   4031355.76642  21801933.5944                   21801937.5124
        40.7504         17.7504
                                  24704335.422
        31.750
   4578610.13347     54075.64144  20791608.6414                   20791613.9804
        46.0004         27.2504
   4713724.63346   3668622.97342  22350040.5704                   22350048.9224
        41.2504         16.7504
   4524962.47746   3667845.89153  22655689.9224                   22655688.2154
        39.0004         19.7504
 19  3  6 20 39 35.0000000  0  7G07G08G09G16G30G27G28
   4599500.88347    743217.73044  20285090.4844                   20285094.0354
        46.0004         27.5004
   4505132.93446   2202419.27343  21705097.5394                   21705103.6214
        38.2504         18.5004
   4774066.29746   4037124.54343  21803342.0004                   21803347.7384
        39.5004         18.2504
                                  24706447.719
        32.500
   4562024.12147     41151.46944  20788452.8594                   20788459.1524
        45.0004         27.7504
   4711877.51646   3667183.72742  22349688.2194                   22349697.8244
        40.7504         16.7504
   4502121.03946   3650047.37543  22651342.9694                   22651343.1254
        39.0004         19.2504
 19  3  6 20 39 40.0000000  0  7G07G08G09G16G30G27G28
   4592671.98447    737896.51644  20283791.3834                   20283794.9734
        45.7504         24.7504
   4492630.63746   2192677.35242  21702717.8204                   21702724.6484
        38.2504         16.7504
   4781473.91046   4042896.68842  21804751.6884                   21804757.3444
        40.0004         16.7504
                                  24708558.367
        32.250
   4545446.41047     28233.78144  20785298.2274                   20785304.2894
        45.0004         25.0004
   4710044.06646   3665755.02342  22349340.1564                   22349348.2544
        40.7504         17.2504
   4479284.04346   3632252.29443  22646996.9614                   22646997.9924
        38.5004         18.2504
 19  3  6 20 39 45.0000000  0  7G07G08G09G16G30G27G28
   4585854.53547    732584.21544  20282494.1414                   20282496.7854
        45.0004         25.2504
   4480149.00946   2182951.32342  21700342.5004                   21700349.4264
        39.0004         15.5004
   4788896.42246   4048680.43842  21806164.5164                   21806169.9184
        39.2504         16.7504
   4808373.609 6                  24710670.359
        36.250
   4528876.49647     15322.15244  20782145.9144                   20782151.3954
        44.5004         24.2504
   4708228.58246   3664340.37542  22348994.5784                   22349002.9614
        41.5004         17.2504
   4456456.98446   3614465.06642  22642653.5474                   22642654.6524
        37.0004         16.7504
 19  3  6 20 39 50.0000000  0  7G07G08G09G16G30G27G28
   4579050.21947    727282.14543  20281199.1414                   20281200.4224
        42.5004         22.7504
   4467684.71145   2173238.91842  21697971.4384                   21697978.3634
        35.5004         15.5004
   4796327.30946   4054470.78542  21807578.4534                   21807583.8054
        36.5004         16.2504
   4819473.801 5                  24712781.406
        32.500
   4512319.72847      2420.76644  20778994.2584                   20779001.0554
        42.0004         24.2504
   4706432.73846   3662940.95742  22348651.4454                   22348661.8324
        38.2504         17.2504
   4433637.83245   3596683.83242  22638310.1884                   22638313.2424
        34.7504         17.2504
 19  3  6 20 39 55.0000000  0  7G07G08G09G16G30G27G28
   4572255.09047    721987.28144  20279905.9774                   20279908.7344
        44.5004         26.0004
   4455236.16446   2163538.79342  21695601.6414                   21695609.7194
        39.0004         14.7504
   4803766.48846   4060267.55142  21808993.0704                   21808999.9454
        37.0004         16.2504
   4830575.23416                  24714894.914
        37.000
   4495771.43447    -10473.95344  20775844.8834                   20775851.3874
        45.0004         24.5004
   4704653.28546   3661554.49242  22348313.2814                   22348322.1174
        41.2504         17.2504
   4410825.434 6                  22633969.633
        36.250
 19  3  6 20 40  0.0000000  0  7G07G08G09G16G30G27G28
   4565470.16047    716700.25044  20278616.1564                   20278618.2584
        46.2504         28.0004
   4442805.41056   2153852.39852  21693238.2584                   21693244.8754
        40.5004         14.7504
   4811214.53946   4066071.11742  21810411.1334                   21810417.2974
        41.2504         16.2504
                                  24717008.906
        33.500
   4479230.44947    -23363.10944  20772698.2814                   20772703.9184
        44.5004         26.0004
   4702892.19946   3660182.07042  22347979.8674                   22347987.4344
        40.7504         17.2504
   4388018.109 6                  22629631.141
        40.250
 19  3  6 20 40  5.0000000  0  7G07G08G09G16G30G27G28
   4558692.30547    711418.85544  20277325.3914                   20277329.5984
        45.5004         25.0004
   4430388.22346   2144176.76242  21690874.2034                   21690882.3954
        40.2504         14.7504
   4818669.94946   4071880.59842  21811829.7974                   21811837.1024
        39.5004         17.2504
   4852780.102 5                  24719121.359
        33.500
   4462695.52747    -36247.40644  20769551.1644                   20769558.5944
        44.5004         26.2504
   4701144.04946   3658819.94842  22347646.9924                   22347654.5594
        39.7504         16.2504
   4365216.32846   3586733.34853  22625291.3914                   22625294.4774
        39.0004         20.5004
 19  3  6 20 40 10.0000000  0  7G07G08G09G16G30G27G28
   4551921.78947    706143.10544  20276037.4144                   20276041.7074
        44.5004         29.5004
   4417984.39846   2134511.34442  21688513.1334                   21688522.0784
        38.5004         14.7504
   4826131.69946   4077694.95743  21813250.5164                   21813257.5664
        39.5004         18.2504
   4863878.22715                  24721231.984
        33.500
   4446167.05547    -49126.75844  20766406.8204                   20766414.0474
        43.0004         27.2504
   4699408.97746   3657467.96542  22347317.4064                   22347324.4144
        40.0004         16.2504
   4342419.30546   3568969.47343  22620952.9844                   22620956.7504
        36.7504         19.2504
 19  3  6 20 40 15.0000000  0  7G07G08G09G16G30G27G28
   4545161.25847    700875.17244  20274751.4924                   20274755.6994
        45.7504         28.7504
   4405598.83246   2124860.33642  21686157.4694                   21686165.1954
        38.7504         16.2504
   4833604.24246   4083517.71943  21814672.1334                   21814680.3014
        39.5004         18.5004
   4874977.098 5                  24723345.117
        32.500
   4429645.21147    -62000.89144  20763263.0394                   20763270.0634
        44.5004         29.2504
   4697691.00846   3656129.28942  22346990.3984                   22346997.6054
        40.5004         17.2504
   4319628.54146   3551210.45143  22616616.2664                   22616620.0514
        38.0004         18.5004
 19  3  6 20 40 20.0000000  0  7G07G08G09G16G30G27G28
   4538408.19547    695613.07844  20273466.0394                   20273470.9804
        46.7504         29.7504
   4393227.24646   2115220.15242  21683803.5004                   21683811.4884
        39.2504         16.7504
   4841082.66046   4089345.07443  21816095.2344                   21816103.6884
        38.7504         18.5004
   4886075.402 4                  24725456.367
        29.750
   4413129.68047    -74870.11345  20760120.1564                   20760128.1564
        46.5004         30.0004
   4695987.75046   3654802.14843  22346665.6644                   22346673.4264
        41.5004         19.0004
   4296841.89846   3533454.67643  22612280.9694                   22612284.5904
        40.7504         19.7504
 19  3  6 20 40 25.0000000  0  7G07G08G09G16G30G27G28
   4531661.69547    690356.05545  20272181.6954                   20272187.1764
        47.0004         30.2504
   4380866.53346   2105588.43342  21681450.7274                   21681458.9964
        38.2504         14.7504
   4848565.44946   4095175.80543  21817519.6564                   21817528.3204
        41.5004         19.0004
   4897169.77715                  24727566.289
        31.750
   4396621.43447    -87733.68444  20756978.0084                   20756986.7774
        45.5004         29.2504
   4694296.53546   3653484.25443  22346343.5394                   22346351.8054
        41.2504         19.2504
   4274060.00846   3515702.54343  22607945.2344                   22607949.8054
        40.2504         20.2504
 19  3  6 20 40 30.0000000  0  6G07G08G09G30G27G28
   4524927.371 5                  20270901.852
        35.500
                                  21679105.156
        26.250
   4856059.28555   4101015.22352  21818946.9534                   21818954.2894
        31.0004         16.7504
   4380123.984 5                  20753840.438
        34.000
   4692623.56345   3652180.73452  22346026.1334                   22346033.4804
        30.5004         16.7504
                                  22603613.2194                   22603616.8914
        27.5004         18.5004
 19  3  6 20 40 35.0000000  0  7G07G08G09G16G30G27G28
   4518205.53147    681338.90653  20269621.7114                   20269626.9654
        46.5004         22.2504
   4356200.723 6                  21676757.961
        37.500
                                  21820372.734
        38.000
                                  24731794.156
        33.250
   4363638.77047   -109836.18053  20750702.3984                   20750710.6804
        46.2504         23.5004
   4690970.680 6                  22345710.992
        41.500
                                  22599279.766
        37.500
 19  3  6 20 40 40.0000000  0  7G07G08G09G16G30G27G28
   4511487.548 6                  20268343.023
        41.500
                                  21674413.820
        39.000
                                  21821802.758
        37.500
                                  24733904.023
        32.500
   4347155.12516                  20747564.625
        41.750
   4689328.816 6                  22345397.609
        39.000
                                  22594946.688
        33.250
 19  3  6 20 40 45.0000000  0  5G07G08G09G30G27
   4504776.680 6                  20267064.414
        36.000
   4331589.016 4                  21672072.719
        28.250
   4878583.090 4                  21823231.719
        29.500
   4330677.434 6                  20744428.891
        36.500
   4687699.273 5                  22345087.484
        31.250
 19  3  6 20 40 50.0000000  0  6G07G08G09G30G27G28
   4498073.543 6                  20265790.008
        38.000
   4319303.79715                  21669734.156
        35.000
   4886103.441 5                  21824662.008
        34.500
   4314206.441 6                  20741295.063
        38.000
   4686083.961 6                  22344779.930
        36.000
   4160244.08215                  22586284.750
        32.000
 19  3  6 20 40 55.0000000  0  6G07G08G09G30G27G28
                                  20264517.063
        33.500
   4307034.97714                  21667402.258
        27.500
                                  21826095.133
        28.750
                                  20738162.344
        33.500
   4684484.984 5                  22344476.148
        30.500
   4137496.65214                  22581956.914
        25.250
 19  3  6 20 41  0.0000000  0  6G07G08G09G30G27G28
   4484695.817 6                  20263244.898
        38.750
                                  21665071.023
        30.500
   4901170.48415                  21827529.148
        33.500
   4281288.252 6                  20735031.945
        38.500
                                  22344174.695
        34.750
                                  22577631.336
        32.000
 19  3  6 20 41  5.0000000  0  5G07G09G30G27G28
   4478016.145 6                  20261973.172
        41.000
   4908712.27315                  21828966.172
        35.250
   4264836.539 6                  20731900.984
        40.500
                                  22343875.359
        37.000
                                  22573303.563
        32.500
 19  3  6 20 41 10.0000000  0  2G07G30
   4471342.50815                  20260705.523
        31.250
   4248389.75415                  20728772.281
        32.000
 19  3  6 20 41 15.0000000  0  3G07G09G30
   4464673.617 5                  20259436.367
        35.750
                                  21831838.266
        27.500
   4231946.402 5                  20725642.695
        35.750
 19  3  6 20 41 20.0000000  0  3G07G09G30
   4458006.077 7                  20258166.375
        45.500
   4931357.62116                  21833275.500
        38.750
   4215503.938 8                  20722513.367
        48.000
 19  3  6 20 41 25.0000000  0  6G07G08G09G30G27G28
   4451343.58215                  20256899.695
        35.750
   4717480.32015                  21653446.367
        30.750
   4938910.76215                  21834712.109
        30.750
   4199062.547 5                  20719384.742
        35.500
   4675147.42615                  22342701.602
        33.000
   4713526.27715                  22555998.992
        30.500
 19  3  6 20 41 30.0000000  0  6G07G08G09G30G27G28
   4444684.309 5                  20255631.578
        35.250
                                  21651124.227
        28.250
   4946467.711 5                  21836149.617
        30.250
   4182626.87115                  20716258.086
        34.500
   4673624.51615                  22342410.617
        31.750
                                  22551672.688
        28.250
 19  3  6 20 41 35.0000000  0  6G07G08G09G30G27G28
                                  20254364.430
        39.000
                                  21648807.227
        33.000
                                  21837590.078
        32.750
   4166196.836 6                  20713130.281
        37.000
                                  22342124.266
        34.000
                                  22547348.188
        31.500
 19  3  6 20 41 40.0000000  0  6G07G08G09G30G27G28
   4431389.59815                  20253101.641
        35.000
   4680950.56315                  21646492.461
        31.500
   4961597.28915                  21839029.508
        35.000
                                  20710004.914
        31.500
   4670625.20715                  22341839.602
        32.500
   4645344.371 5                  22543024.477
        33.500
 19  3  6 20 41 45.0000000  0  6G07G08G09G30G27G28
   4424753.691 6                  20251838.375
        38.500
   4668806.48815                  21644181.234
        31.500
   4969173.559 5                  21840471.164
        33.000
   4133354.516 6                  20706880.922
        37.750
   4669149.91015                  22341559.750
        35.250
   4622622.766 5                  22538698.758
        33.500
 19  3  6 20 41 50.0000000  0  6G07G08G09G30G27G28
   4418123.973 6                  20250577.328
        38.500
   4656673.008 5                  21641871.945
        31.500
   4976754.762 5                  21841914.508
        34.250
   4116941.363 6                  20703757.125
        38.250
   4667684.770 5                  22341279.492
        34.000
   4599906.996 5                  22534377.281
        32.000
 19  3  6 20 41 55.0000000  0  6G07G08G09G30G27G28
   4411502.336 6                  20249317.367
        38.250
   4644552.99215                  21639564.977
        31.500
   4984342.934 5                  21843357.266
        33.000
   4100536.426 6                  20700634.539
        37.500
   4666233.238 5                  22341004.023
        34.000
   4577198.16415                  22530054.914
        31.500
 19  3  6 20 42  0.0000000  0  4G07G09G30G27
                                  20248058.563
        34.500
   4991939.359 5                  21844803.781
        34.250
                                  20697514.781
        33.250
   4664798.391 5                  22340732.117
        34.500
 19  3  6 20 42  5.0000000  0  6G07G08G09G30G27G28
   4398290.387 5                  20246802.633
        32.000
                                  21634962.352
        29.750
                                  21846250.375
        31.000
                                  20694397.148
        30.250
                                  22340460.375
        31.750
                                  22521418.484
        25.750
 19  3  6 20 42 10.0000000  0  5G07G09G30G27G28
   4391700.383 5                  20245549.617
        35.000
   5007162.37616                  21847700.555
        38.000
   4051374.39116                  20691281.367
        36.750
   4661981.20715                  22340195.727
        33.250
   4509113.801 4                  22517098.555
        29.000
 19  3  6 20 42 15.0000000  0  7G07G08G09G16G30G27G28
   4385119.47047    678052.05253  20244295.3594                   20244298.2034
        43.0004         22.5004
   4596242.95316                  21630372.383
        37.500
   5014784.365 6                  21849149.711
        38.500
   4741736.76615                  24773917.063
        35.000
   4035004.18747   -129840.01154  20688164.1804                   20688171.3164
        42.0004         26.2504
   4660597.015 6                  22339931.117
        40.000
   4486430.738 6                  22512782.117
        37.500
 19  3  6 20 42 20.0000000  0  7G07G08G09G16G30G27G28
   4378543.980 6                  20243045.547
        36.750
                                  21628082.484
        33.000
   5022413.406 5                  21850600.953
        32.250
   4752785.96115                  24776021.398
        32.750
   4018635.465 6                  20685050.063
        36.750
   4659226.152 6                  22339670.570
        36.500
   4463749.828 5                  22508466.203
        32.750
 19  3  6 20 42 25.0000000  0  6G07G08G09G30G27G28
   4371976.44915                  20241794.703
        33.000
                                  21625794.344
        28.000
   5030046.707 4                  21852055.070
        27.250
   4002275.50015                  20681937.109
        32.500
   4657869.000 4                  22339412.992
        29.500
   4441073.79314                  22504151.992
        27.250
 19  3  6 20 42 30.0000000  0  6G07G08G09G30G27G28
   4365420.543 6                  20240548.313
        36.000
                                  21623508.539
        29.750
                                  21853510.047
        30.000
   3985924.766 5                  20678824.555
        35.250
   4656531.148 5                  22339158.570
        33.500
   4418405.820 5                  22499837.766
        31.000
 19  3  6 20 42 35.0000000  0  6G07G08G09G30G27G28
   4358880.574 5                  20239303.156
        35.250
                                  21621228.758
        27.500
                                  21854967.516
        32.000
   3969584.762 6                  20675715.719
        36.250
   4655217.813 5                  22338908.242
        33.250
   4395747.387 5                  22495526.070
        30.500
 19  3  6 20 42 40.0000000  0  6G07G08G09G30G27G28
   4352357.000 6                  20238062.063
        36.000
   4536234.43415                  21618952.594
        32.000
   5053026.58615                  21856428.047
        32.500
   3953262.559 6                  20672609.773
        36.000
   4653924.352 5                  22338661.539
        34.250
   4373105.422 5                  22491218.500
        32.000
 19  3  6 20 42 45.0000000  0  6G07G08G09G30G27G28
   5921269.61716                  20536615.570
        36.000
   6099720.48015                  21916475.211
        34.500
                                  22157683.094
        31.500
   5512375.24615                  20969299.109
        35.000
   6228074.08215                  22638210.875
        31.000
   5925897.54314                  22786704.609
        29.250
 19  3  6 20 42 50.0000000  0  6G07G08G09G30G27G28
   5914771.824 6                  20535379.453
        36.000
   6087808.512 5                  21914209.055
        32.250
   6643835.383 5                  22159147.953
        31.000
   5496067.637 6                  20966195.977
        36.500
   6226826.266 4                  22637974.453
        29.750
   5903267.99215                  22782397.320
        31.500
 19  3  6 20 42 55.0000000  0  6G07G08G09G30G27G28
   5908279.50814                  20534144.117
        29.750
   6075906.00814                  21911943.180
        26.250
   6651538.26615                  22160612.523
        30.500
   5479766.67215                  20963093.945
        31.750
   6225589.102 4                  22637739.492
        28.500
   5880641.12914                  22778091.570
        27.250
 19  3  6 20 43  0.0000000  0  6G07G08G09G30G27G28
   5901801.906 5                  20532912.125
        33.250
                                  21909683.484
        28.500
   6659254.27714                  22162082.117
        29.000
   5463480.930 5                  20959995.367
        35.000
   6224371.75014                  22637508.164
        28.250
   5858028.07014                  22773787.313
        29.500
 19  3  6 20 43  5.0000000  0  6G07G08G09G30G27G28
   5895335.805 6                  20531681.211
        36.250
                                  21907425.391
        29.250
   6666981.613 5                  22163553.398
        32.500
   5447202.738 5                  20956897.781
        35.500
                                  22637280.461
        32.500
                                  22769486.859
        28.500
 19  3  6 20 43 10.0000000  0  4G07G08G09G28
   5888879.78915                  20530452.688
        34.750
   6040311.03515                  21905170.602
        31.750
   6674715.66015                  22165024.922
        31.500
   5812826.63715                  22765187.844
        33.750
 19  3  6 20 43 15.0000000  0  6G07G08G09G30G27G28
   5882440.176 5                  20529225.742
        34.250
                                  21902918.359
        29.250
   6682464.234 5                  22166498.211
        30.750
   5414688.54315                  20950710.148
        33.500
   6220829.02315                  22636834.461
        32.500
   5790242.699 5                  22760891.023
        30.000
 19  3  6 20 43 20.0000000  0  5G07G09G30G27G28
   5876006.73416                  20528002.867
        36.000
   6690221.69915                  22167975.852
        31.000
   5398441.92215                  20947618.500
        35.500
   6219678.90215                  22636615.336
        32.250
   5767664.65615                  22756594.141
        32.250
 19  3  6 20 43 25.0000000  0  3G07G09G30
   5869577.58216                  20526779.047
        38.000
   6697986.51215                  22169452.805
        32.750
                                  20944528.453
        37.000
 19  3  6 20 43 30.0000000  0  2G07G30
                                  20525557.1024                   20525561.1564
        43.2504         18.5004
                                  20941437.805
        43.250
 19  3  6 20 43 35.0000000  0  5G07G08G09G30G28
                                  20524337.461
        31.500
   5981306.98014                  21893941.438
        27.500
   6713543.60214                  22172411.477
        27.250
                                  20938349.7114                   20938357.3324
        30.5004         20.7504
                                  22743712.281
        28.500
 19  3  6 20 43 40.0000000  0  5G07G08G09G30G28
   5850336.426 5                  20523117.367
        31.750
   5969545.277 5                  21891702.445
        31.500
   6721336.14815                  22173894.836
        30.500
   5333516.719 5                  20935262.859
        31.750
   5677430.44114                  22739421.063
        28.500
 19  3  6 20 43 45.0000000  0  6G07G08G09G30G27G28
   5843942.770 5                  20521900.297
        34.000
   5957805.277 5                  21889469.047
        32.500
   6729143.61715                  22175379.797
        30.500
   5317305.703 5                  20932178.266
        34.000
                                  22635550.219
        28.250
   5654896.270 5                  22735133.477
        30.500
 19  3  6 20 43 50.0000000  0  6G07G08G09G30G27G28
   5837566.855 5                  20520688.438
        31.750
   5946092.37115                  21887239.258
        31.000
   6736969.762 4                  22176869.773
        29.000
   5301108.160 5                  20929095.297
        31.500
   6299290.80914                  22635347.531
        29.000
   5632375.582 4                  22730848.281
        29.000
 19  3  6 20 43 55.0000000  0  6G07G08G09G30G27G28
   5831209.04315                  20519477.977
        35.250
   5934403.53914                  21885016.750
        29.250
   6744815.17215                  22178364.070
        30.500
   5284927.895 5                  20926016.742
        34.000
   6298246.05114                  22635148.734
        28.750
   5609873.00414                  22726567.234
        29.500
 19  3  6 20 44  0.0000000  0  5G07G08G09G30G28
   5824864.805 5                  20518269.602
        33.500
   5922736.633 4                  21882797.133
        29.500
   6752669.965 5                  22179856.914
        30.000
                                  20922940.266
        31.750
                                  22722285.727
        28.750
 19  3  6 20 44  5.0000000  0  5G07G08G09G30G28
   5818531.730 6                  20517065.102
        37.500
   5911087.84415                  21880579.711
        34.250
   6760536.87515                  22181355.625
        30.500
   5252598.715 5                  20919864.102
        35.750
   5564890.61714                  22718007.047
        29.500
 19  3  6 20 44 10.0000000  0  5G07G08G09G30G28
   5812214.859 5                  20515861.984
        34.500
   5899464.156 5                  21878369.016
        30.500
   6768414.57014                  22182854.859
        29.750
   5236451.168 5                  20916793.227
        33.000
   5542410.80514                  22713729.500
        28.750
 19  3  6 20 44 15.0000000  0  5G07G08G09G30G28
   5805907.305 5                  20514662.625
        34.500
   5887857.520 5                  21876158.109
        31.750
   6776300.543 5                  22184354.563
        31.250
   5220310.473 5                  20913720.727
        32.500
   5519936.26215                  22709453.711
        30.250
 19  3  6 20 44 20.0000000  0  5G07G08G09G30G28
   5799610.551 6                  20513464.813
        36.500
   5876269.125 5                  21873953.469
        32.500
   6784194.320 5                  22185856.563
        32.000
   5204178.105 5                  20910651.648
        33.250
   5497466.824 4                  22705179.148
        29.750
 19  3  6 20 44 25.0000000  0  5G07G08G09G30G28
   5793327.30515                  20512268.969
        31.750
                                  21871751.500
        29.750
                                  22187360.852
        31.750
   5188058.55115                  20907584.063
        30.500
                                  22700903.141
        31.000
 19  3  6 20 44 30.0000000  0  5G07G08G09G30G28
   5787052.922 5                  20511074.570
        35.250
   5853151.020 5                  21869553.906
        32.750
   6800005.777 4                  22188867.070
        29.500
   5171942.449 5                  20904516.242
        34.000
   5452544.32814                  22696626.922
        29.500
 19  3  6 20 44 35.0000000  0  5G07G08G09G30G28
                                  20509879.641
        33.000
   5841601.039 5                  21867355.578
        32.250
                                  22190369.625
        30.750
   5155823.945 5                  20901449.344
        33.750
                                  22692352.156
        26.750
 19  3  6 20 44 40.0000000  0  5G07G08G09G30G28
   5774506.918 5                  20508687.328
        34.500
   5830069.199 5                  21865162.844
        31.000
                                  22191876.406
        30.250
   5139715.508 5                  20898385.094
        35.000
   5407625.48414                  22688080.000
        27.500
 19  3  6 20 44 45.0000000  0  4G07G08G30G28
   5768252.297 5                  20507497.953
        35.000
   5818557.76215                  21862972.367
        32.000
   5123617.781 5                  20895322.563
        33.500
   5385177.33214                  22683808.078
        27.250
 19  3  6 20 44 50.0000000  0  4G07G08G30G28
   5762006.520 6                  20506309.203
        36.750
   5807060.699 5                  21860783.375
        33.750
   5107528.621 5                  20892259.727
        35.500
   5362739.42214                  22679538.711
        27.500
 19  3  6 20 44 55.0000000  0  4G07G08G30G28
   5755774.973 6                  20505121.805
        37.000
   5795584.512 5                  21858599.930
        33.500
   5091451.980 5                  20889199.680
        35.500
                                  22675270.188
        30.250
 19  3  6 20 45  0.0000000  0  3G07G08G30
   5749552.926 5                  20503939.852
        34.250
   5784126.125 5                  21856418.266
        32.000
   5075382.402 5                  20886141.398
        33.500
 19  3  6 20 45 40.0000000  0  4G07G08G09G30
   5700179.375 6                  20494544.008
        37.000
   5693149.027 5                  21839108.102
        34.500
   6911580.24615                  22210097.500
        34.000
   4947128.94515                  20861737.031
        35.000
 19  3  6 20 45 45.0000000  0  5G07G08G09G30G27
   5694055.793 5                  20493378.180
        35.000
   5681862.102 5                  21836958.664
        34.000
   6919620.37515                  22211627.703
        32.250
   4931131.734 5                  20858692.406
        34.500
   6300670.28515                  22631644.750
        32.250
 19  3  6 20 46 40.0000000  0  1G27
   6301383.35216                  22630525.883
        40.500
 19  3  6 20 46 45.0000000  0  4G07G08G09G27
   6290487.18057   1885351.99754  20479596.9614                   20479599.6724
        43.7504         26.5004
   6293734.85916                  21811469.102
        41.500
   6312134.22316                  22230138.430
        39.000
   6300982.348 6                  22630449.508
        40.250
 19  3  6 20 46 50.0000000  0  7G07G08G09G16G30G27G28
   6284562.70347   1880735.53944  20478469.7734                   20478473.2544
        44.0004         25.5004
   6282725.25846   3321422.96153  21809373.8524                   21809381.1604
        41.5004         22.5004
   6320337.78546   5337130.80953  22231699.9224                   22231705.9654
        39.0004         19.7504
   6315545.52316                  25189854.313
        36.250
   6280804.54316                  20819361.891
        38.250
   6300607.53546   4878794.76653  22630377.7814                   22630384.6094
        40.2504         22.0004
   6272363.05915                  22577525.078
        35.250
 19  3  6 20 46 55.0000000  0  7G07G08G09G16G30G27G28
   6278656.85247   1876133.57044  20477345.3754                   20477350.1524
        44.5004         26.5004
   6271741.07046   3312863.84043  21807283.6724                   21807290.9614
        41.2504         21.7504
   6328558.09046   5343536.23842  22233264.1094                   22233270.4964
        39.2504         17.7504
   6326741.828 6                  25191985.453
        37.750
   6265020.254 6                  20816356.750
        38.500
   6300257.28946   4878521.81643  22630310.4144                   22630318.6454
        40.2504         21.7504
   6250176.813 6                  22573303.133
        36.000
 19  3  6 20 47  0.0000000  0  7G07G08G09G16G30G27G28
   6272767.54347   1871544.49244  20476224.9304                   20476230.3444
        44.5004         25.0004
   6260780.07046   3304322.80543  21805197.0164                   21805205.4844
        40.7504         21.7504
   6336792.99646   5349953.02342  22234831.3524                   22234837.9804
        39.2504         16.7504
   6337944.668 6                  25194117.242
        36.750
   6249251.359 6                  20813356.305
        39.000
   6299929.51646   4878266.41043  22630248.5234                   22630256.5784
        40.5004         21.0004
   6228004.277 5                  22569083.609
        34.500
 19  3  6 20 47  5.0000000  0  7G07G08G09G16G30G27G28
   6266893.30547   1866967.17644  20475106.9304                   20475112.8954
        43.5004         26.2504
   6249840.87146   3295798.76643  21803115.4534                   21803124.3794
        39.5004         22.0004
   6345041.07046   5356380.16442  22236401.0004                   22236408.0354
        38.5004         16.2504
   6349152.527 6                  25196250.227
        36.000
   6233496.434 6                  20810358.641
        37.750
   6299622.75846   4878027.38743  22630190.6414                   22630198.4964
        38.7504         21.5004
   6205844.016 5                  22564866.711
        35.250
 19  3  6 20 47 10.0000000  0  7G07G08G09G16G30G27G28
   6261031.75447   1862399.73444  20473991.4144                   20473997.4224
        44.0004         24.7504
   6238921.19146   3287289.94143  21801037.6024                   21801046.9884
        39.5004         22.2504
   6353299.93846   5362815.64842  22237971.9304                   22237980.0784
        37.7504         16.7504
   6360363.234 5                  25198382.820
        34.750
   6217753.070 6                  20807361.250
        37.500
   6299334.60246   4877802.84843  22630134.8524                   22630144.3284
        38.5004         21.0004
   6183693.645 5                  22560652.141
        34.000
 19  3  6 20 47 15.0000000  0  7G07G08G09G16G30G27G28
   6255181.34047   1857840.97344  20472878.6334                   20472884.3324
        43.2504         24.5004
   6228019.36746   3278795.01643  21798962.8674                   21798972.4734
        39.0004         21.5004
   6361568.02746   5369258.29742  22239545.4694                   22239553.7774
        36.2504         15.5004
   6371574.941 5                  25200515.984
        34.750
   6202019.766 6                  20804368.695
        36.000
   6299063.48846   4877591.59843  22630083.5314                   22630092.8874
        38.2504         20.7504
   6161551.574 5                  22556438.023
        34.250
 19  3  6 20 47 20.0000000  0  7G07G08G09G16G30G27G28
   6249341.54747   1853290.47344  20471766.9844                   20471773.4144
        45.5004         26.0004
   6217134.90246   3270313.59443  21796891.8674                   21796901.8244
        41.5004         21.7504
   6369844.77746   5375707.68442  22241119.7194                   22241128.7154
        39.2504         16.2504
   6382787.223 6                  25202648.844
        37.250
   6186295.918 6                  20801376.664
        39.750
   6298808.87946   4877393.16843  22630034.4694                   22630044.5434
        40.5004         20.5004
   6139417.355 5                  22552224.672
        35.750
 19  3  6 20 47 25.0000000  0  7G07G08G09G16G30G27G28
   6243511.57047   1848747.64544  20470657.8674                   20470664.1604
        44.0004         26.7504
   6206267.02046   3261845.12143  21794823.8204                   21794833.3134
        41.0004         22.5004
   6378129.37146   5382163.16442  22242697.6024                   22242705.4024
        39.2504         16.7504
   6393999.293 6                  25204783.211
        37.500
   6170580.742 6                  20798386.227
        38.750
   6298569.99246   4877207.01243  22629990.0474                   22629999.5204
        40.0004         20.7504
   6117290.117 5                  22548013.578
        35.500
 19  3  6 20 47 30.0000000  0  7G07G08G09G16G30G27G28
   6237691.02047   1844212.14844  20469549.7584                   20469556.6484
        44.5004         25.2504
   6195415.38346   3253389.28943  21792759.4534                   21792768.7424
        41.5004         22.5004
   6386421.41046   5388624.53142  22244274.9534                   22244284.3204
        38.7504         17.2504
   6405210.738 5                  25206916.727
        35.250
   6154873.945 6                  20795396.836
        38.500
   6298346.35546   4877032.76243  22629947.1094                   22629956.9304
        39.0004         21.0004
   6095169.496 5                  22543805.797
        35.750
 19  3  6 20 47 35.0000000  0  7G07G08G09G16G30G27G28
   6231879.40247   1839683.62144  20468443.7734                   20468450.5704
        44.5004         26.5004
   6184579.52346   3244945.76243  21790697.0394                   21790707.3324
        41.2504         22.2504
   6394720.43446   5395091.28142  22245854.8834                   22245863.8834
        39.0004         16.2504
   6416421.172 5                  25209049.359
        35.500
   6139175.035 6                  20792409.945
        38.500
   6298137.62946   4876870.09043  22629907.0704                   22629917.2074
        39.5004         21.0004
   6073055.094 6                  22539598.430
        36.250
 19  3  6 20 47 40.0000000  0  7G07G08G09G16G30G27G28
   6226076.17647   1835161.61744  20467339.9064                   20467346.5004
        45.0004         26.5004
   6173758.73046   3236513.97343  21788637.3204                   21788648.0164
        41.5004         22.7504
   6403025.89146   5401563.05142  22247435.3984                   22247444.2154
        39.7504         16.7504
   6427629.891 6                  25211182.109
        36.250
   6123483.387 6                  20789423.711
        38.250
   6297943.11346   4876718.55143  22629869.7664                   22629880.4534
        39.7504         20.7504
   6050946.270 6                  22535390.906
        36.500
 19  3  6 20 47 45.0000000  0  7G07G08G09G16G30G27G28
   6220281.18847   1830646.03144  20466237.3444                   20466243.5354
        45.0004         27.0004
   6162952.91446   3228093.86743  21786581.6884                   21786592.0354
        41.7504         23.0004
   6411337.53146   5408039.64142  22249017.0784                   22249025.9614
        39.0004         16.7504
   6438836.750 6                  25213315.625
        37.500
   6107798.914 6                  20786439.063
        39.000
   6297762.71946   4876577.98043  22629836.7194                   22629846.3794
        40.5004         20.2504
   6028842.949 5                  22531183.063
        35.000
 19  3  6 20 47 50.0000000  0  7G07G08G09G16G30G27G28
   6214494.49247   1826136.92644  20465135.7274                   20465142.2584
        45.0004         25.0004
   6152162.21546   3219685.53143  21784528.6254                   21784538.3284
        41.0004         22.0004
   6419655.51246   5414521.23842  22250599.7894                   22250609.1954
        39.0004         16.7504
   6450041.809 6                  25215447.852
        38.250
   6092121.602 6                  20783456.406
        40.250
   6297596.44546   4876448.42643  22629804.7274                   22629814.7274
        40.5004         20.2504
   6006745.090 6                  22526978.930
        36.000
 19  3  6 20 47 55.0000000  0  7G07G08G09G16G30G27G28
   6208715.71947   1821633.98843  20464035.8134                   20464042.5824
        44.5004         22.7504
   6141386.31646   3211288.73443  21782477.6484                   21782487.8404
        40.7504         21.5004
   6427979.39846   5421007.29342  22252183.8524                   22252193.4304
        38.2504         17.2504
   6461244.691 6                  25217579.945
        38.000
   6076451.184 6                  20780473.820
        40.250
   6297443.93846   4876329.59443  22629775.5314                   22629786.1524
        39.5004         20.0004
   5984652.359 5                  22522774.617
        35.500
 19  3  6 20 48  0.0000000  0  7G07G08G09G16G30G27G28
   6202944.96947   1817137.30544  20462937.6564                   20462944.4414
        43.7504         25.2504
   6130625.17646   3202903.41843  21780430.2974                   21780440.3014
        39.5004         21.5004
   6436309.23046   5427498.10942  22253768.0554                   22253778.4304
        36.7504         16.2504
   6472445.434 6                  25219711.477
        37.250
   6060787.691 6                  20777493.594
        37.750
   6297305.27746   4876221.54743  22629749.5634                   22629759.7974
        38.5004         20.7504
   5962564.844 5                  22518571.266
        34.500
 19  3  6 20 48  5.0000000  0  7G07G08G09G16G30G27G28
   6197182.51247   1812647.08644  20461841.9304                   20461848.6254
        45.0004         24.2504
   6119879.06646   3194529.82843  21778385.1954                   21778396.0634
        41.2504         22.0004
   6444645.33646   5433993.75842  22255355.1024                   22255364.8364
        39.0004         14.7504
   6483644.348 6                  25221842.063
        38.750
   6045131.383 6                  20774514.656
        39.750
   6297180.72346   4876124.47743  22629725.9924                   22629736.1954
        40.2504         20.7504
   5940482.930 6                  22514370.953
        36.750
 19  3  6 20 48 10.0000000  0  7G07G08G09G16G30G27G28
   6191428.02347   1808163.05944  20460746.0634                   20460753.2894
        43.2504         25.0004
   6109147.62546   3186167.68443  21776343.0944                   21776353.3324
        40.7504         21.5004
   6452987.31646   5440493.96542  22256942.3204                   22256952.3094
        38.7504         15.5004
   6494841.121 6                  25223972.984
        38.000
   6029482.008 6                  20771536.109
        38.500
   6297069.91446   4876038.14843  22629704.3524                   22629714.8754
        38.7504         20.2504
   5918406.133 5                  22510167.859
        35.000
 19  3  6 20 48 15.0000000  0  7G07G08G09G16G30G27G28
   6185681.39847   1803685.18044  20459652.6254                   20459659.3554
        44.7504         26.7504
   6098430.90646   3177816.98443  21774303.6094                   21774314.1684
        41.5004         22.2504
   6461335.12546   5446998.76642  22258530.4064                   22258541.3714
        39.5004         17.2504
   6506035.605 6                  25226102.281
        37.000
   6013839.371 6                  20768558.664
        39.500
   6296972.78946   4875962.46543  22629685.7034                   22629696.2304
        40.0004         20.2504
   5896334.539 5                  22505968.367
        34.000
 19  3  6 20 48 20.0000000  0  7G07G08G09G16G30G27G28
   6179942.42647   1799213.24244  20458560.7664                   20458567.4804
        45.0004         26.5004
   6087728.63346   3169477.53143  21772266.7424                   21772276.9574
        41.0004         22.0004
   6469688.50046   5453507.87142  22260120.0784                   22260130.7974
        40.5004         17.2504
   6517227.676 6                  25228233.375
        37.000
   5998203.484 6                  20765583.094
        38.750
   6296889.10946   4875897.28543  22629670.2034                   22629680.6294
        40.0004         20.7504
   5874267.945 4                  22501769.992
        28.250
 19  3  6 20 48 25.0000000  0  7G07G08G09G16G30G27G28
   6174211.31348   1794747.45745  20457473.2034                   20457477.0554
        48.7504         30.2504
   6077041.00447   3161149.53943  21770235.5474                   21770243.6134
        45.2504         22.7504
   6478047.60547   5460021.47743  22261713.6254                   22261721.7074
        45.0004         19.0004
   6528417.414 6                  25230364.438
        39.750
   5982574.273 6                  20762612.539
        41.250
   6296819.16447   4875842.75843  22629660.1564                   22629667.2854
        45.0004         21.5004
   5852206.34416                  22497576.602
        36.500
 19  3  6 20 48 30.0000000  0  6G07G08G09G16G30G27
   6168488.09447   1790287.83644  20456382.7504                   20456387.8444
        47.0004         26.7504
   6066368.02747   3152832.94944  21768203.8914                   21768212.5664
        45.0004         25.5004
   6486412.52047   5466539.55943  22263304.2034                   22263313.6564
        44.0004         21.0004
   6539604.883 6                  25232493.422
        37.500
   5966951.85515                  20759639.438
        34.250
   6296762.76247   4875798.80943  22629648.0944                   22629656.0434
        42.0004         21.7504
 19  3  6 20 48 35.0000000  0  6G07G08G09G16G30G27
   6162773.00047   1785834.40244  20455294.3524                   20455299.8094
        46.2504         27.7504
   6055710.04347   3144527.94143  21766175.4774                   21766183.6024
        45.5004         22.7504
   6494783.42647   5473062.25843  22264896.6884                   22264906.0274
        43.0004         20.2504
   6550790.301 5                  25234620.266
        34.250
   5951336.547 6                  20756666.313
        41.750
   6296720.26247   4875765.62943  22629638.9224                   22629647.6644
        42.5004         21.2504
 19  3  6 20 48 40.0000000  0  6G07G08G09G16G30G27
   6157065.94547   1781387.41444  20454207.5394                   20454212.9774
        43.5004         26.2504
   6045066.85946   3136234.55143  21764148.7424                   21764157.5044
        41.2504         22.5004
   6503160.29346   5479589.67643  22266489.9844                   22266499.6644
        40.0004         20.0004
   6561973.586 4                  25236748.359
        29.750
   5935728.35545   1074039.02053  20753695.5234                   20753693.7344
        35.7504         21.5004
   6296691.58646   4875743.28543  22629632.6024                   22629642.3484
        39.2504         21.7504
 19  3  6 20 48 45.0000000  0  6G07G08G09G16G30G27
   6151367.17647   1776946.80944  20453124.4924                   20453127.9064
        47.0004         27.2504
   6034438.67647   3127952.87143  21762127.5634                   21762134.6724
        44.0004         22.0004
   6511543.26647   5486121.88743  22268085.9534                   22268094.3984
        43.0004         19.0004
   6573154.816 5                  25238877.125
        33.500
   5920127.18847   1061882.30543  20750727.5474                   20750725.1564
        43.7504         19.2504
   6296676.90246   4875731.86743  22629630.6804                   22629638.5744
        41.7504         21.7504
 19  3  6 20 48 50.0000000  0  7G07G08G09G16G30G27G28
   6145676.57048   1772512.57444  20452041.6254                   20452044.8364
        48.5004         28.0004
   6023825.52047   3119682.95743  21760108.7664                   21760114.9734
        45.5004         21.7504
   6519932.28547   5492658.81643  22269683.0084                   22269690.5944
        43.0004         18.2504
   6584334.242 5                  25241003.813
        32.000
   5904533.434 6                  20747760.680
        39.000
   6296676.19947   4875731.36343  22629629.8204                   22629638.2664
        43.5004         21.5004
   6270835.27015                  22476598.703
        32.750
 19  3  6 20 48 55.0000000  0  7G07G08G09G16G30G27G28
   6139994.64547   1768085.11344  20450959.2344                   20450963.9964
        45.2504         28.0004
   6013227.87147   3111425.01643  21758091.4144                   21758098.2934
        45.0004         22.0004
   6528327.78547   5499200.78543  22271279.8204                   22271288.2704
        42.0004         19.0004
   6595511.895 4                  25243131.695
        28.500
   5888947.03916                  20744792.836
        41.000
   6296689.77046   4875741.96143  22629632.7114                   22629640.3914
        41.0004         21.5004
   6248806.512 5                  22472404.297
        30.500
 19  3  6 20 49  0.0000000  0  7G07G08G09G16G30G27G28
   6134320.90247   1763664.02044  20449879.5634                   20449883.9844
        43.7504         26.0004
   6002645.22747   3103178.78943  21756075.9534                   21756084.3674
        42.0004         22.0004
   6536729.26646   5505747.39843  22272878.8054                   22272887.0204
        38.2504         18.5004
   6606687.719 4                  25245258.625
        27.500
   5873368.00846   1048764.58653  20741830.3914                   20741832.0474
        36.7504         20.2504
   6296717.34446   4875763.41443  22629637.9304                   22629645.0904
        40.0004         20.7504
   6226783.316 5                  22468215.555
        30.250
 19  3  6 20 49  5.0000000  0  5G07G08G09G30G27
                                  20448802.5784                   20448805.6024
        47.0004         30.2504
   5992077.86757   3094944.48053  21754065.6644                   21754072.7344
        44.5004         22.5004
   6545137.14157   5512299.01652  22274478.7734                   22274486.9224
        42.0004         17.7504
                                  20738866.6334                   20738868.8054
        38.5004         17.7504
                                  22629646.5864                   22629649.5984
        43.0004         25.7504
 19  3  6 20 49 10.0000000  0  5G07G08G09G30G27
   6122998.54347   1755194.41044  20447725.4774                   20447729.1454
        46.5004         29.5004
   5981525.53147   3086721.90643  21752058.0634                   21752064.4774
        44.5004         22.5004
   6553550.97646   5518855.17242  22276079.8284                   22276088.1914
        41.0004         16.2504
   5842231.738 6                  20735903.758
        38.250
   6301769.70746   4875826.32843  22629655.9384                   22629661.8714
        40.7504         22.2504
 19  3  6 20 49 15.0000000  0  6G07G08G09G30G27G28
   6117349.87147   1750792.85544  20446650.2664                   20446654.1644
        45.7504         27.7504
   5970988.46147   3078511.22343  21750052.9694                   21750059.7034
        45.0004         22.7504
   6561971.02046   5525416.25042  22277682.0234                   22277690.3714
        40.0004         16.2504
   5826674.65647   1028872.24653  20732943.4694                   20732951.3444
        42.7504         22.0004
   6301839.44546   4875880.66443  22629670.1024                   22629675.7854
        41.0004         22.0004
   6282315.55916                  22455647.219
        37.500
 19  3  6 20 49 20.0000000  0  6G07G08G09G30G27G28
   6111709.52747   1746397.77344  20445577.5394                   20445581.0234
        46.0004         26.5004
   5960466.51247   3070312.28143  21748050.0234                   21748057.3244
        44.2504         22.5004
   6570397.19146   5531982.08242  22279285.8284                   22279294.5354
        39.0004         16.2504
   5811124.84047   1016755.41043  20729984.4534                   20729991.8444
        43.0004         22.2504
   6301923.16046   4875945.86343  22629684.5944                   22629691.9454
        39.7504         21.0004
   6260314.855 6                  22451460.547
        36.500
 19  3  6 20 49 25.0000000  0  6G07G08G09G30G27G28
   6106077.75447   1742009.36744  20444506.0164                   20444509.3634
        46.2504         27.2504
   5949959.86347   3062125.30943  21746050.9774                   21746058.4494
        44.2504         22.5004
   6578829.67646   5538552.92642  22280889.9614                   22280899.1294
        38.5004         13.7504
   5795582.62147   1004644.60943  20727027.0704                   20727033.8164
        43.0004         22.2504
   6302021.12946   4876022.22743  22629705.1644                   22629710.5904
        41.5004         21.0004
   6238320.039 6                  22447276.250
        38.000
 19  3  6 20 49 30.0000000  0  6G07G08G09G30G27G28
   6100455.16447   1737628.12944  20443435.9224                   20443439.4184
        46.5004         26.2504
   5939469.18047   3053950.74643  21744055.5234                   21744061.2624
        45.2504         22.0004
   6587269.12146   5545129.09442  22282496.5784                   22282505.6994
        37.2504         13.7504
   5780048.55947    992540.15643  20724071.5474                   20724077.9694
        42.7504         22.7504
   6302133.94546   4876110.13743  22629725.2034                   22629732.1884
        41.5004         20.0004
   6216331.703 6                  22443090.180
        36.750
 19  3  6 20 49 35.0000000  0  6G07G08G09G30G27G28
   6094841.53547   1733253.87144  20442366.8834                   20442371.4144
        46.0004         26.7504
   5928994.39847   3045788.55543  21742062.2734                   21742067.7154
        45.2504         21.5004
   6595715.316 6                  22284103.836
        37.000
   5764522.45747    980441.88343  20721116.4694                   20721122.8954
        43.0004         22.0004
   6302261.37946   4876209.39843  22629750.1334                   22629756.7424
        41.7504         20.5004
   6194349.695 6                  22438908.008
        37.750
 19  3  6 20 49 40.0000000  0  6G07G08G09G30G27G28
   6089237.00447   1728886.71544  20441300.6414                   20441304.4844
        46.5004         27.0004
   5918535.51247   3037638.77043  21740070.6884                   21740077.8794
        44.2504         21.5004
   6604168.352 6                  22285712.195
        37.250
   5749004.48447    968349.95743  20718163.6644                   20718170.2584
        43.0004         22.0004
   6302403.55146   4876320.21543  22629777.2504                   22629783.6054
        41.5004         20.2504
   6172374.102 6                  22434726.680
        37.750
 19  3  6 20 49 45.0000000  0  6G07G08G09G30G27G28
   6083641.56647   1724526.62944  20440236.4774                   20440239.5864
        47.0004         27.2504
   5908092.53547   3029501.42243  21738084.2274                   21738090.7814
        43.5004         22.5004
   6612628.199 6                  22287321.883
        37.000
   5733494.57047    956264.32443  20715211.8754                   20715219.3204
        42.5004         22.5004
   6302560.47746   4876442.46543  22629807.4144                   22629813.6254
        41.5004         20.5004
   6150404.910 6                  22430544.422
        37.500
 19  3  6 20 49 50.0000000  0  6G07G08G09G30G27G28
   6078055.56347   1720173.89844  20439173.4694                   20439176.6454
        46.7504         26.5004
   5897665.74247   3021376.66043  21736100.1174                   21736106.4734
        44.2504         22.0004
   6621095.172 6                  22288933.445
        36.750
   5717993.11347    944185.25843  20712262.3284                   20712268.8984
        42.5004         22.5004
   6302732.36746   4876576.39543  22629838.6484                   22629846.3674
        39.2504         19.7504
   6128442.453 6                  22426365.703
        37.250
 19  3  6 20 49 55.0000000  0  6G07G08G09G30G27G28
   6072478.78147   1715828.35544  20438111.6724                   20438115.4884
        46.7504         25.2504
   5887255.03147   3013264.39843  21734118.7344                   21734124.9144
        44.5004         22.0004
   6629569.195 6                  22290545.930
        36.000
   5702499.94947    932112.66443  20709313.6254                   20709320.7584
        42.5004         22.7504
   6302919.07046   4876721.93843  22629875.2274                   22629881.7894
        40.5004         19.7504
   6106486.738 6                  22422188.680
        38.000
 19  3  6 20 50  0.0000000  0  6G07G08G09G30G27G28
   6066911.41047   1711490.14544  20437052.4144                   20437056.3404
        47.5004         25.7504
   5876860.62547   3005164.85543  21732140.7974                   21732147.0514
        44.5004         22.0004
   6638050.230 6                  22292160.461
        36.000
   5687015.19947    920046.61343  20706368.0704                   20706374.2934
        43.7504         23.7504
   6303120.94146   4876879.21143  22629913.1644                   22629920.4534
        40.2504         20.0004
   6084537.668 6                  22418010.133
        37.250
 19  3  6 20 50  5.0000000  0  6G07G08G09G30G27G28
   6061353.51648   1707159.31644  20435995.2734                   20435998.9024
        48.0004         26.5004
   5866482.44947   2997077.97343  21730165.6644                   21730172.2774
        44.5004         21.7504
   6646538.422 5                  22293775.000
        35.000
   5671538.92647    907987.19143  20703422.8054                   20703429.2814
        42.0004         22.2504
   6303337.78146   4877048.19543  22629954.8204                   22629962.1214
        40.0004         19.2504
   6062595.449 5                  22413834.969
        35.500
 19  3  6 20 50 10.0000000  0  6G07G08G09G30G27G28
   6055805.05148   1702835.84444  20434939.4384                   20434942.9344
        48.0004         25.5004
   5856120.57447   2989003.77743  21728194.7114                   21728201.0274
        45.5004         22.2504
   6655033.711 5                  22295392.156
        34.500
   5656071.15247    895934.37943  20700478.8204                   20700485.6994
        43.0004         22.0004
   6303569.68046   4877228.90243  22629999.5944                   22630006.0984
        40.5004         20.0004
   6040660.051 6                  22409662.469
        37.500
 19  3  6 20 50 15.0000000  0  6G07G08G09G30G27G28
   6050266.11747   1698519.79744  20433885.3284                   20433888.7504
        47.7504         27.2504
   5845775.10247   2980942.36743  21726225.5864                   21726232.2704
        45.5004         22.0004
   6663536.250 5                  22297009.820
        33.250
   5640611.92247    883888.20743  20697537.2974                   20697543.8954
        43.2504         22.5004
   6303816.72746   4877421.38343  22630046.6724                   22630052.9024
        41.0004         20.2504
   6018731.566 6                  22405488.711
        37.500
 19  3  6 20 50 20.0000000  0  6G07G08G09G30G27G28
   6044736.99647   1694211.34444  20432832.6334                   20432836.8364
        46.2504         25.2504
   5835446.53547   2972894.16843  21724259.9144                   21724266.8204
        42.7504         21.5004
   6672047.023 4                  22298628.133
        28.750
   5625161.03947    871848.51643  20694596.7894                   20694603.8524
        42.0004         21.7504
   6304078.99647   4877625.69143  22630095.9064                   22630102.8714
        43.0004         20.0004
   5996810.305 6                  22401317.133
        37.500
 19  3  6 20 50 25.0000000  0  6G07G08G09G30G27G28
   6039216.96147   1689910.03544  20431782.4144                   20431786.1254
        45.7504         25.0004
   5825133.68447   2964858.17643  21722297.0474                   21722304.4654
        42.5004         20.5004
   6680563.789 4                  22300251.063
        29.500
   5609718.78546    859815.60943  20691658.5084                   20691665.0824
        41.5004         21.5004
   6304356.05547   4877841.60243  22630148.0864                   22630155.6724
        42.2504         19.5004
   5974895.484 6                  22397147.164
        37.500
 19  3  6 20 50 30.0000000  0  6G07G08G09G30G27G28
   6033709.87147   1685618.77744  20430734.5704                   20430737.8984
        45.5004         26.0004
   5814849.68847   2956844.64143  21720341.0084                   21720348.1724
        42.5004         20.2504
                                  22301873.445
        26.250
   5594277.01647    847783.05943  20688719.9924                   20688726.5124
        42.5004         22.0004
   6304658.31347   4878077.17243  22630206.0084                   22630213.2464
        42.5004         20.2504
   5952980.098 6                  22392976.172
        37.250
 19  3  6 20 50 35.0000000  0  5G07G08G30G27G28
                                  20429688.3594                   20429691.8914
        41.5004         23.0004
                                  21718386.7974                   21718393.8594
        38.5004         19.5004
                                  20685782.3834                   20685789.6954
        38.7504         20.5004
                                  22630266.7894                   22630273.2734
        36.5004         19.5004
                                  22388807.602
        36.000
 19  3  6 20 50 40.0000000  0  5G07G08G30G27G28
   6022722.07457   1679108.19155  20428644.4224                   20428642.8134
        46.5004         32.5004
   5794332.96917                  21716437.156
        43.500
   5563416.29717                  20682848.695
        43.000
                                  22630330.273
        42.500
                                  22384641.555
        40.000
 19  3  6 20 50 45.0000000  0  1G07
                                  20427601.102
        37.000
 19  3  6 20 50 55.0000000  0  3G07G30G27
   6297530.39157   1676707.08154  20425525.0234                   20425523.9614
        46.2504         26.5004
                                  20674052.148
        41.250
   6301887.89816                  22630536.930
        40.500
 19  3  6 20 51  0.0000000  0  4G07G08G30G27
   6292076.41057   1672457.46753  20424484.8594                   20424485.2464
        42.0004         22.5004
   6290271.25616                  21708664.750
        40.750
                                  20671124.5474                   20671125.2854
        36.0004         21.5004
   6302274.50416                  22630609.406
        37.500
 19  3  6 20 51 10.0000000  0  2G07G08
                                  20422415.781
        47.500
                                  21704797.7504                   21704793.6094
        44.2504         34.5004
 19  3  6 20 51 20.0000000  0  3G07G08G27
                                  20420349.797
        40.250
                                  21700937.133
        38.000
                                  22630930.0864                   22630936.9224
        38.2504         21.5004
 19  3  6 20 51 25.0000000  0  5G07G08G30G27G28
   6291714.16047   1669072.93053  20419317.8754                   20419321.1844
        46.2504         22.7504
   6280616.820 7                  21699011.602
        42.500
   6289368.34817                  20656492.539
        43.500
   6302765.00447   4878831.64143  22631015.2034                   22631023.5164
        42.2504         21.0004
   6277205.98416                  22347183.570
        38.750
 19  3  6 20 51 30.0000000  0  5G07G08G30G27G28
                                  20418289.672
        45.250
                                  21697091.6724                   21697094.2894
        43.2504         21.5004
                                  20653571.4534                   20653575.6214
        43.0004         20.7504
                                  22631104.2194                   22631113.8204
        42.0004         20.2504
                                  22343026.367
        37.500
 19  3  6 20 51 35.0000000  0  5G07G08G30G27G28
   6280921.14158   1665367.93454  20417265.4614                   20417268.5514
        48.2504         29.2504
   6260443.47357   2922946.49654  21695174.5944                   21695172.4534
        45.5004         28.7504
   6258676.96517                  20650653.484
        44.500
   6303721.34457   4879576.15253  22631199.1564                   22631206.3324
        43.5004         21.5004
   6233533.10216                  22338872.773
        40.000
 19  3  6 20 51 40.0000000  0  5G07G08G30G27G28
   6275542.94148   1661177.07444  20416242.0704                   20416245.3244
        48.5004         26.2504
   6250385.51347   2915736.05754  21693260.0554                   21693262.7504
        45.2504         25.0004
   6243348.49247    812780.89853  20647736.6334                   20647741.9454
        44.5004         21.7504
   6304228.25447   4879971.25443  22631294.9774                   22631302.6294
        42.7504         21.2504
   6211709.109 7                  22334719.633
        42.000
 19  3  6 20 51 45.0000000  0  5G07G08G30G27G28
   6270175.94547   1656994.97344  20415220.5474                   20415224.2034
        47.5004         26.0004
   6240345.07047   2907912.35943  21691348.7274                   21691352.6484
        44.5004         23.0004
   6228030.34047    800844.70743  20644821.5084                   20644828.0664
        43.7504         21.5004
   6304750.07447   4880377.85243  22631394.5704                   22631402.6094
        44.0004         20.7504
   6189894.734 6                  22330567.898
        39.500
