     2.11           OBSERVATION DATA    G (GPS)             RINEX VERSION / TYPE
teqc  2019Feb25     Martin Truffer      20190308 01:06:09UTCPGM / RUN BY / DATE
Linux 2.6.32-573.12.1.x86_64|x86_64|gcc|Linux 64|=+         COMMENT
BIT 2 OF LLI FLAGS DATA COLLECTED UNDER A/S CONDITION       COMMENT
51890662                                                    MARKER NAME
5189                                                        MARKER NUMBER
-Unknown-           -Unknown-                               OBSERVER / AGENCY
0220315189          TRIMBLE 5700        2.30                REC # / TYPE / VERS
-Unknown-           TRM41249.00     NONE                    ANT # / TYPE
 -1793672.6608 -3483923.1032  5018166.9765                  APPROX POSITION XYZ
        0.0530        0.0000        0.0000                  ANTENNA: DELTA H/E/N
     1     1                                                WAVELENGTH FACT L1/2
     7    L1    L2    C1    P1    P2    S1    S2            # / TYPES OF OBSERV
    18                                                      LEAP SECONDS
 SNR is mapped to RINEX snr flag value [0-9]                COMMENT
  L1 & L2: min(max(int(snr_dBHz/6), 0), 9)                  COMMENT
  2019     3     7    18     1   50.0000000     GPS         TIME OF FIRST OBS
                                                            END OF HEADER
 19  3  7 18  1 50.0000000  0  5G07G09G16G23G26
   -229284.60957   -114233.52054  22814772.5944                   22814770.2274
        45.7504         29.7504
   -183078.46957    -91424.90656  20579570.8204                   20579569.6294
        47.7504         38.0004
   -128666.80957    -55156.56253  20730280.8444                   20730277.0434
        42.0004         23.2504
    -97086.27058    -49221.23456  20319071.9774                   20319066.2154
        48.7504         37.0004
    -26117.94157    -11063.27354  21748572.6644                   21748572.8874
        43.5004         26.0004
 19  3  7 18  1 55.0000000  0  5G07G09G16G23G26
   -255281.29747   -134490.66044  22809825.2584                   22809823.4774
        44.7504         29.0004
   -203740.68448   -107525.33246  20575639.8674                   20575637.9184
        48.0004         38.0004
   -143239.37147    -66511.80943  20727507.9384                   20727504.1844
        43.0004         22.5004
   -108127.93048    -57825.13746  20316970.2034                   20316965.0274
        48.5004         37.0004
    -29140.42247    -13418.44944  21747997.7584                   21747997.5164
        42.7504         26.2504
 19  3  7 18  2  0.0000000  0  5G07G09G16G23G26
   -281260.07047   -154733.84444  22804882.7894                   22804879.5864
        46.0004         28.0004
   -224379.78547   -123607.73846  20571711.9534                   20571710.3164
        47.7504         37.0004
   -157780.38346    -77842.45743  20724740.6484                   20724736.7854
        41.5004         23.2504
   -119144.86748    -66409.75046  20314874.2114                   20314868.5434
        48.0004         36.2504
    -32135.67246    -15752.42243  21747427.8204                   21747427.6334
        41.0004         23.7504
 19  3  7 18  2  5.0000000  0  5G07G09G16G23G26
   -307216.46147   -174959.60244  22799944.3134                   22799940.4414
        47.5004         29.2504
   -244991.27048   -139668.66846  20567790.3054                   20567788.4344
        48.2504         37.7504
   -172285.48847    -89145.19944  20721980.5394                   20721976.6914
        44.7504         29.0004
   -130132.60948    -74971.63345  20312783.4844                   20312777.8054
        48.2504         35.5004
    -35099.12146    -18061.63343  21746862.9454                   21746864.0124
        41.0004         22.5004
 19  3  7 18  2 10.0000000  0  5G07G09G16G23G26
   -333147.34047   -195165.43744  22795009.5234                   22795005.7934
        46.7504         28.7504
   -265571.97347   -155705.57046  20563873.0554                   20563871.2894
        47.7504         37.7504
   -186751.35947   -100417.29344  20719227.5234                   20719223.7664
        45.2504         29.2504
   -141087.95348    -83508.27046  20310698.4144                   20310692.5164
        48.5004         36.2504
    -38027.97346    -20343.82844  21746305.0864                   21746306.3364
        40.5004         24.0004
 19  3  7 18  2 15.0000000  0  5G07G09G16G23G26
   -359050.31247   -215349.61344  22790079.8674                   22790076.1954
        45.0004         26.5004
   -286119.53947   -171716.66046  20559962.5164                   20559961.7034
        47.2504         38.0004
   -201175.69147   -111657.02344  20716482.5784                   20716479.1414
        44.7504         29.5004
   -152008.61748    -92017.86746  20308620.3204                   20308614.7424
        48.0004         36.5004
    -40919.71946    -22597.14143  21745755.7034                   21745755.9494
        40.7504         23.2504
 19  3  7 18  2 20.0000000  0  5G07G09G16G23G26
   -384923.56647   -235510.55544  22785155.9774                   22785153.4774
        45.5004         29.0004
   -306632.15648   -187700.51246  20556059.8834                   20556058.3014
        48.2504         37.7504
   -215556.68447   -122863.01244  20713746.3524                   20713742.1994
        43.5004         27.2504
   -162892.77047   -100499.03545  20306549.4384                   20306543.7074
        47.5004         35.2504
    -43772.53946    -24820.10543  21745211.9614                   21745213.1214
        40.7504         22.5004
 19  3  7 18  2 25.0000000  0  5G07G09G16G23G26
   -410765.52747   -255647.14144  22780239.4064                   22780235.5044
        46.7504         27.5004
   -327108.27748   -203655.93046  20552163.6644                   20552161.4614
        48.0004         37.5004
   -229892.82847   -134034.01244  20711018.4144                   20711013.8794
        46.0004         28.0004
   -173738.81648   -108950.50445  20304485.5234                   20304479.4064
        48.7504         35.2504
    -46584.98846    -27011.64843  21744676.5314                   21744678.2274
        41.5004         22.0004
 19  3  7 18  2 30.0000000  0  5G07G09G16G23G26
   -436575.55947   -275758.86744  22775327.5864                   22775324.1954
        46.5004         28.5004
   -347547.24648   -219582.41446  20548274.2734                   20548272.5314
        48.0004         37.0004
   -244183.39847   -145169.53144  20708299.0004                   20708295.0234
        43.2504         26.0004
   -184546.15248   -117371.81646  20302428.3134                   20302422.9454
        48.5004         36.2504
    -49356.43046    -29171.18443  21744150.1484                   21744150.9494
        41.5004         22.7504
 19  3  7 18  2 35.0000000  0  5G07G09G16G23G26
   -462352.77347   -295845.01244  22770420.8364                   22770419.0004
        44.0004         28.7504
   -367948.12548   -235479.20746  20544391.9844                   20544390.1914
        48.0004         37.7504
   -258427.54347   -156268.87544  20705588.1484                   20705583.9924
        42.5004         25.2504
   -195313.86347   -125762.24646  20300379.5234                   20300373.6454
        47.7504         36.5004
    -52085.70747    -31297.92644  21743630.8204                   21743631.5124
        42.0004         24.2504
 19  3  7 18  2 40.0000000  0  5G07G09G16G23G26
   -488096.32047   -315904.88744  22765522.7194                   22765519.7934
        46.0004         26.7504
   -388310.10547   -251345.68046  20540516.8364                   20540515.5354
        47.5004         37.5004
   -272624.46147   -167331.39544  20702886.4774                   20702882.7384
        43.7504         26.5004
   -206041.16447   -134121.17245  20298338.5004                   20298332.8524
        47.5004         35.7504
    -54772.21546    -33391.29344  21743119.7664                   21743119.6954
        41.7504         24.5004
 19  3  7 18  2 45.0000000  0  5G07G09G16G23G26
   -513806.25447   -335938.59844  22760630.5004                   22760627.4454
        46.5004         28.2504
   -408633.14147   -267181.82446  20536649.5314                   20536648.0984
        47.7504         37.5004
   -286774.05547   -178357.02344  20700193.7424                   20700190.3094
        43.2504         24.5004
   -216727.96948   -142448.55946  20296304.7664                   20296299.1094
        48.0004         36.5004
    -57415.91447    -35451.31244  21742616.7664                   21742616.8914
        42.0004         25.0004
 19  3  7 18  2 50.0000000  0  5G07G09G16G23G26
   -539481.85947   -355945.55944  22755743.5554                   22755741.3524
        44.5004         27.7504
   -428916.65247   -282987.11746  20532789.2504                   20532788.2234
        47.5004         37.0004
   -300875.83647   -189345.44544  20697510.6334                   20697506.5634
        44.5004         27.0004
   -227373.67648   -150743.88745  20294278.9774                   20294273.1374
        48.0004         34.2504
    -60016.22346    -37477.51244  21742122.7344                   21742122.2344
        41.5004         24.5004
 19  3  7 18  2 55.0000000  0  5G07G09G16G23G26
   -565123.37547   -375925.95344  22750864.5704                   22750862.0274
        45.5004         28.0004
   -449160.83647   -298761.82846  20528936.1954                   20528936.0434
        46.5004         37.0004
   -314929.87547   -200296.63744  20694836.3444                   20694832.0594
        43.0004         26.5004
   -237978.47348   -159007.37545  20292261.1094                   20292254.9884
        48.0004         34.2504
    -62573.27747    -39470.03144  21741636.0084                   21741635.6764
        43.0004         24.0004
 19  3  7 18  3  0.0000000  0  5G07G09G16G23G26
   -590730.90247   -395879.88344  22745991.7194                   22745989.4654
        45.7504         28.0004
   -469365.73847   -314505.93046  20525091.7194                   20525091.2734
        47.0004         37.2504
   -328936.33647   -211210.76244  20692170.4534                   20692167.0274
        42.2504         25.5004
   -248542.46547   -167239.08246  20290250.7814                   20290245.1054
        47.5004         36.2504
    -65087.28546    -41429.00844  21741157.0474                   21741157.3134
        41.5004         24.7504
 19  3  7 18  3  5.0000000  0  5G07G09G16G23G26
   -616304.24247   -415807.11744  22741125.6954                   22741122.9924
        46.2504         28.7504
   -489531.17247   -330219.23046  20521254.3444                   20521254.1334
        47.2504         37.2504
   -342895.01647   -222087.67244  20689514.2974                   20689510.6334
        44.5004         28.7504
   -259065.48448   -175438.81645  20288248.0004                   20288242.3914
        48.2504         35.0004
    -67558.02747    -43354.22344  21740687.2814                   21740686.9924
        42.7504         25.2504
 19  3  7 18  3 10.0000000  0  5G07G09G16G23G26
   -641843.81247   -435708.09444  22736265.7424                   22736262.2774
        46.5004         28.5004
   -509657.57847   -345902.14846  20517425.1884                   20517424.1174
        47.5004         37.0004
   -356806.36747   -232927.68744  20686867.6954                   20686863.5204
        44.5004         27.5004
   -269547.94148   -183606.96945  20286253.4064                   20286248.0904
        48.2504         35.2504
    -69985.91047    -45246.10544  21740225.7114                   21740225.2584
        42.7504         25.0004
 19  3  7 18  3 15.0000000  0  5G07G09G16G23G26
   -667349.49247   -455582.66044  22731411.6724                   22731409.1484
        46.0004         29.0004
   -529744.80147   -361554.52746  20513601.9304                   20513601.3954
        47.7504         37.0004
   -370670.17247   -243730.65644  20684229.1094                   20684225.3134
        44.7504         27.7504
   -279989.73448   -191743.44145  20284266.3914                   20284260.9774
        48.0004         35.0004
    -72370.85247    -47104.50044  21739771.2584                   21739771.2544
        43.2504         26.0004
 19  3  7 18  3 20.0000000  0  5G07G09G16G23G26
   -692821.61747   -475431.04744  22726565.8364                   22726562.2624
        47.5004         28.2504
   -549793.17248   -377176.63346  20509787.8674                   20509786.5904
        48.0004         37.5004
   -384486.82847   -254496.88744  20681599.9924                   20681596.2034
        44.7504         27.7504
   -290391.12547   -199848.43045  20282287.1174                   20282281.5864
        47.7504         35.2504
    -74713.13747    -48929.67244  21739325.3364                   21739325.4344
        43.5004         25.2504
 19  3  7 18  3 25.0000000  0  5G07G09G16G23G26
   -718260.35547   -495253.41444  22721725.2894                   22721721.5084
        47.0004         26.5004
   -569802.87948   -392768.59846  20505980.2424                   20505978.4844
        48.0004         36.0004
   -398256.51647   -265226.48844  20678979.6174                   20678975.8484
        43.7504         25.7504
   -300752.36747   -207922.10945  20280315.6724                   20280309.9064
        47.5004         33.5004
    -77013.00447    -50721.77044  21738887.4614                   21738888.1644
        43.2504         26.0004
 19  3  7 18  3 30.0000000  0  5G07G09G16G23G26
   -743665.86347   -515049.91044  22716891.1564                   22716886.8634
        47.2504         26.5004
   -589774.07448   -408330.57045  20502179.7344                   20502178.3094
        48.0004         35.5004
   -411979.40647   -275919.66044  20676368.3914                   20676364.4144
        44.5004         25.2504
   -311073.58247   -215964.62145  20278351.3914                   20278345.5554
        47.7504         33.5004
    -79270.66047    -52480.97344  21738457.6094                   21738458.7194
        43.5004         25.0004
 19  3  7 18  3 35.0000000  0  5G07G09G16G23G26
    806386.82847    692783.34844  23011855.3054                   23011851.7704
        46.0004         26.2504
    965717.14148    803740.50446  20798179.7974                   20798178.3754
        48.0004         36.0004
   1149767.19547    941025.73844  20973558.6954                   20973554.9774
        43.7504         25.2504
   1254067.21547   1003625.61345  20576187.6414                   20576182.2194
        47.5004         33.2504
   1493934.28947   1173392.99644  22037829.2424                   22037829.8754
        43.7504         25.5004
 19  3  7 18  3 40.0000000  0  5G07G09G16G23G26
    781047.23848    673038.24244  23007034.1724                   23007030.4924
        48.0004         29.5004
    945822.47747    788238.16846  20794394.5704                   20794392.6684
        47.5004         36.2504
   1136137.43447    930405.15244  20970965.4144                   20970961.5004
        43.2504         26.2504
   1243825.54347    995645.09845  20574238.8364                   20574233.0394
        47.5004         34.7504
   1491760.66447   1171699.27743  22037415.0554                   22037415.8244
        42.5004         23.7504
 19  3  7 18  3 45.0000000  0  5G07G09G16G23G26
    755740.43447    653318.64144  23002217.6804                   23002214.0664
        47.5004         28.7504
    925965.87147    772765.48046  20790614.9694                   20790613.8324
        47.0004         36.5004
   1122554.03947    919820.68044  20968380.4144                   20968376.5824
        43.2504         25.7504
   1233623.39847    987695.35545  20572297.6644                   20572291.6134
        47.7504         34.5004
   1489628.68447   1170037.96143  22037010.0234                   22037010.2624
        42.5004         23.5004
 19  3  7 18  3 50.0000000  0  5G07G09G16G23G26
    730465.64147    633624.02344  22997408.1804                   22997404.2584
        47.2504         29.2504
    906146.63747    757321.93046  20786844.8834                   20786842.3094
        47.7504         36.5004
   1109016.27347    909271.77744  20965804.2584                   20965800.3554
        43.5004         26.0004
   1223460.10247    979775.91045  20570363.6564                   20570357.7154
        47.5004         34.5004
   1487537.77347   1168408.69543  22036611.7194                   22036612.1604
        42.5004         23.5004
 19  3  7 18  3 55.0000000  0  5G07G09G16G23G26
    705222.57047    613954.06644  22992602.4924                   22992600.7154
        44.5004         27.7504
    886364.40247    741907.18046  20783079.4924                   20783078.3204
        47.5004         36.7504
   1095523.78147    898758.13744  20963236.4614                   20963232.3674
        43.0004         25.5004
   1213335.26248    971886.41045  20568436.5234                   20568431.1914
        48.0004         35.0004
   1485487.50047   1166811.07843  22036222.0704                   22036222.3014
        42.7504         23.7504
 19  3  7 18  4  0.0000000  0  5G07G09G16G23G26
    680010.81347    594308.53944  22987804.9454                   22987803.0634
        46.0004         29.2504
    866618.76647    726520.98446  20779322.3204                   20779320.6374
        47.7504         37.0004
   1082076.19147    888279.49244  20960677.7194                   20960673.5864
        43.2504         25.7504
   1203248.51247    964026.59445  20566517.1724                   20566511.6134
        47.7504         34.5004
   1483477.48047   1165244.82844  22035838.9144                   22035839.5474
        42.0004         24.0004
 19  3  7 18  4  5.0000000  0  5G07G09G16G23G26
    654830.40647    574687.43444  22983013.2114                   22983011.6484
        45.2504         26.5004
    846909.77348    711163.31346  20775572.3984                   20775570.0704
        48.2504         36.7504
   1068673.53947    877835.87944  20958127.5234                   20958123.2854
        43.7504         24.2504
   1193199.91448    956196.51646  20564605.5474                   20564599.3204
        48.5004         36.0004
   1481507.77047   1163709.94144  22035464.7664                   22035464.6764
        43.0004         24.0004
 19  3  7 18  4 10.0000000  0  5G07G09G16G23G26
    629680.32047    555090.02044  22978228.9614                   22978225.5044
        47.5004         26.5004
    827236.48047    695833.48046  20771828.3284                   20771825.9924
        47.7504         36.0004
   1055314.75047    867426.43843  20955584.8984                   20955580.8714
        42.7504         23.5004
   1183188.43048    948395.37145  20562700.1094                   20562694.1484
        48.0004         34.2504
   1479577.30547   1162205.71544  22035097.0394                   22035097.3054
        42.0004         25.0004
 19  3  7 18  4 15.0000000  0  5G07G09G16G23G26
    604560.66047    535516.25444  22973449.2894                   22973445.3674
        46.5004         27.7504
    807598.91447    680531.48846  20768091.5394                   20768089.3594
        47.5004         36.0004
   1042000.02346    857051.29744  20953051.5634                   20953047.6024
        41.7504         29.5004
   1173214.12547    940623.16845  20560801.8834                   20560796.4614
        46.7504         34.0004
   1477686.40246   1160732.27043  22034736.7114                   22034737.5434
        39.5004         21.7504
 19  3  7 18  4 20.0000000  0  5G07G09G16G23G26
    579471.21147    515966.06644  22968674.3674                   22968671.0004
        46.2504         28.0004
    787996.91047    665257.18846  20764360.6174                   20764358.9454
        47.7504         37.0004
   1028728.90647    846710.19945  20950525.7584                   20950522.0274
        45.5004         30.0004
   1163276.86748    932879.84845  20558910.9924                   20558905.0314
        48.2504         35.0004
   1475834.27346   1159289.01643  22034383.4064                   22034384.6724
        39.7504         21.2504
 19  3  7 18  4 25.0000000  0  5G07G09G16G23G26
    554411.87948    496439.27744  22963906.0394                   22963902.0314
        48.0004         28.5004
    768430.28947    650010.47346  20760637.3204                   20760635.8324
        47.5004         36.7504
   1015501.52347    836403.11744  20948009.0004                   20948004.8244
        43.0004         25.0004
   1153376.46547    925165.25845  20557026.9384                   20557021.5904
        47.7504         35.0004
   1474020.92647   1157876.06343  22034039.6024                   22034039.3984
        42.5004         23.0004
 19  3  7 18  4 30.0000000  0  5G07G09G16G23G26
    529382.30547    476935.74644  22959142.6884                   22959139.2934
        46.7504         28.5004
    748898.76247    634791.10546  20756920.8204                   20756919.1844
        47.7504         36.5004
   1002317.45347    826129.83644  20945499.9144                   20945496.0864
        43.5004         24.5004
   1143512.56647    917479.11345  20555149.9614                   20555144.2194
        47.5004         34.5004
   1472246.38346   1156493.30944  22033702.1254                   22033702.2194
        41.5004         25.2504
 19  3  7 18  4 35.0000000  0  5G07G09G16G23G26
    504381.98847    457454.94544  22954385.0944                   22954382.4224
        46.2504         28.0004
    729401.81648    619598.65246  20753210.2814                   20753209.1684
        48.2504         37.2504
    989176.18447    815889.87144  20942999.0634                   20942995.6604
        43.2504         25.5004
   1133684.68047    909820.99245  20553279.7194                   20553274.3364
        47.5004         35.0004
   1470509.95747   1155140.22744  22033371.6564                   22033371.5784
        42.5004         26.5004
 19  3  7 18  4 40.0000000  0  5G07G09G16G23G26
    479410.73447    437996.81344  22949631.8594                   22949630.4264
        44.5004         26.7504
    709939.23848    604433.02046  20749506.9064                   20749505.5004
        48.0004         36.5004
    976077.53947    805683.14143  20940506.7584                   20940502.4654
        42.5004         23.7504
   1123892.63747    902190.82845  20551416.4224                   20551410.4304
        47.5004         34.2504
   1468811.44547   1153816.70744  22033048.6094                   22033048.5744
        42.5004         25.0004
 19  3  7 18  4 45.0000000  0  5G07G09G16G23G26
    454468.20747    418561.10244  22944886.8054                   22944883.9414
        46.5004         27.2504
    690510.71948    589293.90646  20745810.0634                   20745808.0744
        48.0004         36.5004
    963021.12147    795509.30144  20938022.5314                   20938018.2974
        42.5004         25.5004
   1114136.06647    894588.30945  20549559.8204                   20549554.1134
        47.7504         34.5004
   1467150.41847   1152522.40644  22032733.2274                   22032732.3524
        42.5004         25.5004
 19  3  7 18  4 50.0000000  0  5G07G09G16G23G26
    429553.80947    399147.29344  22940146.4534                   22940142.8164
        47.5004         27.0004
    671115.67248    574180.88746  20742118.7194                   20742117.3284
        48.2504         37.0004
    950006.38347    785367.95344  20935545.7894                   20935541.7424
        43.0004         25.5004
   1104414.40247    887012.98445  20547709.6954                   20547704.2344
        47.5004         34.7504
   1465526.33647   1151256.87144  22032424.2734                   22032423.4774
        42.5004         24.5004
 19  3  7 18  4 55.0000000  0  5G07G09G16G23G26
    404667.36347    379755.29344  22935409.9064                   22935406.6804
        46.5004         28.0004
    651754.00048    559093.88746  20738435.1094                   20738433.3164
        48.2504         36.5004
    937033.21147    775258.98444  20933076.4614                   20933072.8054
        43.2504         25.5004
   1094727.52347    879464.77345  20545866.1804                   20545860.7304
        47.5004         34.2504
   1463939.04746   1150020.03944  22032121.2344                   22032121.3484
        41.7504         24.5004
 19  3  7 18  5  0.0000000  0  5G07G09G16G23G26
    379808.94947    360385.10944  22930680.8834                   22930676.1954
        47.5004         27.5004
    632425.68848    544032.84046  20734755.9694                   20734755.1134
        48.0004         36.2504
    924101.60947    765182.39844  20930616.2974                   20930612.0744
        43.0004         24.0004
   1085075.45347    871943.66845  20544029.6644                   20544024.0474
        47.5004         34.5004
   1462388.59847   1148811.88344  22031826.4064                   22031826.3984
        42.5004         25.0004
 19  3  7 18  5  5.0000000  0  5G07G09G16G23G26
    354977.84447    341036.17644  22925953.6804                   22925951.5354
        46.0004         27.0004
    613130.03148    528997.27046  20731085.1094                   20731083.0394
        48.2504         36.7504
    911210.80147    755137.62544  20928162.9614                   20928159.2194
        42.5004         25.2504
   1075457.41847    864449.09445  20542199.1724                   20542193.7734
        47.0004         34.5004
   1460874.17247   1147631.81344  22031537.9064                   22031538.1294
        42.2504         24.5004
 19  3  7 18  5 10.0000000  0  5G07G09G16G23G26
    330173.88347    321708.45344  22921234.5944                   22921231.1254
        46.0004         26.2504
    593866.93047    513987.05545  20727418.5554                   20727417.5084
        47.2504         35.7504
    898360.76247    745124.60544  20925717.6334                   20925713.8634
        42.2504         24.5004
   1065873.33647    856980.98045  20540375.5394                   20540369.5864
        47.2504         34.0004
   1459395.73846   1146479.78943  22031255.9614                   22031256.8984
        41.2504         22.0004
 19  3  7 18  5 15.0000000  0  5G07G09G16G23G26
    305397.20347    302401.96544  22916520.4304                   22916516.1914
        47.5004         27.5004
    574636.36747    499002.19146  20723759.1094                   20723757.6054
        47.7504         36.2504
    885551.43847    735143.28944  20923280.4774                   20923276.6374
        44.5004         27.0004
   1056323.23448    849539.32845  20538558.4844                   20538552.3594
        48.0004         34.5004
   1457953.16847   1145355.69543  22030982.7504                   22030982.4454
        42.7504         22.0004
 19  3  7 18  5 20.0000000  0  5G07G09G16G23G26
    280646.60547    283115.81644  22911810.6484                   22911806.2894
        47.2504         27.0004
    555437.31648    484041.89146  20720105.9144                   20720104.5314
        48.2504         36.0004
    872781.78547    725192.92244  20920850.2584                   20920846.1604
        43.5004         25.0004
   1046806.00848    842123.30545  20536747.0084                   20536741.4844
        48.2504         35.2504
   1456545.56646   1144258.86743  22030714.0634                   22030714.4964
        41.0004         21.0004
 19  3  7 18  5 25.0000000  0  5G07G09G16G23G26
    255922.75847    263850.47344  22907105.2274                   22907101.8284
        45.7504         26.7504
    536270.35247    469106.63346  20716458.1334                   20716456.8914
        47.7504         36.0004
    860052.42247    715273.98843  20918427.7114                   20918424.1764
        42.5004         22.5004
   1037322.16047    834733.32845  20534942.5314                   20534936.7344
        47.7504         33.5004
   1455173.11347   1143189.43443  22030452.4454                   22030453.1684
        42.5004         21.2504
 19  3  7 18  5 30.0000000  0  5G07G09G16G23G26
    231225.43447    244605.82444  22902405.5864                   22902401.8204
        47.2504         28.5004
    517135.30147    454196.17246  20712816.7734                   20712815.4734
        47.7504         36.0004
    847362.97347    705386.07843  20916013.2584                   20916009.3484
        43.5004         22.5004
   1027871.76248    827369.36345  20533144.5944                   20533138.3524
        48.5004         34.5004
   1453836.37946   1142147.77043  22030198.5634                   22030198.8244
        37.2504         22.0004
 19  3  7 18  5 35.0000000  0  5G07G09G16G23G26
    206553.33647    225380.80544  22897710.5554                   22897706.9494
        47.0004         28.2504
    498030.82447    439309.57046  20709181.0634                   20709180.2894
        47.2504         36.0004
    834712.32847    695528.40645  20913605.8914                   20913602.0234
        46.2504         30.0004
   1018453.26248    820030.27745  20531351.8364                   20531346.4614
        48.0004         34.0004
   1452533.02046   1141132.22743  22029950.4614                   22029950.6954
        39.2504         21.0004
 19  3  7 18  5 40.0000000  0  5G07G09G16G23G26
    181906.00847    206175.13744  22893021.2424                   22893016.4024
        47.2504         28.2504
    478956.52348    424446.48046  20705552.4534                   20705550.9964
        48.2504         37.0004
    822100.02047    685700.65244  20911205.7664                   20911201.8164
        44.2504         25.7504
   1009066.32048    812715.79345  20529565.9614                   20529559.9224
        48.0004         34.0004
   1451263.33247   1140142.78545  22029708.7734                   22029708.9774
        46.7504         33.2504
 19  3  7 18  5 45.0000000  0  5G07G09G16G23G26
    157284.64147    186989.61344  22888334.0554                   22888331.5434
        45.7504         28.5004
    459913.51648    409607.77046  20701928.5164                   20701926.7774
        48.2504         36.5004
    809527.08647    675903.55145  20908813.4774                   20908809.2154
        46.5004         31.2504
    999712.05148    805426.73445  20527785.7424                   20527780.0084
        48.0004         34.2504
   1450028.21947   1139180.40645  22029473.2974                   22029474.4884
        45.2504         32.5004
 19  3  7 18  5 50.0000000  0  5G07G09G16G23G26
    132688.62947    167823.93444  22883653.7344                   22883651.4804
        46.5004         29.0004
    440901.28548    394793.04346  20698310.7734                   20698308.8634
        48.5004         36.5004
    796993.09847    666136.81345  20906428.3364                   20906424.7424
        46.5004         31.2504
    990389.88748    798162.71145  20526011.7664                   20526005.5434
        48.2504         34.2504
   1448827.11347   1138244.46145  22029245.8054                   22029245.7464
        45.7504         33.0004
 19  3  7 18  5 55.0000000  0  5G07G09G16G23G26
    108118.12147    148678.09044  22878979.7664                   22878975.0164
        47.7504         27.7504
    421919.91848    380002.37546  20694699.5004                   20694697.1644
        48.7504         36.7504
    784498.15647    656400.48845  20904050.6724                   20904046.5124
        46.5004         31.2504
    981100.00848    790923.84845  20524244.1414                   20524237.7774
        48.5004         34.0004
   1447660.15647   1137335.13345  22029023.1724                   22029023.3674
        46.0004         32.5004
 19  3  7 18  6  0.0000000  0  5G07G09G16G23G26
     83572.52047    129551.68044  22874308.7194                   22874304.2304
        47.2504         28.5004
    402968.86348    365235.31646  20691093.0864                   20691090.9844
        48.7504         36.7504
    772041.62147    646694.09845  20901680.0084                   20901676.0394
        46.0004         31.2504
    971841.80548    783709.66445  20522481.9454                   20522475.7274
        48.2504         34.5004
   1446526.73447   1136451.94545  22028807.1884                   22028807.9804
        45.5004         32.5004
 19  3  7 18  6  5.0000000  0  5G07G09G16G23G26
     59051.79747    110444.58644  22869641.5864                   22869638.1134
        46.5004         28.7504
    384048.06348    350491.83246  20687492.5234                   20687490.2584
        48.5004         36.7504
    759623.42647    637017.57845  20899317.2274                   20899312.8054
        46.0004         30.5004
    962615.17248    776520.06345  20520726.5784                   20520720.3754
        48.0004         34.0004
   1445426.75447   1135594.80945  22028598.1564                   22028598.1914
        45.5004         32.5004
 19  3  7 18  6 10.0000000  0  5G07G09G16G23G26
     34555.20747     91356.35244  22864980.1254                   22864976.5704
        47.0004         27.2504
    365156.80148    335771.36746  20683897.1724                   20683895.2234
        48.5004         36.7504
    747242.86347    627370.39545  20896960.8674                   20896956.7664
        45.5004         30.0004
    953419.39148    769354.53145  20518976.6024                   20518970.2304
        48.2504         34.0004
   1444359.48447   1134763.17645  22028395.5234                   22028395.1484
        45.7504         33.0004
 19  3  7 18  6 15.0000000  0  5G07G09G16G23G26
     10082.87547     72287.03144  22860323.8364                   22860319.2194
        46.5004         27.0004
    346295.23848    321074.03146  20680308.1334                   20680306.1134
        48.2504         36.7504
    734900.11347    617752.65245  20894612.6254                   20894608.3164
        45.7504         30.7504
    944254.67248    762213.18845  20517232.5084                   20517226.3914
        48.5004         33.7504
   1443325.11347   1133957.16445  22028198.5704                   22028198.7234
        46.0004         32.5004
 19  3  7 18  6 20.0000000  0  5G07G09G16G23G26
    -14365.22347     53236.52344  22855669.9694                   22855667.7074
        45.7504         27.5004
    327463.28148    306399.79346  20676724.6724                   20676722.4964
        48.5004         37.0004
    722595.04747    608164.28945  20892270.8054                   20892266.8284
        47.0004         31.5004
    935120.82048    755095.90645  20515494.5164                   20515488.5864
        48.0004         33.5004
   1442323.44947   1133176.64545  22028007.6954                   22028007.8634
        46.0004         32.0004
 19  3  7 18  6 25.0000000  0  5G07G09G16G23G26
    -38789.53547     34204.64544  22851023.4454                   22851019.6564
        47.0004         28.7504
    308660.54348    291748.29346  20673145.9534                   20673144.4654
        48.0004         37.0004
    710327.31647    598605.02045  20889936.2424                   20889932.3014
        47.0004         31.5004
    926017.57048    748002.44145  20513762.2344                   20513756.0824
        48.0004         34.7504
   1441354.19547   1132421.36745  22027823.6644                   22027823.2274
        45.5004         32.0004
 19  3  7 18  6 30.0000000  0  5G07G09G16G23G26
    -63190.52047     15190.87944  22846379.8754                   22846376.3364
        47.0004         28.5004
    289886.53948    277119.19946  20669574.0084                   20669571.8014
        48.0004         36.7504
    698096.26647    589074.33645  20887608.6414                   20887604.3674
        46.0004         30.0004
    916944.36748    740932.41045  20512035.7734                   20512029.6994
        48.5004         34.5004
   1440416.75447   1131690.90245  22027645.2344                   22027644.8204
        46.0004         31.7504
 19  3  7 18  6 35.0000000  0  5G07G09G16G23G26
    -87567.96547     -3804.48844  22841741.5084                   22841737.3524
        47.5004         27.5004
    271141.50847    262512.68846  20666005.9924                   20666005.0664
        47.7504         36.2504
    685902.32047    579572.55545  20885288.3204                   20885284.1684
        47.0004         31.0004
    907901.49648    733886.02345  20510314.9064                   20510308.5204
        48.5004         34.7504
   1439511.43047   1130985.43845  22027472.8754                   22027472.9414
        46.0004         32.0004
 19  3  7 18  6 40.0000000  0  5G07G09G16G23G26
   -111922.15647    -22781.81244  22837106.3204                   22837103.0164
        47.0004         27.7504
    252425.15648    247928.51246  20662444.8204                   20662443.5434
        48.0004         36.2504
    673745.09047    570099.39145  20882974.6484                   20882970.6374
        46.2504         31.2504
    898888.59848    726863.00045  20508599.4304                   20508593.8754
        48.0004         34.2504
   1438637.82447   1130304.70345  22027306.4774                   22027306.6524
        45.7504         32.5004
 19  3  7 18  6 45.0000000  0  5G07G09G16G23G26
   -136253.46547    -41741.23844  22832476.6884                   22832472.7934
        47.0004         28.2504
    233737.08247    233366.37546  20658888.1174                   20658887.1484
        47.7504         36.7504
    661624.17247    560654.52045  20880668.2734                   20880664.3914
        46.2504         30.7504
    889905.28548    719862.98845  20506890.1564                   20506884.2034
        48.2504         34.5004
   1437795.59047   1129648.41045  22027145.8674                   22027146.2934
        45.7504         32.0004
 19  3  7 18  6 50.0000000  0  5G07G09G16G23G26
   -160562.13747    -60683.04744  22827851.6564                   22827847.5744
        47.7504         28.2504
    215077.07047    218826.10546  20655337.6884                   20655336.0634
        47.7504         36.7504
    649539.36747    551237.77745  20878368.5164                   20878364.3954
        46.2504         31.0004
    880951.32848    712885.88745  20505186.1334                   20505180.4414
        48.5004         34.5004
   1436984.45347   1129016.35545  22026991.4844                   22026991.6994
        45.5004         32.0004
 19  3  7 18  6 55.0000000  0  5G07G09G16G23G26
   -184848.50047    -79607.48444  22823229.9844                   22823225.6414
        47.0004         28.5004
    196444.84448    204307.48446  20651792.4774                   20651790.8284
        48.0004         36.7504
    637490.38747    541848.96145  20876075.4614                   20876071.6954
        46.5004         31.5004
    872026.47348    705931.45745  20503488.1254                   20503482.3134
        48.5004         34.5004
   1436204.14147   1128408.31645  22026843.2274                   22026843.7194
        45.5004         32.2504
 19  3  7 18  7  0.0000000  0  5G07G09G16G23G26
   -209112.39847    -98514.43044  22818611.4064                   22818608.2624
        46.0004         27.2504
    177840.47747    189810.57046  20648251.4844                   20648250.1804
        47.7504         36.5004
    625477.33647    532488.14545  20873790.0704                   20873785.8054
        46.2504         31.2504
    863130.76648    698999.73045  20501795.0634                   20501789.3014
        48.2504         33.7504
   1435454.69547   1127824.32445  22026700.6644                   22026700.6094
        45.7504         32.0004
 19  3  7 18  7  5.0000000  0  5G07G09G16G23G26
   -233353.78947   -117403.78544  22813998.0634                   22813995.2344
        46.0004         27.5004
    159264.07048    175335.44946  20644717.1174                   20644715.2704
        48.0004         37.0004
    613500.07447    523155.21145  20871510.8204                   20871506.3634
        46.5004         30.7504
    854264.17248    692090.69945  20500108.2194                   20500101.6564
        48.2504         34.0004
   1434736.01247   1127264.31345  22026563.3364                   22026564.2464
        45.5004         32.0004
 19  3  7 18  7 10.0000000  0  5G07G09G16G23G26
   -257566.42647   -136270.77044  22809390.8834                   22809388.7114
        44.5004         25.5004
    140722.41447    160887.41846  20641188.5864                   20641186.7344
        47.5004         36.7504
    601549.85247    513843.37545  20869236.4694                   20869232.5904
        45.5004         31.7504
    845423.62148    685201.96145  20498425.9064                   20498420.1644
        48.2504         34.0004
   1434042.97347   1126724.28545  22026432.2034                   22026432.3204
        46.5004         33.5004
 19  3  7 18  7 15.0000000  0  5G07G09G16G23G26
   -281751.74247   -155116.45344  22804789.1094                   22804785.5944
        44.7504         25.2504
    122214.64147    146465.77045  20637666.7974                   20637664.9884
        47.2504         35.5004
    589630.04747    504555.22345  20866968.7194                   20866964.3094
        46.0004         31.7504
    836610.92248    678334.92245  20496748.5164                   20496742.6684
        48.5004         34.2504
   1433378.27047   1126206.33245  22026305.8914                   22026305.5434
        46.7504         33.7504
 19  3  7 18  7 20.0000000  0  5G07G09G16G23G26
   -305918.61347   -173947.80144  22800190.8444                   22800186.5904
        46.7504         28.0004
    103731.44148    132063.26246  20634149.5944                   20634148.4144
        48.0004         36.7504
    577747.91047    495296.37145  20864707.3284                   20864703.1684
        46.0004         31.0004
    827826.75448    671490.09045  20495076.9774                   20495071.3834
        48.2504         34.0004
   1432746.37547   1125713.93045  22026185.6254                   22026185.6334
        46.0004         32.2504
 19  3  7 18  7 25.0000000  0  5G07G09G16G23G26
   -330063.22747   -192761.75044  22795595.2894                   22795592.2774
        45.2504         26.5004
     85274.48847    117681.23446  20630636.9614                   20630635.5904
        47.7504         36.5004
    565900.11747    486064.34445  20862452.4454                   20862449.0664
        45.5004         30.5004
    819070.48447    664667.03145  20493410.3364                   20493405.1994
        47.7504         34.0004
   1432142.45347   1125243.33645  22026070.1954                   22026070.7774
        46.2504         31.5004
 19  3  7 18  7 30.0000000  0  5G07G09G16G23G26
   -354185.81647   -211558.59044  22791005.2734                   22791002.0594
        45.5004         25.0004
     66845.06647    103320.63745  20627130.3524                   20627128.5204
        47.5004         35.0004
    554084.71547    476857.53545  20860204.0164                   20860199.8594
        45.7504         30.5004
    810341.05148    657864.86745  20491749.5004                   20491743.6884
        48.5004         33.0004
   1431566.80147   1124794.76645  22025960.9924                   22025960.9964
        45.7504         31.7504
 19  3  7 18  7 35.0000000  0  5G07G09G16G23G26
   -378284.91247   -230337.10544  22786421.7114                   22786414.1484
        47.0004         26.0004
     48443.86748     88982.02245  20623632.7734                   20623625.6414
        49.5004         34.7504
    542302.26648    467676.38344  20857964.5234                   20857956.1644
        48.0004         29.2504
    801639.35548    651084.32045  20490097.7344                   20490085.2274
        50.2504         31.5004
   1431018.54348   1124367.54345  22025858.9844                   22025854.2974
        49.0004         31.7504
 19  3  7 18  7 40.0000000  0  5G07G09G16G23G26
   -402363.68547   -249099.77844  22781836.6644                   22781834.6954
        45.7504         28.7504
     30068.67047     74663.66545  20620131.8364                   20620132.0554
        47.5004         35.0004
    530552.60247    458520.79345  20855726.1804                   20855723.2114
        46.5004         31.2504
    792963.98148    644324.26545  20488442.9844                   20488438.0744
        49.0004         33.7504
   1430498.46947   1123962.27345  22025757.1414                   22025758.7424
        46.0004         32.2504
 19  3  7 18  7 45.0000000  0  5G07G09G16G23G26
   -426424.97347   -267848.81244  22777258.2584                   22777256.9804
        45.5004         28.0004
     11717.23848     60363.87146  20616640.0704                   20616639.4614
        48.0004         36.0004
    518836.36347    449391.26245  20853496.9144                   20853493.9344
        45.5004         31.7504
    784314.52048    637584.44945  20486796.9454                   20486792.2774
        48.5004         34.7504
   1430007.11347   1123579.39145  22025663.9614                   22025665.4144
        45.5004         32.2504
 19  3  7 18  7 50.0000000  0  5G07G09G16G23G26
   -450468.59047   -286584.11744  22772682.5164                   22772679.8914
        46.0004         27.2504
     -6612.30947     46081.07846  20613151.8054                   20613151.5164
        47.2504         36.0004
    507155.35547    440289.16845  20851274.0554                   20851270.7114
        46.5004         32.5004
    775691.73448    630865.36745  20485156.1414                   20485151.5664
        49.0004         34.7504
   1429543.87547   1123218.41045  22025576.0474                   22025577.7624
        46.2504         33.5004
 19  3  7 18  7 55.0000000  0  5G07G09G16G23G26
   -474492.63747   -305304.12944  22768111.2584                   22768109.1844
        45.0004         28.0004
    -24916.50847     31818.08246  20609668.7274                   20609668.3794
        47.7504         36.2504
    495509.37947    431214.37545  20849057.7424                   20849054.6994
        46.5004         33.2504
    767096.70748    624167.94545  20483520.7034                   20483515.9104
        48.7504         34.7504
   1429109.89847   1122880.25045  22025493.6174                   22025494.9924
        46.0004         33.7504
 19  3  7 18  8  0.0000000  0  5G07G09G16G23G26
   -498492.60547   -324005.39144  22763543.6254                   22763542.9144
        44.7504         27.5004
    -43190.80147     17578.37946  20606191.0704                   20606191.4454
        47.7504         36.0004
    483894.06647    422163.48845  20846846.8594                   20846844.6334
        45.5004         30.7504
    758528.00448    617491.04745  20481889.3524                   20481885.3984
        48.0004         33.7504
   1428703.53947   1122563.59845  22025416.0084                   22025417.8714
        45.2504         31.0004
 19  3  7 18  8  5.0000000  0  5G07G09G16G23G26
   -522469.88447   -342688.97944  22758982.0314                   22758979.7034
        46.7504         27.7504
    -61435.29747      3361.87746  20602719.2274                   20602719.0984
        47.7504         36.5004
    472315.03947    413140.88345  20844643.8524                   20844641.2034
        45.5004         31.5004
    749988.88448    610837.17245  20480265.4454                   20480260.4844
        48.5004         34.7504
   1428330.17647   1122272.66045  22025345.4774                   22025346.5514
        45.0004         31.5004
 19  3  7 18  8 10.0000000  0  5G07G09G16G23G26
   -546425.35247   -361355.57844  22754423.2584                   22754421.2424
        45.0004         28.2504
    -79653.10247    -10833.81246  20599252.6564                   20599252.5434
        47.2504         36.0004
    460772.59447    404146.75045  20842446.9924                   20842444.9224
        46.0004         31.5004
    741479.01648    604206.10545  20478645.5864                   20478641.0044
        48.2504         34.0004
   1427987.41847   1122005.56645  22025279.7194                   22025281.8164
        46.0004         32.0004
 19  3  7 18  8 15.0000000  0  5G07G09G16G23G26
   -570359.71547   -380005.71544  22749868.2424                   22749865.7734
        45.7504         27.5004
    -97845.12148    -25009.39146  20595791.2344                   20595790.3754
        48.0004         36.0004
    449266.03147    395180.62945  20840257.9614                   20840255.0824
        46.2504         32.5004
    732997.75848    597597.35545  20477032.1564                   20477027.2664
        49.0004         34.7504
   1427673.95747   1121761.34045  22025220.3834                   22025221.7194
        46.5004         32.5004
 19  3  7 18  8 20.0000000  0  5G07G09G16G23G26
   -594271.43747   -398638.25044  22745318.9844                   22745316.6134
        45.0004         27.0004
   -116011.10547    -39164.73046  20592334.0474                   20592334.2234
        47.5004         36.2504
    437790.28547    386238.46945  20838074.7114                   20838071.8714
        46.5004         32.0004
    724542.25048    591008.63345  20475422.6954                   20475418.7154
        48.0004         34.2504
   1427385.02047   1121536.16045  22025165.7034                   22025167.5004
        46.7504         33.7504
 19  3  7 18  8 25.0000000  0  5G07G09G16G23G26
   -618169.46947   -417260.06644  22740771.1024                   22740768.5864
        46.5004         26.5004
   -134155.18447    -53302.95345  20588881.3984                   20588881.1214
        47.5004         35.2504
    426346.47347    377321.21945  20835896.3524                   20835893.6994
        46.2504         31.7504
    716110.21548    584438.21545  20473818.4384                   20473813.4064
        49.0004         34.7504
   1427125.30147   1121333.77345  22025115.8134                   22025117.8594
        45.0004         30.5004
 19  3  7 18  8 30.0000000  0  5G07G09G16G23G26
   -642046.17647   -435865.28944  22736226.5084                   22736224.6644
        45.2504         25.5004
   -152273.47747    -67421.12545  20585433.2274                   20585433.5164
        47.0004         34.7504
    414938.33247    368431.75445  20833725.4454                   20833722.9734
        46.2504         31.2504
    707706.91048    577890.18445  20472219.2504                   20472214.6174
        48.0004         33.7504
   1426894.12147   1121153.63345  22025071.7424                   22025073.4964
        45.7504         32.7504
 19  3  7 18  8 35.0000000  0  5G07G09G16G23G26
   -665899.91047   -454452.64144  22731688.1884                   22731685.8714
        47.0004         28.5004
   -170365.19948    -81518.57445  20581990.6884                   20581990.1414
        48.0004         35.5004
    403565.31347    359569.64545  20831561.2034                   20831558.5084
        46.0004         30.2504
    699332.49647    571364.66445  20470625.1644                   20470621.2194
        47.2504         33.0004
   1426690.68447   1120995.10545  22025033.5554                   22025035.2664
        45.5004         32.5004
 19  3  7 18  8 40.0000000  0  5G07G09G16G23G26
   -689737.37947   -473027.27344  22727150.8284                   22727149.4024
        45.0004         27.5004
   -188431.30148    -95596.05945  20578553.0634                   20578552.1134
        48.0004         35.5004
    392223.37947    350731.77745  20829403.1484                   20829399.7934
        45.5004         31.0004
    690981.89548    564857.68845  20469036.2114                   20469030.8914
        48.2504         34.0004
   1426517.68047   1120860.25845  22025000.0394                   22025001.3054
        45.7504         30.7504
 19  3  7 18  8 45.0000000  0  5G07G09G16G23G26
   -713549.89847   -491582.48444  22722619.5474                   22722617.1884
        46.0004         28.0004
   -206468.42647   -109650.95746  20575120.1724                   20575119.2704
        47.5004         36.0004
    380917.09847    341921.66445  20827250.6254                   20827247.7504
        44.0004         30.0004
    682661.04347    558373.90645  20467452.5634                   20467447.5274
        47.2504         33.2504
   1426374.12547   1120748.42245  22024972.3134                   22024973.8014
        44.5004         30.5004
 19  3  7 18  8 50.0000000  0  5G07G09G16G23G26
   -737341.81647   -510121.61144  22718092.8524                   22718090.0784
        45.5004         25.5004
   -224478.86747   -123685.07045  20571693.4774                   20571692.1454
        47.5004         34.0004
    369647.43447    333140.13345  20825106.9774                   20825102.6094
        45.7504         30.7504
    674369.10248    551912.66845  20465874.9064                   20465868.8134
        48.0004         32.0004
   1426262.16047   1120661.16845  22024951.7114                   22024952.0594
        45.0004         31.2504
 19  3  7 18  8 55.0000000  0  5G07G09G16G23G26
   -761112.85947   -528644.49244  22713569.4614                   22713567.1134
        45.0004         25.5004
   -242465.24247   -137700.41845  20568270.2734                   20568270.1334
        47.2504         35.0004
    358405.66447    324380.30545  20822967.3524                   20822964.1764
        45.7504         32.0004
    666100.30148    545469.44545  20464301.4224                   20464296.2934
        48.0004         33.7504
   1426171.84447   1120590.78945  22024933.8914                   22024935.6954
        45.5004         33.0004
 19  3  7 18  9  0.0000000  0  5G07G09G16G23G26
   -784868.97347   -547155.73844  22709048.3054                   22709046.2584
        46.0004         28.2504
   -260429.58247   -151698.60546  20564851.9224                   20564851.3554
        47.7504         36.2504
    347196.11347    315645.60545  20820834.4224                   20820830.9304
        44.2504         31.5004
    657855.85547    539045.19945  20462732.7424                   20462727.2034
        47.7504         34.2504
   1426109.05147   1120541.84845  22024922.0164                   22024923.2974
        44.5004         32.0004
 19  3  7 18  9  5.0000000  0  5G07G09G16G23G26
   -808606.91447   -565652.82044  22704530.9454                   22704528.3524
        45.0004         26.0004
   -278371.10947   -165678.99245  20561438.0004                   20561435.8594
        47.0004         34.0004
    336020.04347    306936.99245  20818707.9694                   20818703.8134
        46.0004         30.5004
    649637.15248    532641.04345  20461168.4774                   20461162.3754
        48.2504         33.0004
   1426073.85247   1120514.44145  22024915.8054                   22024916.3244
        45.5004         31.0004
 19  3  7 18  9 10.0000000  0  5G07G09G16G23G26
   -832323.47047   -584133.22644  22700018.9614                   22700015.4694
        44.7504         26.0004
   -296285.24747   -179638.05946  20558029.1414                   20558027.9064
        47.0004         36.0004
    324878.44347    298255.23145  20816587.7734                   20816583.5594
        46.5004         32.0004
    641446.47048    526258.68045  20459610.1724                   20459604.2814
        48.7504         34.2504
   1426068.03147   1120509.89145  22024914.9774                   22024914.8134
        46.0004         32.7504
 19  3  7 18  9 15.0000000  0  5G07G09G16G23G26
   -856020.76647   -602598.66844  22695508.6804                   22695505.9024
        46.0004         25.7504
   -314175.58647   -193578.59045  20554624.4064                   20554623.8444
        47.5004         35.0004
    313769.28547    289598.71144  20814473.4384                   20814469.8834
        45.7504         28.7504
    633281.44147    519896.30945  20458056.1884                   20458050.8634
        47.0004         31.5004
   1426088.44147   1120525.80944  22024918.5554                   22024919.1884
        44.5004         29.2504
 19  3  7 18  9 20.0000000  0  5G07G09G16G23G26
   -879700.45747   -621050.37144  22691002.7114                   22690998.8244
        45.0004         25.2504
   -332042.69547   -207501.02345  20551223.8204                   20551223.1054
        47.2504         34.5004
    302686.95347    280963.13745  20812364.4064                   20812360.7074
        45.0004         31.0004
    625137.93047    513550.71945  20456506.0784                   20456500.5164
        47.5004         33.5004
   1426131.57047   1120559.38745  22024926.1414                   22024926.7504
        44.5004         30.5004
 19  3  7 18  9 25.0000000  0  5G07G09G16G23G26
   -903363.20747   -639488.83244  22686499.8834                   22686496.9264
        46.0004         26.5004
   -349886.35947   -221405.14845  20547828.5394                   20547827.4024
        47.5004         34.0004
    291638.05147    272353.62544  20810262.1484                   20810258.3244
        45.5004         29.7504
    617020.33648    507225.35245  20454961.6024                   20454955.6024
        48.2504         32.2504
   1426202.78947   1120614.90244  22024940.3134                   22024940.5084
        44.5004         29.2504
 19  3  7 18  9 30.0000000  0  5G07G09G16G23G26
   -927006.70347   -657912.35844  22682000.4614                   22681997.2234
        44.2504         25.0004
   -367706.58747   -235291.05545  20544437.6174                   20544436.2734
        47.0004         33.5004
    280619.66047    263767.85645  20808165.5704                   20808161.5984
        46.0004         30.2504
    608927.08348    500918.89845  20453421.7344                   20453416.1954
        48.0004         32.5004
   1426298.26247   1120689.28645  22024958.1954                   22024958.8014
        45.5004         31.0004
 19  3  7 18  9 35.0000000  0  5G07G09G16G23G26
   -950630.18447   -676320.26644  22677504.9304                   22677501.3754
        45.2504         28.0004
   -385501.13347   -249156.94546  20541051.4144                   20541050.3404
        47.5004         36.0004
    269634.20747    255207.74245  20806074.9224                   20806071.3244
        45.5004         31.2504
    600860.30147    494633.07845  20451886.6564                   20451880.8914
        47.7504         33.7504
   1426421.40647   1120785.21545  22024982.1564                   22024981.9574
        45.0004         30.7504
 19  3  7 18  9 40.0000000  0  5G07G09G16G23G26
   -974233.32047   -694712.30944  22673013.6484                   22673010.9024
        46.0004         29.0004
   -403268.81247   -263001.88345  20537670.6414                   20537669.4414
        47.7504         35.7504
    258681.42247    246673.11345  20803991.0314                   20803987.1214
        45.5004         31.0004
    592820.07448    488367.97745  20450356.6414                   20450350.8324
        48.0004         34.2504
   1426572.75647   1120903.16545  22025011.1254                   22025011.4414
        44.5004         30.7504
 19  3  7 18  9 45.0000000  0  5G07G09G16G23G26
   -997814.21147   -713087.02744  22668526.4844                   22668523.1844
        45.0004         26.0004
   -421011.46947   -276827.33245  20534294.4454                   20534293.5274
        47.5004         35.5004
    247760.06647    238162.96145  20801912.8364                   20801909.1334
        46.2504         31.7504
    584805.85548    482123.12545  20448831.8754                   20448826.7154
        48.0004         33.5004
   1426748.11347   1121039.79345  22025044.0314                   22025044.8054
        46.0004         33.2504
 19  3  7 18  9 50.0000000  0  5G07G09G16G23G26
  -1021382.65247   -731452.05544  22664041.5554                   22664038.5434
        45.0004         26.5004
   -438735.25147   -290638.07445  20530921.6564                   20530920.5004
        46.7504         35.2504
    236867.55547    229675.27445  20799839.6884                   20799836.3524
        47.0004         31.5004
    576812.56648    475894.58245  20447310.5394                   20447305.4414
        48.2504         33.0004
   1426947.68147   1121195.29545  22025082.0164                   22025082.9064
        46.2504         33.2504
 19  3  7 18  9 55.0000000  0  5G07G09G16G23G26
  -1044934.28147   -749803.95744  22659559.5084                   22659556.6484
        45.5004         26.0004
   -456436.71947   -304431.44145  20527553.1724                   20527552.2504
        47.7504         35.5004
    226006.10047    221211.79745  20797772.8984                   20797769.0354
        46.0004         31.5004
    568843.28948    469684.75445  20445794.0784                   20445788.5044
        48.5004         34.0004
   1427172.58647   1121370.53145  22025125.2584                   22025125.4694
        45.7504         32.2504
 19  3  7 18 10  0.0000000  0  5G07G09G16G23G26
  -1068463.93447   -768138.75044  22655082.1884                   22655079.5474
        46.5004         28.0004
   -474111.24648   -318203.77745  20524190.1484                   20524188.8794
        48.0004         35.2504
    215177.90647    212774.25445  20795712.5784                   20795709.0084
        45.7504         30.0004
    560901.11348    463496.05145  20444282.3594                   20444277.3554
        48.2504         33.0004
   1427425.66047   1121567.74244  22025173.5554                   22025173.9494
        44.7504         29.5004
 19  3  7 18 10  5.0000000  0  5G07G09G16G23G26
  -1091971.80547   -786456.56244  22650608.3594                   22650606.0664
        45.5004         27.2504
   -491757.53547   -331954.14146  20520831.3524                   20520830.3164
        47.5004         36.0004
    204386.15247    204365.10945  20793658.4304                   20793654.9064
        45.7504         30.2504
    552988.49647    457330.36345  20442777.0234                   20442771.4344
        47.5004         33.5004
   1427709.90647   1121789.20745  22025227.2424                   22025227.5944
        45.0004         30.7504
 19  3  7 18 10 10.0000000  0  5G07G09G16G23G26
  -1115458.73447   -804758.04444  22646139.1334                   22646136.6684
        45.5004         26.0004
   -509377.73247   -345684.15845  20517478.6884                   20517478.0864
        47.5004         34.0004
    193630.24947    195983.86444  20791612.0164                   20791609.0274
        45.5004         29.7504
    545104.07148    451186.66945  20441276.8054                   20441271.8444
        48.2504         32.0004
   1428024.73147   1122034.53544  22025286.8984                   22025288.1334
        44.7504         29.7504
 19  3  7 18 10 15.0000000  0  5G07G09G16G23G26
  -1138928.03147   -823045.82044  22641672.9924                   22641670.2504
        46.0004         27.0004
   -526973.13347   -359394.86345  20514129.5004                   20514128.4844
        47.2504         33.5004
    182904.48447    187626.14145  20789570.2734                   20789566.7384
        45.0004         30.2504
    537243.92648    445061.86345  20439780.3444                   20439774.8324
        48.0004         32.0004
   1428365.03147   1122299.69545  22025351.2114                   22025352.0434
        44.0004         30.0004
 19  3  7 18 10 20.0000000  0  5G07G09G16G23G26
  -1162379.82447   -841319.89544  22637211.0314                   22637208.2234
        46.5004         27.5004
   -544546.91048   -373088.68746  20510786.3524                   20510786.0704
        48.0004         36.5004
    172212.22747    179294.51245  20787536.2034                   20787532.9534
        45.5004         31.0004
    529409.44548    438957.10245  20438290.4384                   20438284.8874
        48.0004         33.7504
   1428731.60947   1122585.35545  22025421.5314                   22025422.5004
        45.0004         31.2504
 19  3  7 18 10 25.0000000  0  5G07G09G16G23G26
  -1185814.35247   -859580.58244  22632750.3284                   22632747.8594
        46.2504         28.5004
   -562097.09847   -386764.18745  20507445.9144                   20507445.7504
        47.0004         34.7504
    161549.69547    170986.04745  20785506.7194                   20785503.7934
        45.0004         30.7504
    521598.28947    432870.46545  20436803.1094                   20436798.8594
        47.7504         33.2504
   1429123.52047   1122890.71945  22025495.6024                   22025497.2034
        44.2504         30.5004
 19  3  7 18 10 30.0000000  0  5G07G09G16G23G26
  -1209230.53947   -877826.95344  22628295.3524                   22628292.1024
        47.0004         28.0004
   -579624.70747   -400422.04746  20504110.9224                   20504110.4264
        47.7504         36.0004
    150919.16047    162702.51245  20783484.1564                   20783481.3914
        45.7504         32.0004
    513812.39547    426803.55545  20435321.7504                   20435317.5514
        47.7504         33.5004
   1429540.21547   1123215.43445  22025575.5864                   22025576.4454
        44.7504         31.7504
 19  3  7 18 10 35.0000000  0  5G07G09G16G23G26
  -1232630.96147   -896061.05144  22623841.7424                   22623840.0124
        46.7504         28.2504
   -597130.35947   -414062.82846  20500779.6254                   20500778.8554
        47.7504         36.7504
    140316.78547    154440.91045  20781466.5314                   20781463.4694
        46.0004         31.2504
    506048.16448    420753.47745  20433844.3984                   20433839.3284
        48.2504         33.5004
   1429980.77347   1123558.69945  22025658.4774                   22025660.2424
        44.7504         31.5004
 19  3  7 18 10 40.0000000  0  5G07G09G16G23G26
  -1256012.13347   -914280.14644  22619393.2274                   22619390.0784
        46.5004         29.5004
   -614612.34448   -427685.15046  20497453.7664                   20497452.5824
        48.5004         37.7504
    129747.69047    146205.25545  20779456.0164                   20779452.5704
        45.5004         30.5004
    498310.20948    414723.91845  20432372.5084                   20432367.6994
        48.0004         34.0004
   1430447.78547   1123922.60945  22025748.5704                   22025749.4414
        44.2504         30.2504
 19  3  7 18 10 45.0000000  0  5G07G09G16G23G26
  -1279375.87947   -932485.65644  22614946.4774                   22614944.5704
        43.5004         26.5004
   -632070.41447   -441288.84845  20494130.4454                   20494130.4224
        46.5004         35.0004
    119206.22347    137991.11345  20777449.1484                   20777446.4614
        45.7504         31.0004
    490594.37547    408711.57445  20430903.5784                   20430898.9414
        47.2504         32.5004
   1430938.44947   1124304.93045  22025841.2344                   22025842.5594
        45.0004         32.0004
 19  3  7 18 10 50.0000000  0  5G07G09G16G23G26
  -1302729.53547   -950683.27344  22610503.6644                   22610500.0944
        46.2504         26.5004
   -649511.96147   -454879.64545  20490811.9304                   20490810.3164
        47.5004         34.5004
    108696.44547    129801.68844  20775450.2034                   20775447.0084
        44.5004         28.2504
    482900.57847    402716.41445  20429440.4694                   20429434.3914
        47.7504         32.2504
   1431454.96147   1124707.41044  22025940.1174                   22025940.9384
        43.5004         28.0004
 19  3  7 18 10 55.0000000  0  5G07G09G16G23G26
  -1326063.06647   -968865.27744  22606062.5004                   22606059.3324
        46.0004         27.5004
   -666928.58647   -468451.06646  20487498.0084                   20487496.9224
        47.7504         36.2504
     98216.03147    121635.12145  20773455.3134                   20773451.6954
        45.0004         30.0004
    475230.83647    396739.98045  20427980.3204                   20427974.6414
        47.7504         33.0004
   1431995.23047   1125128.39145  22026042.6954                   22026043.3094
        44.5004         31.2504
 19  3  7 18 11  0.0000000  0  5G07G09G16G23G26
  -1349383.59047   -987037.09444  22601625.2034                   22601621.7074
        46.5004         26.7504
   -684326.98047   -482008.23845  20484186.9224                   20484185.1294
        47.5004         35.0004
     87764.13747    113490.79345  20771466.3364                   20771462.6484
        45.2504         30.0004
    467581.94547    390779.81645  20426524.7114                   20426519.1454
        47.7504         33.0004
   1432558.23047   1125567.09444  22026149.7114                   22026149.4844
        44.0004         29.0004
 19  3  7 18 11  5.0000000  0  5G07G09G16G23G26
  -1372684.34847  -1005193.52044  22597191.0234                   22597187.7974
        46.2504         26.2504
   -701701.33647   -495546.70745  20480880.6804                   20480879.1954
        47.5004         34.7504
     77338.41047    105366.84444  20769482.2194                   20769478.4184
        44.5004         28.2504
    459955.07047    384836.79345  20425073.0944                   20425067.2424
        46.5004         31.0004
   1433141.30947   1126021.43045  22026260.4304                   22026260.4024
        43.5004         30.0004
 19  3  7 18 11 10.0000000  0  5G07G09G16G23G26
  -1395966.09447  -1023335.14544  22592760.4304                   22592757.1604
        43.5004         26.0004
   -719050.36347   -509065.42645  20477579.1564                   20477577.6884
        47.0004         35.0004
     66942.92647     97266.44945  20767503.8984                   20767500.3484
        44.5004         30.0004
    452352.61347    378912.78545  20423626.4534                   20423620.8164
        46.5004         31.7504
   1433750.21947   1126495.88745  22026376.3054                   22026376.4494
        45.0004         30.5004
 19  3  7 18 11 15.0000000  0  5G07G09G16G23G26
  -1419237.89147  -1041468.99644  22588331.7274                   22588327.9774
        46.0004         27.0004
   -736381.40347   -522570.12845  20474280.9304                   20474279.2934
        47.5004         34.7504
     56579.02647     89190.71445  20765532.1484                   20765527.4614
        46.0004         30.0004
    444771.64147    373005.54945  20422183.7274                   20422177.9104
        47.7504         32.0004
   1434387.36647   1126992.38344  22026497.9924                   22026497.9064
        44.5004         29.0004
 19  3  7 18 11 20.0000000  0  5G07G09G16G23G26
  -1442487.06247  -1059585.23444  22583907.9454                   22583903.8794
        46.2504         27.5004
   -753685.89548   -536054.16045  20470988.2344                   20470987.1994
        48.2504         35.0004
     46246.15247     81139.09845  20763565.5944                   20763561.6524
        45.7504         31.0004
    437217.15248    367118.92245  20420746.4924                   20420740.5434
        48.0004         33.0004
   1435048.04747   1127507.17245  22026623.6094                   22026623.2234
        45.0004         31.0004
 19  3  7 18 11 25.0000000  0  5G07G09G16G23G26
  -1465716.51647  -1077686.10544  22579487.4224                   22579484.2814
        46.7504         27.5004
   -770965.98048   -549519.16445  20467699.8444                   20467698.8874
        48.0004         35.5004
     35946.24247     73113.17644  20761605.5234                   20761602.0274
        44.5004         29.5004
    429688.89547    361252.73445  20419313.5234                   20419308.6454
        47.5004         32.2504
   1435735.34047   1128042.72345  22026754.4614                   22026754.7424
        44.0004         30.2504
 19  3  7 18 11 30.0000000  0  5G07G09G16G23G26
  -1488930.12547  -1095774.59444  22575069.9384                   22575066.5234
        45.0004         24.2504
   -788224.76247   -562967.52045  20464415.7814                   20464413.9654
        47.5004         33.5004
     25677.46947     65111.57844  20759651.4304                   20759647.3914
        46.2504         28.5004
    422183.98048    355404.80944  20417885.6334                   20417879.7774
        48.0004         29.7504
   1436448.59447   1128598.53144  22026889.7814                   22026889.9654
        45.2504         28.0004
 19  3  7 18 11 35.0000000  0  5G07G09G16G23G26
  -1512120.19947  -1113844.77043  22570656.7504                   22570653.0704
        46.2504         23.2504
   -805454.85547   -576393.56645  20461137.0554                   20461134.6804
        47.2504         33.0004
     15439.06647     57133.62945  20757703.0394                   20757698.8484
        45.7504         30.5004
    414705.60948    349577.50445  20416462.5004                   20416455.9494
        48.2504         32.2504
   1437185.80947   1129172.98445  22027030.2734                   22027030.2734
        44.5004         30.0004
 19  3  7 18 11 40.0000000  0  5G07G09G16G23G26
  -1535299.35547  -1131906.48044  22566246.0004                   22566242.1374
        46.5004         27.0004
   -822666.29747   -589805.12545  20457861.9224                   20457859.9654
        47.7504         35.0004
      5234.85347     49182.22545  20755761.2894                   20755757.2234
        45.2504         30.5004
    407251.16448    343768.79345  20415043.7424                   20415037.9654
        48.0004         32.7504
   1437952.68847   1129770.50044  22027176.0234                   22027175.8524
        44.0004         29.5004
 19  3  7 18 11 45.0000000  0  5G07G09G16G23G26
  -1558452.66047  -1149948.01644  22561840.1884                   22561837.2384
        46.5004         28.7504
   -839847.14848   -603192.80145  20454592.4144                   20454591.2664
        48.0004         35.5004
     -4941.15647     41252.88845  20753825.1564                   20753821.1134
        45.5004         30.0004
    399822.06548    337979.89845  20413630.7664                   20413624.8914
        48.2504         32.7504
   1438742.80947   1130386.19945  22027326.9144                   22027327.1454
        44.7504         31.2504
 19  3  7 18 11 50.0000000  0  5G07G09G16G23G26
  -1581591.20847  -1167978.03844  22557436.9144                   22557434.2034
        44.7504         28.0004
   -857008.14648   -616565.01545  20451326.3754                   20451326.4144
        48.0004         34.7504
    -15084.93847     33348.63144  20751894.6254                   20751891.3164
        45.5004         29.0004
    392416.94447    332209.66345  20412221.0554                   20412216.2734
        47.5004         31.5004
   1439558.57347   1131021.84545  22027481.5554                   22027482.6644
        44.7504         30.2504
 19  3  7 18 11 55.0000000  0  5G07G09G16G23G26
  -1604715.79747  -1185997.20344  22553036.8364                   22553032.9964
        45.7504         26.5004
   -874148.63347   -629921.24245  20448064.8754                   20448063.1564
        47.7504         34.0004
    -25197.39147     25468.80144  20749970.8754                   20749966.3984
        45.5004         29.2504
    385035.21947    326457.66445  20410816.5944                   20410810.2464
        47.5004         32.0004
   1440400.02747   1131677.51645  22027641.9224                   22027641.9494
        45.2504         30.2504
 19  3  7 18 12  0.0000000  0  5G07G09G16G23G26
  -1627829.47347  -1204007.79743  22548638.6254                   22548634.3594
        43.7504         22.2504
   -891273.10247   -643264.94545  20444806.4384                   20444804.1644
        47.5004         33.2504
    -35279.73447     17612.46945  20748052.2034                   20748047.6564
        45.7504         30.0004
    377674.84047    320722.33645  20409415.9304                   20409409.5824
        46.7504         30.2504
   1441264.58247   1132351.20345  22027806.1484                   22027806.1054
        46.0004         31.0004
 19  3  7 18 12  5.0000000  0  5G07G09G16G23G26
  -1650933.48447  -1222010.94143  22544241.5164                   22544237.7304
        45.5004         23.0004
   -908378.44548   -656593.78545  20441551.0084                   20441548.5594
        48.0004         33.2504
    -45338.34847      9774.57445  20746137.6094                   20746132.9304
        45.7504         30.5004
    370331.15248    314999.98045  20408018.5164                   20408011.8244
        48.2504         32.0004
   1442151.57047   1133042.35545  22027975.2114                   22027974.8674
        45.2504         30.0004
 19  3  7 18 12 10.0000000  0  5G07G09G16G23G26
  -1674013.13347  -1239995.26244  22539849.7734                   22539845.9104
        47.0004         29.0004
   -925457.81258   -669902.44155  20438301.0234                   20438298.7814
        48.5004         35.5004
    -55366.90647      1960.04744  20744229.3134                   20744224.1914
        45.5004         29.0004
    363013.82847    309298.12145  20406625.8204                   20406619.6994
        47.5004         31.5004
   1443058.97347   1133749.39844  22028148.5394                   22028146.9184
        44.2504         29.7504
 19  3  7 18 12 15.0000000  0  5G07G09G16G23G26
  -1697076.72357  -1257966.93754  22535460.7664                   22535457.5784
        44.7504         25.5004
   -942513.00047   -683192.14845  20435055.9454                   20435054.4304
        47.0004         34.0004
    -65361.50047     -5827.91045  20742327.2584                   20742323.0164
        46.2504         30.7504
    355721.89847    303616.12545  20405238.3284                   20405232.8984
        47.7504         32.2504
   1443997.20347   1134480.50045  22028326.6254                   22028326.7504
        45.5004         32.0004
 19  3  7 18 12 20.0000000  0  5G07G09G16G23G26
  -1720124.56647  -1275926.27744  22531075.4614                   22531071.9804
        46.2504         26.7504
   -959548.07447   -696466.22345  20431814.0004                   20431812.2034
        47.7504         33.5004
    -75328.73847    -13594.58244  20740431.0394                   20740426.3204
        45.5004         29.7504
    348451.07847    297950.55945  20403854.7114                   20403848.4694
        47.7504         31.7504
   1444956.37547   1135227.90645  22028509.2894                   22028508.9494
        44.5004         30.2504
 19  3  7 18 12 25.0000000  0  5G07G09G16G23G26
  -1743156.88747  -1293873.55844  22526692.1954                   22526688.6174
        44.5004         26.7504
   -976562.70847   -709724.38845  20428576.1644                   20428574.7274
        47.0004         33.2504
    -85269.59047    -21340.71344  20738538.9224                   20738534.7034
        44.7504         29.2504
    341200.85447    292301.02245  20402475.1954                   20402469.3444
        47.7504         31.0004
   1445936.03747   1135991.27144  22028695.6334                   22028695.4964
        44.0004         29.7504
 19  3  7 18 12 30.0000000  0  5G07G09G16G23G26
  -1766174.18447  -1311809.10543  22522312.1564                   22522308.3874
        44.2504         22.7504
   -993555.37947   -722965.45745  20425342.5554                   20425341.6054
        46.7504         33.2504
    -95180.25847    -29063.32445  20736652.7974                   20736648.9844
        46.0004         30.7504
    333973.59447    286669.37545  20401099.7034                   20401094.0864
        47.5004         32.2504
   1446940.90047   1136774.25145  22028886.2424                   22028886.6524
        45.5004         32.2504
 19  3  7 18 12 35.0000000  0  5G07G09G16G23G26
  -1789174.71547  -1329731.62144  22517935.8524                   22517931.5784
        46.2504         27.2504
  -1010526.66047   -736189.84045  20422113.5084                   20422110.2034
        47.7504         34.0004
   -105064.30547    -36765.19945  20734772.3674                   20734767.9184
        46.2504         30.0004
    326767.38748    281054.14545  20399728.8524                   20399721.6804
        48.2504         32.0004
   1447966.57047   1137573.49645  22029082.6954                   22029081.0394
        45.5004         30.5004
 19  3  7 18 12 40.0000000  0  5G07G09G16G23G26
  -1812159.22747  -1347641.62544  22513561.5704                   22513558.0594
        44.2504         26.2504
  -1027476.66047   -749397.62945  20418887.7194                   20418886.1954
        47.2504         34.5004
   -114914.90647    -44440.98845  20732898.2274                   20732893.9024
        46.2504         31.2504
    319586.83248    275458.90245  20398362.4224                   20398356.4024
        48.2504         33.0004
   1449018.04347   1138392.81345  22029282.2274                   22029281.8404
        46.0004         31.7504
 19  3  7 18 12 45.0000000  0  5G07G09G16G23G26
  -1835130.77747  -1365541.51944  22509190.3364                   22509186.9064
        45.0004         26.2504
  -1044406.33947   -762589.57945  20415665.7194                   20415664.5594
        47.2504         34.5004
   -124738.19447    -52095.49145  20731028.6884                   20731024.6134
        45.5004         30.5004
    312426.12947    269879.13445  20396999.2034                   20396993.4024
        47.0004         31.7504
   1450093.71347   1139230.98045  22029486.3674                   22029487.0234
        44.5004         30.7504
 19  3  7 18 12 50.0000000  0  5G07G09G16G23G26
  -1858095.22347  -1383435.87144  22504820.3834                   22504816.4694
        44.0004         25.5004
  -1061323.55147   -775771.82445  20412447.0084                   20412445.3984
        47.7504         35.0004
   -134529.03947    -59724.71545  20729165.3754                   20729161.5164
        46.0004         31.5004
    305287.44548    264316.52745  20395640.9924                   20395634.6844
        48.0004         33.0004
   1451192.95347   1140087.52045  22029695.8914                   22029696.1134
        45.2504         31.7504
 19  3  7 18 12 55.0000000  0  5G07G09G16G23G26
  -1881042.09047  -1401316.56645  22500453.9924                   22500450.2734
        47.0004         30.2504
  -1078218.59848   -788936.80145  20409231.6174                   20409230.5084
        48.0004         35.7504
   -144292.19547    -67332.39845  20727307.8364                   20727303.7504
        45.5004         30.5004
    298171.07847    258771.30145  20394287.0084                   20394281.4344
        47.5004         32.7504
   1452313.12547   1140960.39544  22029909.2114                   22029909.6884
        44.0004         29.7504
 19  3  7 18 13  0.0000000  0  5G07G09G16G23G26
  -1903966.29547  -1419179.56344  22496091.4774                   22496088.5474
        43.7504         26.5004
  -1095086.22548   -802080.41245  20406022.3054                   20406021.2424
        48.0004         35.0004
   -154034.70747    -74923.96145  20725453.6564                   20725449.8594
        46.0004         31.0004
    291073.66748    253240.84145  20392936.2504                   20392930.9454
        48.0004         32.2504
   1453450.50847   1141846.63745  22030126.5554                   22030126.3914
        47.0004         33.0004
 19  3  7 18 13  5.0000000  0  5G07G09G16G23G26
  -1926878.83647  -1437033.44544  22491731.3594                   22491727.4454
        46.2504         27.7504
  -1111932.77348   -815207.53545  20402817.0864                   20402814.3914
        48.2504         35.0004
   -163744.57047    -82490.03545  20723606.3524                   20723601.5664
        46.2504         30.5004
    283999.75448    247728.74245  20391591.0474                   20391583.8954
        48.5004         33.0004
   1454617.08647   1142755.70345  22030347.7274                   22030347.2624
        45.7504         30.5004
 19  3  7 18 13 10.0000000  0  5G07G09G16G23G26
  -1949778.41447  -1454877.24244  22487373.3054                   22487371.1954
        44.5004         24.7504
  -1128761.80947   -828321.06245  20399613.2344                   20399613.5474
        47.2504         34.2504
   -173424.01647    -90032.44545  20721763.6484                   20721760.9964
        44.5004         30.0004
    276948.32447    242234.14545  20390247.7424                   20390243.8284
        46.5004         32.0004
   1455806.25047   1143682.34044  22030573.3054                   22030575.5864
        43.7504         29.7504
 19  3  7 18 13 15.0000000  0  5G07G09G16G23G26
  -1972661.48847  -1472708.25044  22483019.1414                   22483016.6094
        46.2504         28.5004
  -1145570.62948   -841418.86745  20396415.0004                   20396414.2814
        48.0004         34.7504
   -183082.48047    -97558.55144  20719925.7734                   20719923.0044
        44.5004         29.0004
    269913.77747    236752.64545  20388909.7114                   20388905.3364
        47.0004         32.2504
   1457010.97747   1144621.05544  22030802.6564                   22030804.2344
        43.0004         28.7504
 19  3  7 18 13 20.0000000  0  5G07G09G16G23G26
  -1995538.16447  -1490534.21144  22478666.1174                   22478663.0474
        46.7504         28.0004
  -1162365.78547   -854505.98845  20393219.2664                   20393218.2034
        47.7504         34.2504
   -192713.81647   -105063.49244  20718093.2424                   20718089.8634
        45.2504         28.7504
    262897.16447    231285.16445  20387574.7114                   20387569.0274
        47.5004         31.2504
   1458237.39547   1145576.70344  22031037.0634                   22031037.0004
        43.5004         27.0004
 19  3  7 18 13 25.0000000  0  5G07G09G16G23G26
  -2018394.76247  -1508344.57844  22474316.6254                   22474313.6454
        45.5004         28.0004
  -1179138.46548   -867575.62945  20390027.4614                   20390026.2504
        48.0004         34.7504
   -202321.21947   -112549.81245  20716264.8674                   20716261.1604
        45.5004         30.5004
    255901.16447    225833.70345  20386242.8594                   20386237.9264
        47.2504         32.2504
   1459480.02047   1146544.98045  22031273.1954                   22031273.8754
        45.0004         30.0004
 19  3  7 18 13 30.0000000  0  5G07G09G16G23G26
  -2041236.78147  -1526143.53544  22469969.3984                   22469966.5124
        46.2504         29.7504
  -1195892.23848   -880630.52745  20386839.1644                   20386837.7274
        48.0004         35.2504
   -211905.54347   -120018.10544  20714441.1564                   20714437.1914
        46.0004         29.0004
    248923.17647    220396.31645  20384915.4144                   20384909.2934
        47.2504         31.5004
   1460739.30147   1147526.23845  22031512.1414                   22031512.1134
        44.7504         31.0004
 19  3  7 18 13 35.0000000  0  5G07G09G16G23G26
  -2064060.14147  -1543927.97345  22465626.5004                   22465623.1524
        46.0004         30.0004
  -1212623.30948   -893667.74246  20383655.2034                   20383654.2584
        48.0004         36.5004
   -221464.92247   -127467.00845  20712621.8674                   20712618.2734
        45.7504         30.5004
    241966.19947    214975.26745  20383591.0944                   20383586.0664
        47.7504         33.0004
   1462016.42247   1148521.37945  22031755.2584                   22031755.7974
        44.5004         30.5004
 19  3  7 18 13 40.0000000  0  5G07G09G16G23G26
  -2086870.77047  -1561702.48044  22461286.1334                   22461283.1994
        47.0004         29.7504
  -1229335.16848   -906689.93745  20380475.3914                   20380474.4654
        48.0004         35.7504
   -230992.52047   -134891.05944  20710808.6804                   20710805.6294
        45.7504         29.0004
    235032.49647    209572.41845  20382271.8834                   20382266.9414
        47.2504         32.2504
   1463319.22347   1149536.53944  22032003.2894                   22032004.2624
        44.0004         28.7504
 19  3  7 18 13 45.0000000  0  5G07G09G16G23G26
  -2109674.60547  -1579471.66845  22456946.4454                   22456944.0554
        46.0004         30.0004
  -1246033.12948   -919701.36346  20377297.5634                   20377297.3834
        48.5004         36.7504
   -240485.98847   -142288.60545  20709002.3914                   20708999.3984
        45.2504         30.0004
    228121.91448    204187.53145  20380957.1644                   20380952.4844
        48.0004         33.0004
   1464648.78147   1150572.55144  22032256.5234                   22032257.3404
        43.0004         27.2504
 19  3  7 18 13 50.0000000  0  5G07G09G16G23G26
  -2132460.31647  -1597226.77744  22452610.2424                   22452607.9844
        46.5004         29.0004
  -1262708.94948   -932695.49646  20374124.5004                   20374124.0124
        48.5004         36.7504
   -249953.54347   -149665.91044  20707200.3364                   20707197.8364
        46.0004         29.5004
    221232.68047    198819.30945  20379646.0164                   20379641.4104
        47.2504         32.5004
   1465997.05147   1151623.15245  22032513.0784                   22032514.4734
        43.7504         30.2504
 19  3  7 18 13 55.0000000  0  5G07G09G16G23G26
  -2155231.99247  -1614970.94544  22448277.2504                   22448274.8134
        46.0004         28.5004
  -1279366.78148   -945675.63746  20370954.6724                   20370954.1564
        48.0004         36.5004
   -259399.76247   -157026.58644  20705403.2114                   20705400.0864
        46.0004         28.5004
    214360.04347    193463.98845  20378338.0474                   20378333.6724
        47.2504         32.0004
   1467360.23447   1152685.34444  22032772.7814                   22032773.3554
        43.7504         28.5004
 19  3  7 18 14  0.0000000  0  5G07G09G16G23G26
  -2177989.30547  -1632703.92244  22443946.3754                   22443944.2584
        47.2504         29.5004
  -1296007.07847   -958642.11746  20367788.0784                   20367787.3914
        47.7504         36.7504
   -268821.89547   -164368.55144  20703610.1414                   20703607.3594
        46.0004         28.2504
    207506.35948    188123.41045  20377034.0634                   20377029.2814
        48.2504         32.0004
   1468739.25047   1153759.84444  22033034.5554                   22033036.2664
        42.2504         26.0004
 19  3  7 18 14  5.0000000  0  5G07G09G16G23G26
  -2200732.41047  -1650425.80545  22439618.4534                   22439615.8984
        47.5004         30.0004
  -1312629.39848   -971594.57046  20364625.0554                   20364624.2584
        48.2504         37.0004
   -278218.79347   -171690.78944  20701822.4924                   20701818.9064
        45.5004         29.5004
    200672.74247    182798.54345  20375733.6024                   20375728.6564
        46.5004         31.5004
   1470134.64147   1154847.18044  22033300.2194                   22033300.9694
        44.7504         29.0004
 19  3  7 18 14 10.0000000  0  5G07G09G16G23G26
  -2223457.85947  -1668133.95745  22435294.2194                   22435291.0164
        47.5004         30.0004
  -1329231.06648   -984530.94146  20361465.9454                   20361465.1024
        48.0004         36.5004
   -287591.89847   -178994.51244  20700039.0084                   20700035.8914
        46.5004         27.7504
    193858.90648    177489.03945  20374436.7504                   20374432.4574
        48.7504         32.7504
   1471545.93847   1155946.89544  22033569.5004                   22033569.6764
        43.0004         27.5004
 19  3  7 18 14 15.0000000  0  5G07G09G16G23G26
  -2246163.30047  -1685826.52644  22430971.1804                   22430970.9924
        44.7504         26.5004
  -1345810.58347   -997450.06745  20358308.8204                   20358310.2854
        45.0004         31.0004
   -296938.81247   -186277.83244  20698258.0314                   20698256.7814
        44.0004         25.2504
    187066.89547    172196.55544  20373142.5314                   20373139.7114
        46.5004         29.0004
   1472975.34446   1157060.68843  22033839.0704                   22033842.0434
        41.2504         22.7504
 19  3  7 18 14 20.0000000  0  5G07G09G16G23G26
  -2268850.56647  -1703504.91445  22426656.5704                   22426653.5744
        47.2504         31.2504
  -1362367.14548  -1010351.26646  20355160.3524                   20355159.3164
        48.2504         37.0004
   -306254.93047   -193537.12144  20696487.4924                   20696483.7974
        46.0004         27.7504
    180300.20347    166923.79345  20371856.8754                   20371851.7974
        47.2504         33.5004
   1474427.13747   1158191.98444  22034117.2344                   22034118.7584
        43.2504         26.2504
 19  3  7 18 14 25.0000000  0  5G07G09G16G23G26
  -2291547.64547  -1721190.93045  22422336.7664                   22422333.9494
        47.0004         31.0004
  -1378923.23447  -1023252.12146  20352009.4304                   20352008.3634
        47.2504         37.7504
   -315550.87147   -200780.73844  20694718.0234                   20694714.6334
        45.5004         28.5004
    173540.91047    161656.82445  20370570.1414                   20370565.1724
        47.5004         32.7504
   1475896.10547   1159336.61344  22034396.3364                   22034397.6954
        42.0004         27.2504
 19  3  7 18 14 30.0000000  0  5G07G09G16G23G26
  -2314228.46947  -1738864.30945  22418020.7504                   22418018.2544
        47.0004         30.7504
  -1395461.41448  -1036138.99646  20348862.0944                   20348861.5004
        48.5004         36.7504
   -324829.93047   -208011.15644  20692952.3524                   20692949.1174
        45.5004         28.0004
    166796.38747    156401.36745  20369287.0704                   20369282.4224
        46.5004         30.2504
   1477373.53947   1160487.84044  22034677.2424                   22034679.5084
        42.2504         24.7504
 19  3  7 18 14 35.0000000  0  5G07G09G16G23G26
  -2336908.15648  -1756536.79345  22413704.9304                   22413702.2814
        48.0004         31.0004
  -1411989.47648  -1049018.04146  20345717.4304                   20345717.1334
        48.0004         36.7504
   -334076.28947   -215216.16445  20691192.8204                   20691189.8284
        45.7504         30.2504
    160072.61348    151162.03145  20368007.5944                   20368002.8404
        48.5004         35.2504
   1478876.85947   1161659.25844  22034964.4534                   22034964.8014
        43.5004         27.0004
 19  3  7 18 14 40.0000000  0  5G07G09G16G23G26
  -2359561.80547  -1774188.92244  22409393.3754                   22409391.7074
        47.7504         29.2504
  -1428489.72747  -1061875.38745  20342576.7034                   20342576.3834
        47.5004         35.0004
   -343304.32847   -222406.75844  20689435.9774                   20689433.6724
        45.2504         27.2504
    153367.20747    145937.04745  20366731.0474                   20366726.9534
        47.0004         32.2504
   1480392.56647   1162840.31644  22035252.3134                   22035253.6764
        43.0004         25.2504
 19  3  7 18 14 45.0000000  0  5G07G09G16G23G26
  -2382210.64147  -1791837.48844  22405084.3914                   22405081.5944
        46.5004         29.5004
  -1444976.51647  -1074722.23446  20339440.0784                   20339439.0234
        47.2504         37.0004
   -352504.14147   -229575.51244  20687686.5164                   20687682.9264
        45.5004         28.2504
    146680.07847    140726.26245  20365459.2194                   20365453.9614
        46.5004         31.5004
   1481932.01647   1164039.89144  22035545.7974                   22035546.2854
        43.0004         25.0004
 19  3  7 18 14 50.0000000  0  5G07G09G16G23G26
  -2404862.06247  -1809487.90244  22400774.3054                   22400770.8204
        47.0004         28.5004
  -1461454.23848  -1087561.98046  20336304.4304                   20336302.9104
        49.0004         36.2504
   -361678.10247   -236724.01644  20685940.9614                   20685936.5824
        46.2504         29.0004
    140006.69147    135526.28145  20364189.7344                   20364183.8324
        47.5004         30.5004
   1483495.64147   1165258.31644  22035843.5474                   22035843.0354
        45.5004         26.5004
 19  3  7 18 14 55.0000000  0  5G07G09G16G23G26
  -2427505.31247  -1827131.94544  22396464.2274                   22396462.0234
        46.2504         28.0004
  -1477915.37547  -1100388.88345  20333170.5554                   20333170.4384
        47.7504         34.0004
   -370825.35956   -243852.10553  20684198.8444                   20684195.8324
        41.5004         22.5004
    133351.79348    130340.59445  20362921.7584                   20362916.9804
        48.0004         32.2504
   1485083.35247   1166495.46543  22036143.2974                   22036145.6604
        42.7504         22.0004
 19  3  7 18 15  0.0000000  0  5G07G09G16G23G26
  -2450139.91447  -1844769.30144  22392156.7194                   22392154.5234
        45.2504         28.2504
  -1494362.06247  -1113204.44545  20330040.6564                   20330041.4774
        45.2504         32.5004
   -379946.93747   -250959.72343  20682462.0234                   20682460.4064
        42.0004         22.7504
    126714.36747    125168.60245  20361658.3204                   20361654.0204
        46.5004         31.7504
   1486689.64146   1167747.15643  22036449.5084                   22036451.2664
        39.2504         23.2504
 19  3  7 18 15  5.0000000  0  5G07G09G16G23G26
  -2472762.68747  -1862397.49244  22387852.0004                   22387849.7154
        46.5004         28.2504
  -1510791.84447  -1126006.92645  20326914.8914                   20326914.4534
        46.0004         34.0004
   -389046.97347   -258050.71544  20680731.2194                   20680728.8754
        46.2504         29.0004
    120093.59447    120009.50445  20360398.7194                   20360394.0554
        47.7504         33.0004
   1488310.19946   1169009.83643  22036759.0474                   22036759.7384
        36.2504         23.0004
 19  3  7 18 15 10.0000000  0  5G07G09G16G23G26
  -2495376.30147  -1880018.52044  22383549.8204                   22383546.2734
        44.5004         27.5004
  -1527204.82347  -1138796.28545  20323791.8674                   20323791.1954
        46.0004         31.2504
   -398120.71047   -265121.18444  20679006.0004                   20679001.4344
        43.2504         26.2504
    113490.78047    114864.43545  20359142.8524                   20359137.7504
        45.5004         30.0004
   1489952.998 6                  22037071.695
        38.750
 19  3  7 18 15 15.0000000  0  5G07G09G16G23G26
  -2517980.28547  -1897631.98044  22379247.2974                   22379245.2074
        45.7504         28.7504
  -1543601.87547  -1151573.17645  20320671.4304                   20320670.9184
        45.7504         33.2504
   -407170.41447   -272172.87144  20677282.3674                   20677279.9774
        44.5004         28.0004
    106904.83247    109732.55145  20357889.0314                   20357884.8284
        46.5004         31.7504
   1491614.57846   1170194.71953  22037386.9064                   22037387.0594
        40.5004         20.7504
 19  3  7 18 15 20.0000000  0  5G07G09G16G23G26
  -2540572.60947  -1915236.34844  22374949.2504                   22374946.1294
        46.2504         29.0004
  -1559982.33247  -1164337.16445  20317555.3284                   20317553.8364
        46.5004         34.0004
   -416198.21947   -279207.52344  20675566.0314                   20675561.5204
        46.0004         28.7504
    100335.27048    104613.42245  20356639.9694                   20356633.8404
        48.5004         33.5004
   1493291.64547   1171501.51043  22037707.4844                   22037706.3244
        42.5004         20.2504
 19  3  7 18 15 25.0000000  0  5G07G09G16G23G26
  -2563154.53547  -1932832.62544  22370651.3284                   22370649.1054
        47.0004         28.5004
  -1576347.97347  -1177089.57445  20314440.0234                   20314440.0474
        46.2504         34.2504
   -425203.95347   -286224.98044  20673850.6174                   20673848.7074
        45.5004         29.5004
     93782.10247     99507.06645  20355392.5084                   20355387.9654
        47.7504         34.2504
                                  22038027.3524                   22038028.9964
        31.5004         19.5004
 19  3  7 18 15 30.0000000  0  5G07G09G16G23G26
  -2585728.21547  -1950422.49244  22366355.6484                   22366353.4344
        46.2504         29.5004
  -1592697.14947  -1189829.19045  20311329.7734                   20311328.8794
        46.5004         34.0004
   -434183.89547   -293222.31244  20672143.2894                   20672140.3134
        46.0004         29.5004
     87246.07048     94414.06645  20354149.4064                   20354144.2544
        48.5004         34.0004
   1496697.04747   1174155.07043  22038355.5084                   22038355.2584
        43.0004         19.2504
 19  3  7 18 15 35.0000000  0  5G07G09G16G23G26
  -2608284.69547  -1967998.98844  22362064.4064                   22362062.2774
        47.2504         29.5004
  -1609027.24647  -1202553.95345  20308222.6804                   20308222.5084
        46.7504         35.0004
   -443139.44947   -300200.66845  20670439.6954                   20670436.3794
        47.0004         32.5004
     80731.38348     89337.68845  20352909.6884                   20352905.1414
        48.5004         35.5004
   1498423.75847   1175500.54744  22038684.2734                   22038684.8054
        44.0004         27.5004
 19  3  7 18 15 40.0000000  0  5G07G09G16G23G26
  -2630826.90247  -1985564.40244  22357774.0234                   22357773.0514
        47.5004         29.7504
  -1625339.20347  -1215264.62945  20305117.9614                   20305120.4844
        45.7504         33.0004
   -452076.53947   -307164.70344  20668738.1804                   20668736.7854
        45.0004         27.0004
     74231.13747     84272.49245  20351672.3984                   20351669.2544
        47.7504         32.0004
   1500163.40246   1176856.02343  22039014.3754                   22039016.6914
        38.7504         22.2504
 19  3  7 18 15 45.0000000  0  5G07G09G16G23G26
  -2653370.28946  -2003130.65243  22353483.0164                   22353483.2934
        40.7504         22.5004
  -1641640.87947  -1227967.20744  20302015.1484                   20302016.1484
        42.5004         28.2504
   -460985.78147   -314106.95344  20667042.1484                   20667040.4804
        42.5004         26.5004
     67746.27747     79219.38744  20350437.9304                   20350434.3954
        44.7504         29.2504
   1501929.10246   1178232.01243  22039349.7894                   22039352.5124
        39.2504         22.5004
 19  3  7 18 15 50.0000000  0  5G07G09G16G23G26
  -2675913.30946  -2020696.61343  22349193.9924                   22349193.0394
        41.5004         21.7504
  -1657931.34047  -1240661.06644  20298915.2974                   20298915.7974
        44.0004         28.5004
   -469874.07047   -321032.89544  20665350.8364                   20665348.6684
        44.7504         29.7504
     61272.69147     74175.03145  20349206.0944                   20349201.8874
        46.2504         30.2504
   1503714.65246   1179623.30943  22039690.3054                   22039691.9964
        41.0004         23.5004
 19  3  7 18 15 55.0000000  0  5G07G09G16G23G26
  -2698459.31247  -2038264.94943  22344903.7504                   22344902.2344
        43.0004         22.0004
  -1674217.66047  -1253351.69144  20295816.3364                   20295816.3594
        43.2504         28.5004
   -478750.00847   -327949.16844  20663662.2344                   20663659.3364
        44.5004         27.2504
     54804.02347     69134.52745  20347975.0314                   20347970.9694
        46.2504         30.5004
   1505507.82446   1181020.59844  22040031.3204                   22040032.9734
        41.2504         25.0004
 19  3  7 18 16  0.0000000  0  5G07G09G16G23G26
  -2720991.42247  -2055822.38743  22340616.3284                   22340614.1174
        43.7504         22.0004
  -1690484.97747  -1266027.51644  20292720.5944                   20292720.7114
        43.7504         29.0004
   -487600.04747   -334845.32844  20661977.7344                   20661975.3134
        44.0004         27.7504
     48355.23047     64109.49645  20346748.1024                   20346743.9414
        47.0004         31.2504
   1507320.18846   1182432.82043  22040375.4224                   22040377.6564
        40.7504         22.7504
 19  3  7 18 16  5.0000000  0  5G07G09G16G23G26
  -2743505.44947  -2073365.79343  22336331.7584                   22336329.5594
        43.5004         22.7504
  -1706727.92647  -1278684.35544  20289629.7504                   20289630.1374
        44.0004         29.0004
   -496419.02047   -341717.23844  20660299.9144                   20660297.6024
        44.5004         28.0004
     41931.00847     59103.61345  20345525.5704                   20345521.2034
        47.0004         31.0004
   1509158.08246   1183864.95744  22040726.1954                   22040727.5234
        41.5004         24.2504
 19  3  7 18 16 10.0000000  0  5G07G09G16G23G26
  -2765990.88357  -2090886.69554  22332052.7814                   22332051.0124
        45.0004         24.0004
  -1722949.01257  -1291324.14154  20286543.1484                   20286543.2304
        44.7504         29.7504
   -505208.50847   -348566.07844  20658627.2344                   20658625.3524
        44.0004         28.0004
     35535.73447     54120.31345  20344309.0164                   20344304.3554
        46.2504         31.2504
   1511005.11356   1185304.23454  22041077.6884                   22041078.9614
        41.2504         25.0004
 19  3  7 18 16 15.0000000  0  5G07G09G16G23G26
  -2788468.58646  -2108401.85543  22327775.6174                   22327775.0824
        41.0004         22.5004
  -1739151.79747  -1303949.78944  20283459.6884                   20283462.1094
        44.0004         27.7504
   -513969.95757   -355393.38354  20656960.2424                   20656959.0124
        45.7504         28.7504
     29159.86347     49151.98445  20343095.5864                   20343092.8094
        47.2504         30.5004
   1512879.02047   1186764.29343  22041434.1094                   22041436.5434
        43.5004         23.2504
 19  3  7 18 16 20.0000000  0  5G07G09G16G23G26
  -2810939.13146  -2125911.37843  22323498.9064                   22323499.1644
        41.0004         22.5004
  -1755340.52847  -1316564.39044  20280378.2114                   20280380.4344
        43.5004         27.0004
   -522707.12947   -362201.56644  20655296.1024                   20655295.7424
        43.7504         27.0004
     22799.94547     44196.20744  20341883.8134                   20341881.4304
        45.0004         28.7504
   1514771.49646   1188238.94543  22041793.2114                   22041796.9024
        39.2504         23.7504
 19  3  7 18 16 25.0000000  0  5G07G09G16G23G26
  -2833405.758 7                  22319222.984
        43.000
  -1771518.34447  -1325136.37955  20277299.1254                   20277290.5704
        45.5004         34.7504
   -531421.656 7                  20653637.891
        45.750
     16454.15247     40437.52355  20340676.9384                   20340666.9064
        47.7504         34.5004
   1516681.176 7                  22042155.781
        42.000
 19  3  7 18 16 30.0000000  0  5G07G09G16G23G26
  -1280437.285 7                  22614743.961
        42.250
   -212256.19147   -109623.00855  20574017.9304                   20574014.6564
        45.0004         32.5004
   1035309.05147    859429.02055  20951777.5634                   20951776.4184
        44.2504         31.0004
   1585547.50847   1263304.58255  20639265.3524                   20639259.5554
        46.0004         32.0004
   3094026.65246   2416732.41854  22342316.0944                   22342319.1024
        41.2504         27.5004
 19  3  7 18 16 35.0000000  0  5G07G09G16G23G26
  -1302887.04747   -915108.76254  22610472.2344                   22610466.1374
        43.0004         24.5004
   -228403.59047   -122205.32444  20570944.8444                   20570946.0904
        43.0004         27.2504
   1026643.97347    852676.93444  20950128.5234                   20950128.1094
        43.0004         26.0004
   1579236.67247   1258387.00044  20638064.1484                   20638060.3054
        45.5004         26.0004
                                  22342686.5084                   22342690.2384
        40.5004         23.7504
 19  3  7 18 16 40.0000000  0  5G07G09G16G23G26
  -1325326.039 6                  22606202.398
        39.000
   -244533.63747   -134774.18443  20567876.1414                   20567876.4104
        43.0004         23.5004
   1018001.08647    845942.39544  20948484.8524                   20948483.9304
        43.5004         24.0004
   1572941.80347   1253482.02844  20636866.6414                   20636863.3204
        45.2504         24.7504
   3097937.97747   2419780.21543  22343061.0084                   22343064.0274
        42.2504         22.7504
 19  3  7 18 16 45.0000000  0  5G07G09G16G23G26
  -1347754.031 6                  22601933.477
        39.750
   -260643.47747   -146825.35154  20564809.8524                   20564811.8284
        43.0004         28.0004
   1009377.00047    839222.19144  20946842.7584                   20946842.0744
        42.2504         24.7504
   1566659.68847   1248586.78144  20635670.8834                   20635668.5434
        44.5004         27.2504
   3099920.92646   2421325.28143  22343437.1954                   22343441.1644
        39.7504         22.7504
 19  3  7 18 16 50.0000000  0  5G07G09G16G23G26
  -1370173.199 6                  22597666.828
        39.500
   -276739.10547   -159367.39844  20561747.1024                   20561749.1484
        43.5004         28.2504
   1000769.35947    832514.96144  20945205.0474                   20945203.7234
        42.5004         25.7504
   1560389.02347   1243700.57044  20634478.0474                   20634475.3594
        45.0004         26.5004
   3101915.16846   2422879.26243  22343817.4614                   22343820.9184
        40.0004         22.5004
 19  3  7 18 16 55.0000000  0  5G07G09G16G23G26
  -1392578.820 6                  22593403.773
        39.500
   -292815.37147   -171894.37144  20558688.0314                   20558689.9024
        43.7504         26.2504
    992188.14847    825828.30144  20943571.8054                   20943570.8094
        42.2504         26.0004
   1554138.36747   1238829.91844  20633288.4384                   20633285.7584
        45.0004         28.0004
   3103929.69146   2424449.03143  22344200.2504                   22344204.0234
        39.7504         21.7504
 19  3  7 18 17  0.0000000  0  5G07G09G16G23G26
  -1414964.980 6                  22589143.813
        39.750
   -308866.33647   -184401.60544  20555633.5784                   20555635.0004
        43.5004         27.0004
    983639.28947    819166.83644  20941944.9924                   20941943.7624
        42.5004         25.2504
   1547913.61347   1233979.46544  20632104.5394                   20632100.6804
        45.0004         26.7504
   3105970.43846   2426039.20343  22344589.0084                   22344592.1214
        39.5004         22.5004
 19  3  7 18 17  5.0000000  0  5G07G09G16G23G26
  -1437331.129 6                  22584887.992
        40.500
   -324891.37947   -196888.65244  20552584.6024                   20552585.4774
        43.5004         27.5004
    975123.44947    812531.13744  20940324.4774                   20940323.2734
        42.0004         25.5004
   1541715.46947   1229149.73844  20630924.6094                   20630921.5204
        44.5004         27.2504
   3108037.96946   2427650.26643  22344982.6414                   22344985.6884
        40.0004         22.5004
 19  3  7 18 17 10.0000000  0  5G07G09G16G23G26
  -1459677.84445   -936045.43453  22580634.5944                   22580635.8204
        31.7504         20.2504
   -340891.47746   -209356.27343  20549539.5004                   20549540.8914
        40.7504         21.5004
    966639.55547    805920.31344  20938709.9454                   20938708.6454
        43.0004         26.0004
   1535542.86347   1224339.89144  20629749.5784                   20629746.5594
        45.0004         28.5004
   3110131.28546   2429281.39143  22345380.4144                   22345383.7664
        39.7504         22.0004
 19  3  7 18 17 15.0000000  0  4G09G16G23G26
   -356867.90647   -221805.45343  20546498.6564                   20546499.9454
        42.0004         21.2504
    958186.44147    799333.46944  20937101.5234                   20937099.9304
        43.5004         27.0004
   1529394.59047   1219549.03544  20628579.6724                   20628575.8794
        45.2504         28.7504
   3112249.18446   2430931.70744  22345783.2114                   22345786.2974
        41.0004         25.0004
 19  3  7 18 17 20.0000000  0  5G07G09G16G23G26
  -1504322.41415                  22572140.422
        35.250
   -372821.85547   -234237.08243  20543463.6724                   20543464.4224
        44.0004         23.2504
    949762.85247    792769.59844  20935498.9844                   20935497.1054
        43.7504         27.5004
   1523269.46947   1214776.20745  20627414.7274                   20627411.3134
        47.0004         31.2504
   3114390.38746   2432600.19944  22346191.8284                   22346193.7624
        41.0004         25.5004
 19  3  7 18 17 25.0000000  0  5G07G09G16G23G26
  -1526619.24215                  22567897.164
        34.750
   -388754.10247   -246651.78143  20540431.5394                   20540432.7074
        43.0004         22.5004
    941368.06347    786228.22344  20933901.6484                   20933900.1684
        43.7504         27.5004
   1517166.78147   1210020.89145  20626253.2344                   20626250.1484
        45.7504         30.2504
   3116554.18846   2434286.28544  22346603.0474                   22346606.1214
        40.7504         25.0004
 19  3  7 18 17 30.0000000  0  5G07G09G16G23G26
  -1548900.832 6                  22563657.313
        36.250
   -404665.37547   -259050.18044  20537404.0234                   20537404.8014
        43.2504         25.0004
    933001.22347    779708.61344  20932309.1884                   20932307.5084
        43.5004         27.2504
   1511085.65247   1205282.35944  20625096.1954                   20625092.7774
        45.5004         28.5004
   3118739.71546   2435989.30143  22347019.5704                   22347021.9844
        41.0004         22.7504
 19  3  7 18 17 35.0000000  0  5G07G09G16G23G26
  -1571167.699 5                  22559420.836
        35.500
   -420556.11346   -271432.57843  20534380.1954                   20534381.2934
        41.7504         22.2504
    924661.81347    773210.40644  20930722.1884                   20930720.5234
        43.2504         27.5004
   1505025.57447   1200560.21945  20623943.3524                   20623939.6174
        46.0004         31.5004
   3120946.47346   2437708.82844  22347438.8834                   22347442.0314
        41.5004         26.0004
 19  3  7 18 17 40.0000000  0  5G07G09G16G23G26
  -1593420.012 6                  22555185.977
        36.250
   -436426.61747   -283799.20744  20531360.1884                   20531361.3364
        42.0004         24.2504
    916349.85247    766733.50844  20929140.2584                   20929138.6954
        43.5004         27.5004
   1498986.48047   1195854.43445  20622793.3754                   20622790.9924
        46.5004         30.7504
   3123174.36747   2439444.85244  22347863.1954                   22347865.6524
        42.0004         26.0004
 19  3  7 18 17 45.0000000  0  5G07G09G16G23G26
  -1615658.805 6                  22550954.172
        36.250
   -452277.28147   -296150.34844  20528343.8284                   20528344.9534
        43.5004         24.0004
    908064.57447    760277.47344  20927563.8984                   20927562.0434
        43.2504         25.7504
   1492967.78147   1191164.55544  20621648.3134                   20621645.3524
        45.5004         29.0004
   3125422.78946   2441196.86343  22348290.8524                   22348293.2854
        40.7504         22.5004
 19  3  7 18 17 50.0000000  0  5G07G09G16G23G26
  -1637884.047 5                  22546724.711
        35.500
   -468108.72347   -308486.55544  20525331.1024                   20525332.2074
        43.0004         24.5004
    899805.54347    753841.84444  20925992.5004                   20925990.6524
        44.0004         27.7504
   1486968.90247   1186490.08244  20620507.0314                   20620504.0554
        45.2504         29.7504
   3127691.16846   2442964.42244  22348722.4534                   22348725.5234
        41.2504         25.2504
 19  3  7 18 17 55.0000000  0  5G07G09G16G23G26
  -1660096.215 6                  22542497.617
        36.250
   -483921.23047   -320807.99644  20522322.2814                   20522323.3754
        42.7504         24.7504
    891572.41447    747426.42244  20924425.8054                   20924424.0984
        43.0004         26.5004
   1480989.55947   1181830.87144  20619369.1954                   20619365.8954
        45.0004         28.5004
   3129979.19546   2444747.29743  22349157.7504                   22349160.5944
        41.5004         23.7504
 19  3  7 18 18  0.0000000  0  5G07G09G16G23G26
  -1682295.355 6                  22538273.305
        36.750
   -499714.87547   -333114.72344  20519316.2034                   20519317.9414
        43.0004         25.0004
    883365.12547    741031.12944  20922864.0554                   20922862.5594
        43.0004         27.0004
   1475029.65247   1177186.78144  20618234.8754                   20618231.6054
        45.0004         28.5004
   3132286.76246   2446545.39843  22349596.4454                   22349599.6844
        40.5004         22.7504
 19  3  7 18 18  5.0000000  0  5G07G09G16G23G26
  -1704481.898 6                  22534051.461
        36.250
   -515489.98847   -345407.02344  20516314.9454                   20516315.8014
        43.2504         24.5004
    875183.34047    734655.72744  20921306.9614                   20921305.3914
        43.0004         26.0004
   1469088.90647   1172557.62544  20617104.7894                   20617101.3754
        45.0004         27.5004
   3134613.55146   2448358.51643  22350039.3054                   22350042.6764
        41.2504         23.2504
 19  3  7 18 18 10.0000000  0  5G07G09G16G23G26
  -1726655.535 5                  22529832.258
        35.750
   -531246.37146   -357684.72343  20513316.4694                   20513317.3284
        41.2504         22.0004
    867027.18447    728300.32444  20919755.3204                   20919753.9804
        42.5004         27.7504
   1463167.38747   1167943.44544  20615977.5164                   20615974.8524
        45.7504         29.5004
   3136959.71947   2450186.67644  22350485.8284                   22350489.3324
        42.2504         25.5004
 19  3  7 18 18 15.0000000  0  5G07G09G16G23G26
  -1748817.016 5                  22525614.289
        35.500
   -546984.66446   -369948.31643  20510321.3364                   20510322.9414
        41.7504         21.5004
    858896.13347    721964.42244  20918207.3754                   20918206.6804
        42.5004         26.2504
   1457264.58247   1163343.85244  20614854.3594                   20614851.5904
        45.7504         29.5004
   3139324.63747   2452029.48843  22350936.4224                   22350939.7234
        42.5004         22.5004
 19  3  7 18 18 20.0000000  0  5G07G09G16G23G26
  -1770966.008 5                  22521400.289
        30.000
   -562704.77747   -382197.76243  20507330.3754                   20507331.6724
        42.5004         22.0004
    850790.13747    715648.07844  20916665.6564                   20916664.3954
        44.2504         27.5004
   1451380.44947   1158758.81644  20613734.4614                   20613731.8244
        45.2504         28.5004
   3141708.30147   2453886.85943  22351389.7734                   22351393.2154
        42.0004         22.5004
 19  3  7 18 18 25.0000000  0  5G07G09G16G23G26
  -1793103.020 5                  22517186.969
        35.750
   -578406.60547   -394432.96143  20504341.9454                   20504343.2624
        43.0004         22.7504
    842709.46147    709351.36744  20915126.7894                   20915126.0704
        43.7504         26.5004
   1445515.35247   1154188.60244  20612618.1954                   20612615.4654
        45.2504         29.5004
   3144110.97346   2455759.02344  22351847.0164                   22351850.5864
        41.0004         24.0004
 19  3  7 18 18 30.0000000  0  5G07G09G16G23G26
  -1815227.453 5                  22512976.406
        35.750
   -594090.15247   -406653.90244  20501357.7274                   20501358.9844
        42.7504         24.0004
    834653.93447    703074.34444  20913594.1954                   20913593.1134
        43.7504         26.7504
   1439668.98447   1149633.00444  20611505.5944                   20611502.8284
        45.2504         28.5004
   3146532.45746   2457645.91844  22352307.6884                   22352310.9414
        40.7504         24.2504
 19  3  7 18 18 35.0000000  0  5G07G09G16G23G26
  -1837339.738 6                  22508769.531
        37.000
   -609755.68447   -418860.81243  20498376.6024                   20498377.7854
        43.0004         23.5004
    826623.31347    696816.73444  20912066.3364                   20912064.8984
        43.2504         26.0004
   1433841.18447   1145091.84844  20610396.7584                   20610394.3244
        44.5004         28.0004
   3148972.53546   2459547.25444  22352772.6884                   22352775.2424
        40.0004         24.2504
 19  3  7 18 18 40.0000000  0  5G07G09G16G23G26
  -1859440.230 6                  22504563.398
        36.250
   -625403.48047   -431053.90244  20495399.2344                   20495400.0044
        42.5004         24.2504
    818617.32447    690578.27744  20910542.2814                   20910541.2384
        42.5004         26.5004
   1428031.68447   1140564.97344  20609291.4694                   20609288.5554
        44.5004         27.7504
   3151430.88346   2461462.86343  22353240.2814                   22353243.5084
        40.0004         22.5004
 19  3  7 18 18 45.0000000  0  5G07G09G16G23G26
  -1881528.723 6                  22500359.945
        36.250
   -641033.39147   -443233.05144  20492424.4064                   20492425.6454
        43.2504         24.7504
    810636.09847    684359.14844  20909024.1644                   20909022.6724
        43.0004         26.5004
   1422240.65247   1136052.46944  20608189.5634                   20608186.3524
        44.5004         28.2504
   3153907.67246   2463392.80543  22353711.1334                   22353714.7304
        40.7504         23.7504
 19  3  7 18 18 50.0000000  0  5G07G09G16G23G26
  -1903605.137 6                  22496159.703
        36.000
   -656645.34447   -455398.19944  20489454.0314                   20489455.0984
        43.2504         24.5004
    802679.69947    678159.35944  20907510.5164                   20907508.5904
        42.7504         26.5004
   1416468.03147   1131554.32444  20607090.8524                   20607087.9574
        44.5004         28.2504
   3156402.92646   2465337.17643  22354185.5784                   22354189.4844
        41.0004         23.7504
 19  3  7 18 18 55.0000000  0  5G07G09G16G23G26
  -1925669.855 6                  22491960.391
        36.000
   -672239.68447   -467549.65644  20486486.5634                   20486487.7274
        43.7504         24.5004
    794747.80147    671978.66044  20906000.5554                   20905998.9494
        43.0004         25.7504
   1410713.60547   1127070.36344  20605995.8834                   20605993.1374
        44.5004         27.7504
   3158916.32046   2467295.67643  22354664.3204                   22354667.6644
        40.5004         22.7504
 19  3  7 18 19  0.0000000  0  5G07G09G16G23G26
  -1947722.785 6                  22487765.375
        36.000
   -687816.23847   -479687.21544  20483522.1484                   20483523.5204
        43.0004         24.7504
    786840.50847    665817.12544  20904495.7734                   20904493.9924
        42.7504         26.0004
   1404977.46147   1122600.64144  20604904.2344                   20604901.4844
        44.2504         26.7504
   3161447.94546   2469268.36343  22355145.8204                   22355149.4264
        40.0004         23.0004
 19  3  7 18 19  5.0000000  0  5G07G09G16G23G26
  -1969763.973 6                  22483569.320
        37.000
   -703375.22747   -491811.12144  20480561.7114                   20480562.5554
        43.2504         24.0004
    778957.64147    659674.63344  20902995.5004                   20902994.2584
        43.5004         26.7504
   1399259.42247   1118144.99244  20603816.2814                   20603813.0004
        44.7504         28.0004
   3163997.64846   2471255.10243  22355631.0634                   22355634.2584
        40.7504         22.2504
 19  3  7 18 19 10.0000000  0  5G07G09G16G23G26
  -1991793.359 6                  22479377.898
        36.000
   -718916.46547   -503921.14844  20477604.1094                   20477605.4694
        43.5004         24.0004
    771099.32047    653551.25844  20901500.3284                   20901499.1254
        43.5004         26.7504
   1393559.60947   1113703.59044  20602731.3984                   20602728.8484
        45.0004         27.7504
   3166565.47746   2473256.03143  22356119.4774                   22356122.8714
        41.0004         22.7504
 19  3  7 18 19 15.0000000  0  5G07G09G16G23G26
  -2013810.977 6                  22475188.234
        36.750
   -734440.00847   -516017.43444  20474650.5784                   20474651.6764
        44.0004         24.7504
    763265.58247    647447.04744  20900009.8834                   20900008.7344
        44.0004         26.5004
   1387878.03547   1109276.38344  20601650.5004                   20601647.5864
        45.2504         29.5004
   3169151.52046   2475271.09443  22356611.8754                   22356615.4454
        41.5004         22.7504
 19  3  7 18 19 20.0000000  0  5G07G09G16G23G26
  -2035817.133 5                  22471000.711
        35.750
   -749946.12147   -528100.12144  20471699.5084                   20471701.1054
        43.0004         25.5004
    755456.06647    641361.70344  20898523.5704                   20898522.3834
        43.2504         26.5004
   1382214.32447   1104863.11344  20600572.6564                   20600569.9574
        45.0004         27.5004
   3171755.34446   2477300.05943  22357107.2194                   22357110.7704
        40.2504         22.5004
 19  3  7 18 19 25.0000000  0  5G07G09G16G23G26
  -2057811.406 6                  22466815.922
        37.000
   -765434.43047   -540168.94144  20468751.9144                   20468753.2974
        43.0004         24.0004
    747671.17247    635295.55544  20897041.8594                   20897041.2234
        43.2504         26.7504
   1376568.98447   1100464.13744  20599498.7664                   20599495.4144
        45.0004         27.2504
   3174377.35546   2479343.19143  22357606.4064                   22357609.9694
        40.7504         23.0004
 19  3  7 18 19 30.0000000  0  5G07G09G16G23G26
  -2079793.973 6                  22462631.398
        36.500
   -780905.09047   -552223.99244  20465807.8364                   20465809.3054
        43.5004         24.5004
    739910.71947    629248.44544  20895564.7114                   20895564.1094
        43.2504         25.7504
   1370941.73847   1096079.27744  20598427.5554                   20598424.6684
        44.5004         28.5004
   3177017.39846   2481400.35543  22358109.6564                   22358112.1524
        41.0004         22.5004
 19  3  7 18 19 35.0000000  0  5G07G09G16G23G26
  -2101765.070 6                  22458451.031
        36.750
   -796358.35947   -564265.50044  20462866.7584                   20462868.8134
        43.5004         24.5004
    732174.50047    623220.22344  20894093.3284                   20894091.9344
        43.0004         26.2504
   1365332.39547   1091708.36344  20597359.4924                   20597357.2384
        44.5004         28.0004
   3179675.22346   2483471.39543  22358614.5634                   22358617.7664
        40.5004         22.7504
 19  3  7 18 19 40.0000000  0  5G07G09G16G23G26
  -2123724.723 6                  22454272.883
        36.500
   -811794.24247   -576293.45743  20459929.9774                   20459931.2464
        43.5004         23.7504
    724462.36747    617210.78544  20892625.9064                   20892624.6454
        43.0004         26.5004
   1359740.89147   1087351.34844  20596295.6094                   20596293.3954
        44.2504         28.2504
   3182350.74246   2485556.22343  22359123.7194                   22359126.9574
        40.5004         22.0004
 19  3  7 18 19 45.0000000  0  5G07G09G16G23G26
  -2145672.855 6                  22450095.328
        37.000
   -827212.64847   -588307.81244  20456996.3284                   20456997.3754
        43.5004         25.0004
    716774.50447    611220.22344  20891162.5944                   20891161.5704
        42.7504         26.0004
   1354167.36347   1083008.33644  20595235.0864                   20595232.7464
        44.5004         27.5004
   3185044.06346   2487654.90243  22359636.4844                   22359639.5904
        39.2504         22.0004
 19  3  7 18 19 50.0000000  0  5G07G09G16G23G26
  -2167609.543 5                  22445921.266
        35.750
   -842613.69947   -600308.61744  20454064.8524                   20454066.4384
        44.0004         24.5004
    709110.78947    605248.49244  20889703.7814                   20889703.0274
        43.2504         26.7504
   1348611.66047   1078679.19144  20594177.9064                   20594175.6644
        44.5004         28.0004
   3187755.09046   2489767.36743  22360152.6024                   22360155.3364
        39.5004         22.7504
 19  3  7 18 19 55.0000000  0  4G09G16G23G26
   -857997.69547   -612296.17644  20451137.9844                   20451139.3954
        43.0004         24.2504
    701470.73447    599295.23844  20888250.3754                   20888248.8524
        43.2504         27.5004
   1343073.40647   1074363.68444  20593124.4614                   20593121.7504
        44.0004         29.0004
   3190483.37547   2491893.30143  22360671.6724                   22360674.4734
        42.0004         22.7504
 19  3  7 18 20  0.0000000  0  5G07G09G16G23G26
  -2211449.43416                  22437578.664
        41.500
   -873364.27747   -624270.12144  20448213.1024                   20448215.4024
        45.2504         29.0004
    693855.01647    593360.90644  20886801.3754                   20886799.7584
        43.7504         27.7504
   1337553.15247   1070062.16044  20592073.9694                   20592070.9844
        46.0004         29.5004
   3193229.42646   2494033.07444  22361193.8524                   22361197.3094
        41.5004         25.0004
 19  3  7 18 20  5.0000000  0  5G07G09G16G23G26
  -2233352.26246   -945720.31654  22433410.8284                   22433406.1524
        41.7504         25.7504
   -888713.61347   -636230.64544  20445292.4224                   20445293.8874
        44.2504         29.2504
    686263.20347    587445.19544  20885356.2664                   20885355.2114
        43.5004         27.5004
   1332050.57047   1065774.44144  20591027.1254                   20591023.8094
        46.0004         29.5004
   3195992.92246   2496186.46543  22361719.5314                   22361722.8324
        41.5004         22.5004
 19  3  7 18 20 10.0000000  0  5G07G09G16G23G26
  -2255243.84046   -962778.68444  22429244.7814                   22429242.2344
        41.7504         24.2504
   -904045.73447   -648177.75444  20442375.0554                   20442376.3524
        44.2504         27.5004
    678695.32447    581548.14844  20883916.1954                   20883915.2584
        43.7504         27.7504
   1326565.62147   1061500.45344  20589983.4774                   20589980.2544
        46.0004         29.5004
   3198773.91046   2498353.46143  22362248.9694                   22362252.2154
        41.2504         23.5004
 19  3  7 18 20 15.0000000  0  5G07G09G16G23G26
  -2277124.18046   -979828.30944  22425080.8984                   22425079.2384
        41.7504         25.2504
   -919360.63347   -660111.44544  20439460.3754                   20439462.3834
        44.2504         28.2504
    671151.38347    575669.75044  20882481.2034                   20882479.6804
        43.5004         27.0004
   1321098.32047   1057240.21144  20588942.9224                   20588940.0274
        46.0004         29.7504
   3201572.31346   2500534.02344  22362781.4924                   22362784.7974
        41.0004         25.5004
 19  3  7 18 20 20.0000000  0  5G07G09G16G23G26
  -2298993.16846   -996869.06644  22420919.7344                   22420918.4774
        41.7504         25.2504
   -934658.23047   -672031.64844  20436549.5554                   20436550.9844
        44.2504         27.7504
    663631.44947    569810.04344  20881050.0554                   20881048.4924
        43.2504         27.0004
   1315648.76247   1052993.80544  20587905.8364                   20587903.2074
        45.7504         29.2504
   3204388.19546   2502728.21543  22363317.2584                   22363321.1214
        41.2504         23.7504
 19  3  7 18 20 25.0000000  0  5G07G09G16G23G26
  -2320850.94547  -1013901.10944  22416759.8984                   22416759.3754
        42.0004         24.5004
   -949938.66447   -683938.47744  20433641.6644                   20433643.2344
        44.2504         28.2504
    656135.39147    563968.97344  20879622.9844                   20879621.7774
        43.5004         27.2504
   1310216.76247   1048761.07444  20586871.8364                   20586869.3754
        45.7504         29.2504
   3207221.44546   2504935.91843  22363857.1884                   22363859.8324
        41.5004         22.2504
 19  3  7 18 20 30.0000000  0  5G07G09G16G23G26
  -2342697.48846  -1030924.39544  22412603.0314                   22412602.3834
        41.7504         25.0004
   -965201.93047   -695831.93444  20430737.2734                   20430738.4924
        44.5004         27.7504
    648663.20747    558146.48044  20878201.1254                   20878200.4184
        43.2504         27.5004
   1304802.37147   1044542.06344  20585841.8364                   20585838.6844
        46.0004         29.7504
   3210072.04346   2507157.15643  22364399.5704                   22364402.1174
        41.7504         23.0004
 19  3  7 18 20 35.0000000  0  5G07G09G16G23G26
  -2364532.92646  -1047939.02044  22408447.6254                   22408447.6914
        41.5004         26.0004
   -980448.10247   -707712.07844  20427835.7584                   20427837.4384
        44.0004         28.0004
    641214.76247    552342.50044  20876783.9534                   20876782.8554
        43.2504         27.0004
   1299405.49647   1040336.71144  20584815.2584                   20584811.5664
        46.0004         29.5004
   3212939.82447   2509391.80943  22364944.4844                   22364948.1134
        42.0004         23.5004
 19  3  7 18 20 40.0000000  0  5G07G09G16G23G26
  -2386357.34846  -1064945.06244  22404294.6334                   22404294.3054
        41.5004         26.0004
   -995677.29747   -719578.97344  20424938.3674                   20424939.2854
        44.5004         27.2504
    633789.97747    546556.94944  20875371.5004                   20875370.0944
        43.5004         27.5004
   1294026.02047   1036144.91044  20583791.6094                   20583788.4224
        46.0004         29.5004
   3215824.76646   2511639.82043  22365493.2034                   22365497.3634
        41.2504         22.7504
 19  3  7 18 20 45.0000000  0  5G07G09G16G23G26
  -2408170.77046  -1081942.52744  22400143.7344                   22400143.6884
        41.5004         24.0004
  -1010889.47347   -731432.62144  20422043.2344                   20422044.7814
        44.0004         28.5004
    626388.82447    540789.82444  20873962.7584                   20873961.7074
        44.0004         27.0004
   1288663.94947   1031966.67244  20582770.4694                   20582767.6254
        45.7504         29.2504
   3218726.77746   2513901.10944  22366045.9304                   22366049.7894
        41.5004         24.0004
 19  3  7 18 20 50.0000000  0  5G07G09G16G23G26
  -2429973.04746  -1098931.32044  22395995.3594                   22395994.6484
        41.7504         24.0004
  -1026084.55947   -743272.94544  20419151.7894                   20419153.4104
        44.5004         28.7504
    619011.40647    535041.18044  20872559.0704                   20872557.4064
        43.5004         26.5004
   1283319.38747   1027802.07844  20581753.4614                   20581750.7304
        46.0004         29.5004
   3221646.02747   2516175.84843  22366601.7194                   22366604.5554
        42.0004         22.7504
 19  3  7 18 20 55.0000000  0  5G07G09G16G23G26
  -2451764.13746  -1115911.37144  22391848.1564                   22391847.8364
        41.5004         25.5004
  -1041262.49247   -755099.91444  20416263.4694                   20416264.8164
        44.2504         28.2504
    611657.81347    529311.09844  20871159.2734                   20871158.5514
        43.7504         26.2504
   1277992.32047   1023651.10944  20580740.0554                   20580736.8984
        45.7504         28.5004
   3224582.45746   2518463.99643  22367159.7274                   22367163.5784
        41.2504         23.5004
 19  3  7 18 21  0.0000000  0  5G07G09G16G23G26
  -2473544.10246  -1132882.78144  22387703.6174                   22387703.1374
        41.7504         24.0004
  -1056423.34847   -766913.56644  20413378.3524                   20413380.0664
        44.7504         28.2504
    604327.91047    523599.48844  20869764.9454                   20869763.7854
        43.5004         27.0004
   1272682.73047   1019513.76644  20579729.8054                   20579726.9534
        45.7504         29.2504
   3227536.05946   2520765.48443  22367721.9384                   22367725.5084
        40.5004         22.7504
 19  3  7 18 21  5.0000000  0  5G07G09G16G23G26
  -2495313.08246  -1149845.62944  22383560.9534                   22383560.9104
        41.5004         25.0004
  -1071567.18747   -778713.95744  20410496.3754                   20410498.1914
        44.5004         28.2504
    597021.64547    517906.28944  20868373.9144                   20868373.6094
        43.5004         27.2504
   1267390.57447   1015390.00444  20578722.5234                   20578719.4654
        46.0004         29.5004
   3230506.73846   2523080.27043  22368288.3134                   22368291.0234
        41.0004         22.7504
 19  3  7 18 21 10.0000000  0  5G07G09G16G23G26
  -2517071.16046  -1166799.96544  22379420.7584                   22379421.0314
        41.7504         24.7504
  -1086694.13747   -790501.19944  20407618.1254                   20407619.3984
        44.5004         28.0004
    589738.87547    512231.40244  20866988.9924                   20866987.4494
        43.5004         27.0004
   1262115.69147   1011279.70744  20577718.7274                   20577715.8714
        45.7504         28.7504
   3233494.28146   2525408.22743  22368856.5084                   22368859.6294
        41.5004         23.5004
 19  3  7 18 21 15.0000000  0  5G07G09G16G23G26
  -2538818.09846  -1183745.62944  22375282.0314                   22375282.0664
        41.7504         24.5004
  -1101803.88347   -802275.02744  20404742.4454                   20404744.4414
        44.2504         27.5004
    582479.87547    506575.03944  20865607.1334                   20865606.3674
        43.5004         26.5004
   1256858.36747   1007183.09444  20576718.1024                   20576715.4964
        45.5004         29.0004
   3236498.97747   2527749.56343  22369428.4384                   22369431.4064
        42.0004         22.7504
 19  3  7 18 21 20.0000000  0  5G07G09G16G23G26
  -2560554.09046  -1200682.77044  22371146.1804                   22371146.2544
        41.7504         24.5004
  -1116896.68747   -814035.64844  20401870.9144                   20401872.5044
        45.0004         27.5004
    575244.39547    500936.99644  20864229.6954                   20864229.6214
        42.7504         26.2504
   1251618.38747   1003099.99244  20575720.9384                   20575718.5044
        45.5004         29.5004
   3239520.68046   2530104.13343  22370002.6254                   22370006.4614
        40.7504         22.7504
 19  3  7 18 21 25.0000000  0  5G07G09G16G23G26
  -2582279.13746  -1217611.36744  22367011.7584                   22367012.0004
        41.7504         25.2504
  -1131972.52747   -825783.05944  20399002.0784                   20399003.7154
        44.0004         27.7504
    568032.46147    495317.31344  20862858.2424                   20862857.0354
        43.7504         26.7504
   1246395.69547    999030.35244  20574727.3754                   20574724.6724
        46.0004         28.7504
   3242559.28946   2532471.85943  22370581.1804                   22370584.5594
        41.0004         23.7504
 19  3  7 18 21 30.0000000  0  5G07G09G16G23G26
  -2603993.21146  -1234531.44143  22362880.2114                   22362879.9614
        41.7504         23.7504
  -1147031.39147   -837517.23444  20396136.3444                   20396138.3594
        44.2504         28.2504
    560844.03147    489715.92644  20861490.0394                   20861489.0634
        43.2504         27.5004
   1241190.29347    994974.18844  20573736.5944                   20573733.8594
        45.5004         29.0004
   3245614.82046   2534852.78543  22371162.5784                   22371165.9734
        41.5004         22.7504
 19  3  7 18 21 35.0000000  0  5G07G09G16G23G26
  -2625696.36346  -1251442.97344  22358749.8284                   22358749.8484
        41.7504         25.0004
  -1162073.33647   -849238.23844  20393273.5474                   20393275.5354
        43.7504         27.5004
    553679.09447    484132.86344  20860126.6954                   20860125.5594
        43.0004         26.0004
   1236002.19547    990931.51244  20572749.4774                   20572746.6994
        46.0004         29.0004
   3248687.22346   2537246.88743  22371746.8054                   22371750.7384
        41.2504         22.7504
 19  3  7 18 21 40.0000000  0  5G07G09G16G23G26
  -2647388.40646  -1268345.87543  22354621.7114                   22354621.8674
        41.7504         22.7504
  -1177098.16047   -860945.90244  20390414.8134                   20390416.5904
        43.7504         28.0004
    546537.96947    478568.34044  20858768.1414                   20858766.8484
        43.2504         27.0004
   1230831.59447    986902.47744  20571765.6804                   20571763.0634
        45.5004         29.0004
   3251776.59446   2539654.18443  22372334.5474                   22372338.4384
        41.0004         22.7504
 19  3  7 18 21 45.0000000  0  5G07G09G16G23G26
  -2669069.33646  -1285240.07843  22350496.4694                   22350496.0274
        36.5004         22.5004
  -1192106.10247   -872640.39844  20387558.4844                   20387560.8954
        42.5004         26.5004
    539420.22747    473022.05144  20857413.1334                   20857412.5984
        42.7504         25.7504
   1225678.20747    982886.85544  20570784.9064                   20570782.2974
        45.5004         27.5004
   3254882.82446   2542074.61743  22372926.6724                   22372930.0744
        40.5004         22.7504
 19  3  7 18 21 50.0000000  0  5G07G09G16G23G26
  -2690739.457 5                  22346372.070
        33.500
  -1207096.98046   -884321.60943  20384706.0004                   20384708.4024
        41.0004         22.5004
    532325.97347    467494.05544  20856063.3914                   20856062.3014
        43.2504         26.7504
   1220542.19547    978884.75445  20569807.5704                   20569805.0514
        46.7504         30.0004
   3258005.86346   2544508.14543  22373520.3204                   22373523.7664
        40.2504         22.7504
 19  3  7 18 21 55.0000000  0  5G07G09G16G23G26
  -2712398.680 6                  22342250.820
        36.000
  -1222071.00047   -895989.68444  20381857.2504                   20381858.8404
        43.5004         24.2504
    525255.16447    461984.32444  20854717.7664                   20854716.5664
        42.2504         26.2504
   1215423.44947    974896.13744  20568833.7194                   20568830.9184
        45.0004         29.0004
   3261145.84846   2546954.91443  22374118.4614                   22374121.4414
        40.2504         22.7504
 19  3  7 18 22  0.0000000  0  5G07G09G16G23G26
  -2734046.977 5                  22338131.055
        32.500
  -1237027.85247   -907644.36344  20379011.1804                   20379012.6374
        43.0004         25.7504
    518207.95747    456492.99244  20853376.3754                   20853376.1294
        42.7504         28.7504
   1210322.05947    970920.99245  20567862.8134                   20567860.2304
        45.7504         31.5004
   3264302.66046   2549414.71944  22374718.6884                   22374722.6334
        41.0004         25.0004
 19  3  7 18 22  5.0000000  0  5G07G09G16G23G26
  -2755684.066 5                  22334013.945
        32.500
  -1251967.77747   -919285.87144  20376167.6414                   20376169.9574
        42.0004         24.0004
    511184.18447    451019.91444  20852040.1174                   20852039.6914
        43.5004         28.7504
   1205237.96947    966959.37945  20566895.4774                   20566892.9064
        45.0004         30.5004
   3267476.29746   2551887.67244  22375322.4774                   22375326.4064
        41.5004         26.2504
 19  3  7 18 22 10.0000000  0  5G07G09G16G23G26
  -2777310.164 6                  22329898.883
        37.000
  -1266890.64147   -930914.12545  20373328.0084                   20373329.7154
        44.5004         31.0004
    504183.95747    445565.18445  20850708.4534                   20850707.2074
        43.0004         30.0004
   1200171.25447    963011.29745  20565931.5084                   20565928.6604
        45.2504         31.2504
   3270666.78546   2554373.75844  22375929.6954                   22375933.3634
        40.7504         27.0004
 19  3  7 18 22 15.0000000  0  5G07G09G16G23G26
  -2798925.340 6                  22325786.047
        36.250
  -1281796.44947   -942529.00444  20370491.8594                   20370493.1294
        43.7504         27.5004
    497207.19147    440128.73445  20849380.5784                   20849379.6294
        42.5004         30.0004
   1195121.86347    959076.68445  20564970.5004                   20564967.6374
        44.5004         32.0004
   3273874.08246   2556872.94944  22376540.4064                   22376543.5744
        40.5004         27.7504
 19  3  7 18 22 20.0000000  0  5G07G09G16G23G26
  -2820530.33216                  22321674.695
        41.500
  -1296685.73047   -954131.04345  20367658.0004                   20367660.0944
        44.5004         31.5004
    490253.47347    434710.27345  20848057.0704                   20848056.2274
        42.5004         30.2504
   1190089.30947    955155.21145  20564012.5784                   20564009.9224
        45.2504         31.7504
   3277097.67646   2559384.84844  22377153.7894                   22377157.5984
        41.2504         27.2504
 19  3  7 18 22 25.0000000  0  5G07G09G16G23G26
  -2842123.72346  -1292655.66054  22317565.5394                   22317561.2894
        41.7504         29.5004
  -1311557.59447   -965719.51245  20364828.4384                   20364829.9774
        44.0004         31.0004
    483323.60947    429310.36744  20846738.8134                   20846738.1024
        42.7504         29.7504
   1185074.41847    951247.51245  20563057.9694                   20563055.8134
        45.0004         32.2504
   3280338.44146   2561910.11344  22377770.6334                   22377774.2664
        41.5004         28.5004
 19  3  7 18 22 30.0000000  0  5G07G09G16G23G26
  -2863706.10246  -1309473.10944  22313458.5864                   22313456.7344
        41.7504         29.2504
  -1326412.44947   -977294.73045  20362001.6954                   20362003.2734
        43.7504         32.0004
    476417.19947    423928.75045  20845424.0004                   20845423.4454
        42.5004         30.2504
   1180076.84447    947353.29345  20562106.8674                   20562105.0004
        45.2504         32.2504
   3283595.96546   2564448.46544  22378389.0864                   22378394.1604
        40.2504         27.5004
 19  3  7 18 22 35.0000000  0  5G07G09G16G23G26
  -2885277.53546  -1326282.02344  22309353.5164                   22309352.7344
        41.5004         29.0004
  -1341250.27747   -988856.67245  20359177.8364                   20359179.7934
        43.7504         31.5004
    469534.25447    418565.41844  20844114.7424                   20844113.8204
        43.2504         29.5004
   1175096.58647    943472.57045  20561159.3364                   20561156.9774
        45.2504         32.0004
   3286870.24246   2566999.80544  22379013.7664                   22379017.2114
        39.7504         27.5004
 19  3  7 18 22 40.0000000  0  5G07G09G16G23G26
  -2906838.04746  -1343082.42244  22305250.3054                   22305249.9264
        41.7504         29.2504
  -1356071.14147  -1000405.40245  20356357.7734                   20356359.3094
        44.0004         31.7504
    462674.68047    413220.28944  20842809.1564                   20842808.3014
        43.0004         29.7504
   1170133.57047    939605.28145  20560215.3134                   20560212.6844
        45.5004         32.5004
   3290161.19146   2569564.17244  22379640.0004                   22379642.8364
        41.0004         27.2504
 19  3  7 18 22 45.0000000  0  5G07G09G16G23G26
  -2928387.65646  -1359874.31645  22301150.1174                   22301150.0394
        41.7504         30.7504
  -1370875.07847  -1011940.93445  20353540.6564                   20353542.1484
        44.0004         31.7504
    455838.46947    407893.36744  20841507.9694                   20841507.3914
        43.2504         29.7504
   1165187.75447    935751.39545  20559274.0234                   20559271.0514
        45.2504         32.2504
   3293468.72347   2572141.47344  22380269.8284                   22380272.5354
        42.0004         25.5004
 19  3  7 18 22 50.0000000  0  5G07G09G16G23G26
  -2949926.24246  -1376657.63344  22297050.9534                   22297051.4574
        41.7504         29.7504
  -1385661.92247  -1023463.14845  20350726.4844                   20350728.6094
        44.0004         32.0004
    449025.74247    402584.75444  20840211.3134                   20840210.5664
        43.0004         29.7504
   1160259.29347    931911.03945  20558336.3914                   20558333.5354
        45.0004         32.7504
   3296793.01646   2574731.84044  22380901.3204                   22380905.2584
        41.0004         26.5004
 19  3  7 18 22 55.0000000  0  5G07G09G16G23G26
  -2971453.75847  -1393432.31244  22292954.8524                   22292954.8524
        42.0004         29.7504
  -1400431.66047  -1034972.03545  20347915.9144                   20347917.5824
        44.2504         32.2504
    442236.48047    397294.43045  20838920.5394                   20838919.0084
        43.5004         30.0004
   1155348.16847    928084.18445  20557401.6414                   20557399.0554
        45.5004         32.7504
   3300134.07846   2577335.26644  22381537.3204                   22381540.6454
        41.2504         27.0004
 19  3  7 18 23  0.0000000  0  5G07G09G16G23G26
  -2992970.57447  -1410198.65644  22288860.3204                   22288859.9344
        42.0004         29.2504
  -1415184.59847  -1046467.83245  20345108.7974                   20345110.1414
        44.5004         31.2504
    435470.41047    392022.15644  20837632.4144                   20837631.5354
        42.5004         29.7504
   1150454.09847    924270.62145  20556470.5474                   20556467.6884
        45.7504         32.5004
   3303491.52047   2579951.45344  22382176.6174                   22382180.1994
        42.0004         27.7504
 19  3  7 18 23  5.0000000  0  5G07G09G16G23G26
  -3014476.49247  -1426956.51644  22284767.7974                   22284767.6764
        42.0004         29.7504
  -1429920.62947  -1057950.45345  20342304.5474                   20342306.0984
        44.0004         31.5004
    428727.62947    386768.03545  20836349.2734                   20836348.7464
        42.7504         30.0004
   1145577.17647    920470.41445  20555542.9614                   20555539.8954
        45.7504         32.5004
   3306865.50046   2582580.53144  22382818.1724                   22382822.1604
        40.7504         27.2504
 19  3  7 18 23 10.0000000  0  5G07G09G16G23G26
  -3035971.39547  -1443705.78545  22280677.5394                   22280677.2974
        42.0004         30.0004
  -1444639.53947  -1069419.73445  20339503.6804                   20339505.2114
        44.0004         31.5004
    422008.28147    381532.18444  20835070.6414                   20835069.8984
        42.7504         29.7504
   1140717.62547    916683.75845  20554617.9924                   20554615.1174
        45.7504         32.0004
   3310256.19146   2585222.62944  22383463.3914                   22383467.0784
        40.5004         27.7504
 19  3  7 18 23 15.0000000  0  5G07G09G16G23G26
  -3057455.25446  -1460446.45745  22276589.2894                   22276589.4064
        41.7504         30.0004
  -1459341.37147  -1080875.71545  20336705.9924                   20336707.5044
        44.0004         31.7504
    415312.39847    376314.60544  20833796.7344                   20833795.7274
        43.0004         29.7504
   1135875.39547    912910.58245  20553696.5554                   20553693.6644
        45.5004         32.5004
   3313663.56346   2587877.69544  22384112.8054                   22384115.8444
        41.2504         27.2504
 19  3  7 18 23 20.0000000  0  5G07G09G16G23G26
  -3078928.25047  -1477178.66444  22272503.1414                   22272502.7544
        42.0004         29.5004
  -1474026.28547  -1092318.50445  20333911.4534                   20333913.4614
        43.5004         31.2504
    408639.81647    371115.19544  20832526.0554                   20832525.8134
        42.5004         29.5004
   1131050.31347    909150.78145  20552777.6174                   20552775.4224
        45.2504         32.2504
   3317087.38346   2590545.60244  22384764.2664                   22384767.4574
        41.5004         26.7504
 19  3  7 18 23 25.0000000  0  5G07G09G16G23G26
  -3100390.35946  -1493902.37544  22268419.2194                   22268419.1914
        41.7504         29.5004
  -1488694.21147  -1103748.05945  20331120.4224                   20331122.0474
        43.7504         31.5004
    401990.57447    365933.94945  20831261.0864                   20831260.9304
        42.5004         30.2504
   1126242.42247    905404.36345  20551863.5704                   20551860.4964
        45.2504         32.5004
   3320527.75846   2593226.41044  22385418.3674                   22385421.7894
        41.0004         26.5004
 19  3  7 18 23 30.0000000  0  5G07G09G16G23G26
  -3121841.80146  -1510617.79344  22264337.0634                   22264336.6914
        41.7504         29.7504
  -1503345.38747  -1115164.55945  20328332.2974                   20328334.1724
        43.5004         31.2504
    395364.30547    360770.63344  20830000.9304                   20830000.1724
        43.2504         29.5004
   1121451.48047    901671.16045  20550951.3204                   20550948.6564
        45.2504         32.2504
   3323984.37146   2595919.86744  22386076.2344                   22386079.3484
        41.0004         26.7504
 19  3  7 18 23 35.0000000  0  5G07G09G16G23G26
  -3143282.51646  -1527324.84444  22260256.4224                   22260256.8674
        41.5004         29.2504
  -1517979.75447  -1126567.96545  20325547.4534                   20325549.5124
        43.7504         30.7504
    388761.18047    355625.33645  20828744.1094                   20828743.0124
        42.7504         30.0004
   1116677.55947    897951.22345  20550043.1484                   20550040.3134
        45.0004         32.0004
   3327457.29346   2598626.03944  22386736.6174                   22386740.6564
        40.7504         26.5004
 19  3  7 18 23 40.0000000  0  5G07G09G16G23G26
  -3164712.67646  -1544023.66444  22256179.1804                   22256178.6254
        41.5004         28.7504
  -1532597.53947  -1137958.44945  20322765.6334                   20322767.5314
        44.0004         31.5004
    382180.93047    350497.85244  20827491.6334                   20827490.5704
        42.2504         29.5004
   1111920.42647    894244.35945  20549137.6094                   20549134.9774
        45.0004         31.7504
   3330946.28946   2601344.73444  22387400.6414                   22387404.0634
        40.7504         26.2504
 19  3  7 18 23 45.0000000  0  5G07G09G16G23G26
  -3186131.91846  -1560713.98844  22252103.3674                   22252102.7424
        41.7504         29.2504
  -1547198.32047  -1149335.68445  20319987.3834                   20319989.2584
        43.7504         31.0004
    375624.00447    345388.57044  20826243.4454                   20826243.2154
        43.0004         29.5004
   1107180.50847    890550.91445  20548235.9384                   20548233.1254
        45.0004         32.0004
   3334451.77046   2604076.27744  22388067.3674                   22388071.6684
        40.5004         26.7504
 19  3  7 18 23 50.0000000  0  5G07G09G16G23G26
  -3207540.37546  -1577395.90644  22248029.0004                   22248028.8054
        41.7504         29.0004
  -1561782.20347  -1160699.74245  20317211.9304                   20317213.9654
        44.0004         31.2504
    369090.23447    340297.31644  20825000.3364                   20824999.8404
        42.5004         29.2504
   1102457.62147    886870.73845  20547336.8444                   20547334.0634
        45.0004         31.7504
   3337973.58646   2606820.53544  22388739.0944                   22388741.4804
        41.0004         26.5004
 19  3  7 18 23 55.0000000  0  5G07G09G16G23G26
  -3228937.90246  -1594069.30145  22243957.6174                   22243956.8914
        41.7504         30.0004
  -1576349.07847  -1172050.55945  20314440.1254                   20314442.0274
        43.7504         31.0004
    362579.77347    335224.23044  20823762.0864                   20823761.0044
        42.7504         29.2504
   1097751.92247    883203.96545  20546441.4694                   20546438.6054
        45.0004         31.7504
   3341511.84446   2609577.62144  22389411.0084                   22389415.0474
        40.7504         26.2504
 19  3  7 18 24  0.0000000  0  5G07G09G16G23G26
  -3250324.80946  -1610734.42244  22239887.7034                   22239887.5044
        41.7504         29.5004
  -1590899.24647  -1183388.35545  20311671.5474                   20311672.7894
        43.5004         31.5004
    356092.26647    330169.02344  20822527.4144                   20822526.1994
        42.5004         29.5004
   1093063.11747    879550.34445  20545549.1804                   20545546.4384
        45.0004         31.5004
   3345066.20746   2612347.25044  22390087.3364                   22390091.4184
        40.7504         27.2504
 19  3  7 18 24  5.0000000  0  5G07G09G16G23G26
  -3271701.23846  -1627391.37945  22235819.5394                   22235819.6134
        41.7504         30.0004
  -1605432.84447  -1194713.23845  20308905.5004                   20308906.8954
        43.2504         30.7504
    349627.57447    325131.60544  20821296.8444                   20821296.2734
        43.0004         29.0004
   1088391.02747    875909.74245  20544660.3444                   20544657.4844
        45.0004         31.2504
   3348636.52746   2615129.30544  22390767.4614                   22390770.4024
        40.7504         27.0004
 19  3  7 18 24 10.0000000  0  5G07G09G16G23G26
  -3293067.32046  -1644040.27344  22231753.6254                   22231753.8444
        41.5004         29.7504
  -1619950.01647  -1206025.32445  20306143.1564                   20306144.3674
        43.7504         31.0004
    343185.53547    320111.82444  20820071.0864                   20820070.1994
        43.0004         28.7504
   1083735.60947    872282.14145  20543774.7894                   20543771.1954
        45.0004         31.7504
   3352222.70346   2617923.73844  22391449.7664                   22391452.6684
        40.7504         25.7504
 19  3  7 18 24 15.0000000  0  5G07G09G16G23G26
  -3314422.66046  -1660680.80544  22227690.2194                   22227689.4224
        41.5004         29.5004
  -1634450.27347  -1217324.23045  20303384.0234                   20303385.5554
        43.2504         31.2504
    336766.61347    315110.06344  20818849.2114                   20818848.9104
        42.5004         29.0004
   1079097.22747    868667.82045  20542891.5314                   20542888.8054
        45.0004         31.7504
   3355825.11746   2620730.80944  22392135.4224                   22392138.4104
        40.0004         27.5004
 19  3  7 18 24 20.0000000  0  5G07G09G16G23G26
  -3335767.62946  -1677313.23444  22223627.3054                   22223627.7234
        41.5004         29.7504
  -1648934.09447  -1228610.32045  20300628.0084                   20300629.0314
        43.7504         30.7504
    330370.37547    310125.98044  20817632.6254                   20817631.6844
        43.2504         29.2504
   1074475.43047    865066.41845  20542012.0634                   20542009.0944
        45.0004         32.0004
   3359443.28946   2623550.16844  22392823.1024                   22392826.8834
        40.7504         27.0004
 19  3  7 18 24 25.0000000  0  5G07G09G16G23G26
  -3357102.24646  -1693937.61344  22219568.3984                   22219567.9144
        41.5004         29.7504
  -1663401.43047  -1239883.57045  20297874.6024                   20297875.8404
        43.5004         31.5004
    323996.81647    305159.57044  20816420.0944                   20816418.6414
        43.5004         29.5004
   1069870.28547    861477.98845  20541135.6024                   20541132.8404
        45.5004         31.7504
   3363077.31646   2626381.85544  22393515.1884                   22393518.6724
        41.5004         27.0004
 19  3  7 18 24 30.0000000  0  5G07G09G16G23G26
  -3378426.44146  -1710553.86345  22215510.3834                   22215510.1414
        41.5004         30.7504
  -1677852.25847  -1251143.95745  20295124.6564                   20295125.9804
        43.7504         31.2504
    317645.93047    300210.81344  20815210.8284                   20815210.2704
        42.5004         29.2504
   1065281.78947    857902.53945  20540262.3284                   20540259.8984
        45.0004         31.5004
   3366727.11746   2629225.86344  22394209.3134                   22394213.3364
        40.0004         25.7504
 19  3  7 18 24 35.0000000  0  5G07G09G16G23G26
  -3399740.00046  -1727161.84444  22211454.1644                   22211454.4224
        41.2504         29.7504
  -1692286.29747  -1262391.25845  20292378.0944                   20292379.3554
        43.2504         31.2504
    311318.03147    295279.99644  20814006.5314                   20814005.5984
        42.5004         29.0004
   1060710.18447    854340.24645  20539392.7424                   20539389.7544
        45.0004         31.7504
   3370393.00846   2632082.38744  22394907.7974                   22394910.5904
        40.5004         26.5004
 19  3  7 18 24 40.0000000  0  5G07G09G16G23G26
  -3421043.28546  -1743761.78944  22207400.8204                   22207399.9924
        41.5004         29.2504
  -1706703.96147  -1273625.81245  20289634.4224                   20289635.8054
        43.5004         31.0004
    305012.70347    290366.74644  20812806.7504                   20812806.0314
        42.5004         29.2504
   1056155.12547    850790.84445  20538525.9694                   20538522.4224
        45.0004         31.7504
   3374074.56646   2634951.12144  22395608.2584                   22395611.1954
        40.7504         26.5004
 19  3  7 18 24 45.0000000  0  5G07G09G16G23G26
  -3442336.19546  -1760353.67244  22203349.0004                   22203348.3014
        41.5004         29.7504
  -1721105.11347  -1284847.48845  20286893.5634                   20286895.0474
        43.0004         31.0004
    298730.00847    285471.13744  20811611.3364                   20811610.1564
        43.0004         29.0004
   1051616.65647    847254.37545  20537662.1254                   20537659.0554
        44.7504         31.7504
   3377771.85946   2637832.13744  22396311.3754                   22396314.5514
        40.2504         24.7504
 19  3  7 18 24 50.0000000  0  5G07G09G16G23G26
  -3463618.84446  -1776937.55544  22199298.2194                   22199298.3094
        41.2504         29.2504
  -1735489.88747  -1296056.40645  20284156.3984                   20284157.6094
        44.0004         31.5004
    292469.84847    280593.09444  20810420.0864                   20810419.0354
        42.5004         29.0004
   1047094.68447    843730.75045  20536801.6484                   20536799.0434
        45.2504         31.7504
   3381484.74246   2640725.28544  22397018.0314                   22397021.0634
        40.0004         27.0004
 19  3  7 18 24 55.0000000  0  5G07G09G16G23G26
  -3484891.39846  -1793513.56644  22195250.6884                   22195250.1524
        41.5004         29.5004
  -1749858.48447  -1307252.71945  20281422.3754                   20281423.3874
        43.7504         31.0004
    286232.06647    275732.48044  20809232.4844                   20809231.9024
        42.7504         29.0004
   1042589.05547    840219.87545  20535944.2584                   20535941.3484
        45.0004         31.7504
   3385213.09046   2643630.48044  22397727.9774                   22397730.6954
        40.2504         26.2504
 19  3  7 18 25  0.0000000  0  5G07G09G16G23G26
  -3506153.69146  -1810081.57844  22191204.1724                   22191204.4654
        41.5004         29.5004
  -1764210.61747  -1318436.19945  20278690.9774                   20278692.4414
        44.2504         31.0004
    280016.82847    270889.43044  20808050.5554                   20808049.1564
        42.2504         29.2504
   1038100.00047    836721.91045  20535090.1804                   20535087.1214
        45.0004         32.0004
   3388957.04746   2646547.85244  22398440.1254                   22398443.5474
        40.2504         26.0004
 19  3  7 18 25  5.0000000  0  5G07G09G16G23G26
  -3527405.96946  -1826641.80545  22187160.6174                   22187160.0274
        41.5004         30.2504
  -1778546.59847  -1329607.09045  20275963.0944                   20275964.2584
        43.5004         31.0004
    273823.89547    266063.77044  20806871.5394                   20806870.8134
        42.2504         29.2504
   1033627.21547    833236.61745  20534238.9614                   20534235.7934
        45.5004         31.7504
   3392716.38746   2649477.19144  22399155.6804                   22399158.5084
        41.2504         26.2504
 19  3  7 18 25 10.0000000  0  5G07G09G16G23G26
  -3548647.85546  -1843193.91445  22183118.0004                   22183117.7194
        41.5004         30.0004
  -1792866.06647  -1340765.12145  20273238.2034                   20273239.3054
        44.0004         31.5004
    267653.57447    261255.73044  20805697.7814                   20805696.4264
        42.5004         29.2504
   1029171.00047    829764.23045  20533391.2344                   20533387.7274
        45.5004         31.5004
   3396491.36346   2652418.72744  22399873.3284                   22399876.6214
        41.2504         27.0004
 19  3  7 18 25 15.0000000  0  5G07G09G16G23G26
  -3569879.58646  -1859738.11745  22179077.8524                   22179077.5044
        41.7504         30.0004
  -1807169.22747  -1351910.44145  20270516.1334                   20270517.3714
        44.2504         31.5004
    261505.61347    256465.10244  20804527.6644                   20804526.6024
        42.2504         29.5004
   1024731.19147    826304.64545  20532546.5864                   20532543.2544
        45.0004         31.7504
   3400281.78146   2655372.30944  22400594.3754                   22400598.4414
        40.2504         27.2504
 19  3  7 18 25 20.0000000  0  5G07G09G16G23G26
  -3591101.18746  -1876274.43445  22175039.9224                   22175039.1804
        41.7504         30.0004
  -1821456.12947  -1363043.08645  20267797.6334                   20267799.2074
        43.5004         31.0004
    255380.07847    251691.95344  20803362.0164                   20803360.6844
        42.5004         29.2504
   1020307.72347    822857.78545  20531704.1644                   20531700.7974
        45.2504         32.0004
   3404087.62946   2658337.89544  22401318.7194                   22401322.4534
        40.5004         26.0004
 19  3  7 18 25 25.0000000  0  5G07G09G16G23G26
  -3612312.59446  -1892802.80545  22171003.3914                   22171002.8834
        41.5004         30.0004
  -1835726.66047  -1374162.98845  20265082.0864                   20265083.2194
        44.0004         31.2504
    249276.93847    246936.27044  20802200.9144                   20802199.4184
        43.0004         29.0004
   1015900.66847    819423.71545  20530865.3364                   20530862.3984
        45.0004         31.7504
   3407908.93046   2661315.52344  22402046.8284                   22402049.2704
        40.7504         26.5004
 19  3  7 18 25 30.0000000  0  5G07G09G16G23G26
  -3633513.53146  -1909323.01245  22166968.9454                   22166968.1844
        41.7504         31.0004
  -1849980.58647  -1385269.94145  20262369.5704                   20262371.1644
        43.7504         31.2504
    243196.49247    242198.25044  20801043.3984                   20801042.2774
        42.0004         29.2504
   1011510.31647    816002.65645  20530030.1724                   20530027.2774
        45.2504         31.5004
   3411745.92246   2664305.39844  22402776.1334                   22402779.6564
        40.0004         27.2504
 19  3  7 18 25 35.0000000  0  5G07G09G16G23G26
  -3654704.55146  -1925835.48845  22162936.2584                   22162935.8484
        41.7504         30.5004
  -1864218.43447  -1396364.36745  20259659.7734                   20259661.2384
        43.7504         31.5004
    237138.17647    237477.49244  20799890.7194                   20799889.7154
        43.0004         29.2504
   1007136.09447    812594.17645  20529196.9694                   20529194.5124
        44.7504         31.5004
   3415598.08246   2667307.07044  22403509.5164                   22403512.7304
        39.7504         27.0004
 19  3  7 18 25 40.0000000  0  5G07G09G16G23G26
  -3675885.37146  -1942340.02345  22158905.5084                   22158905.2424
        41.5004         30.2504
  -1878439.94147  -1407446.05945  20256953.7114                   20256954.9964
        43.5004         31.5004
    231102.24247    232774.15644  20798742.2034                   20798741.1054
        42.5004         28.7504
   1002778.28147    809198.46945  20528368.6484                   20528365.3244
        45.0004         31.7504
   3419465.65646   2670320.73444  22404246.0704                   22404248.5314
        40.2504         27.5004
 19  3  7 18 25 45.0000000  0  5G07G09G16G23G26
  -3697055.82046  -1958836.46545  22154877.3674                   22154876.3134
        41.5004         30.2504
  -1892644.87547  -1418514.84045  20254251.1564                   20254252.5234
        43.5004         31.5004
    225088.88347    228088.43444  20797598.1564                   20797596.7344
        43.0004         29.0004
    998437.05147    805815.69145  20527542.6724                   20527539.5554
        45.2504         31.5004
   3423348.79746   2673346.56644  22404984.7814                   22404987.5124
        40.5004         27.0004
 19  3  7 18 25 50.0000000  0  5G07G09G16G23G26
  -3718216.27046  -1975325.12945  22150850.6564                   22150849.7934
        41.7504         30.0004
  -1906833.71947  -1429571.08245  20251550.8524                   20251552.3794
        43.5004         31.0004
    219097.63747    223419.92244  20796457.5784                   20796456.8204
        43.0004         29.0004
    994112.04347    802445.54345  20526719.7504                   20526716.2464
        45.5004         31.7504
   3427247.09046   2676384.19544  22405726.3674                   22405729.2504
        40.5004         26.0004
 19  3  7 18 25 55.0000000  0  5G07G09G16G23G26
  -3739366.63346  -1991805.93445  22146825.5004                   22146825.3364
        41.5004         30.0004
  -1921006.27047  -1440614.63345  20248853.8594                   20248855.0634
        43.5004         31.2504
    213128.69947    218768.78944  20795321.5314                   20795320.6134
        42.5004         29.0004
    989803.32047    799088.09445  20525899.9304                   20525896.1294
        45.7504         31.5004
   3431160.64146   2679433.72344  22406470.0784                   22406474.3674
        40.0004         26.7504
 19  3  7 18 26  0.0000000  0  5G07G09G16G23G26
  -3760506.84846  -2008278.82444  22142802.7894                   22142802.7274
        41.5004         29.7504
  -1935162.54347  -1451645.49645  20246160.2274                   20246161.4694
        43.5004         31.2504
    207182.05147    214135.05944  20794190.4384                   20794188.6564
        43.2504         29.0004
    985510.89847    795743.35945  20525082.7424                   20525079.7034
        45.0004         31.7504
   3435089.51246   2682495.15644  22407219.2974                   22407221.6954
        40.5004         26.5004
 19  3  7 18 26  5.0000000  0  5G07G09G16G23G26
  -3781637.14546  -2024743.98444  22138782.0314                   22138781.0634
        41.5004         29.5004
  -1949302.71147  -1462663.80945  20243469.4534                   20243470.4694
        43.2504         31.5004
    201257.46547    209518.48844  20793063.0784                   20793061.6094
        43.0004         29.2504
    981234.63747    792411.19945  20524269.0084                   20524265.8874
        45.0004         31.7504
   3439033.40246   2685568.32444  22407968.9614                   22407972.1294
        40.7504         27.0004
 19  3  7 18 26 10.0000000  0  5G07G09G16G23G26
  -3802756.92246  -2041200.95344  22134762.9224                   22134762.6094
        41.5004         29.5004
  -1963426.27747  -1473669.18445  20240781.4614                   20240782.8014
        43.7504         31.2504
    195355.44947    204919.50444  20791939.5944                   20791939.0274
        42.5004         29.5004
    976974.98447    789091.99645  20523458.2114                   20523455.4454
        45.0004         31.5004
   3442992.85946   2688653.62944  22408722.0234                   22408725.6054
        40.0004         26.7504
 19  3  7 18 26 15.0000000  0  5G07G09G16G23G26
  -3823867.09446  -2057650.44144  22130745.9844                   22130745.3794
        41.7504         29.5004
  -1977533.99247  -1484662.20745  20238096.8444                   20238098.1644
        43.5004         31.5004
    189475.28947    200337.56344  20790820.9694                   20790819.9614
        42.5004         29.0004
    972731.19547    785785.14145  20522650.7504                   20522647.8054
        45.2504         31.5004
   3446967.10546   2691750.43044  22409478.8674                   22409482.2034
        39.7504         26.2504
 19  3  7 18 26 20.0000000  0  5G07G09G16G23G26
  -3844967.00446  -2074091.92244  22126730.3834                   22126730.2544
        41.5004         29.2504
  -1991625.27047  -1495642.42645  20235415.1644                   20235416.8524
        43.5004         31.5004
    183617.53547    195773.08244  20789706.1094                   20789704.8554
        42.5004         29.5004
    968503.89847    782491.13745  20521846.7504                   20521843.4454
        45.2504         31.7504
   3450956.72346   2694859.21544  22410237.8674                   22410241.2934
        39.0004         25.7504
 19  3  7 18 26 25.0000000  0  5G07G09G16G23G26
  -3866057.10946  -2090525.77044  22122717.0164                   22122716.6174
        41.7504         29.5004
  -2005700.56247  -1506610.19145  20232736.4224                   20232738.2114
        43.5004         31.2504
    177781.68847    191225.66444  20788595.3054                   20788594.5634
        42.5004         29.5004
    964292.57847    779209.58245  20521045.2194                   20521041.7034
        45.5004         31.5004
   3454961.20746   2697979.56644  22411000.9694                   22411003.4774
        39.5004         26.0004
 19  3  7 18 26 30.0000000  0  5G07G09G16G23G26
  -3887137.19547  -2106951.80544  22118705.2034                   22118705.2114
        42.0004         29.2504
  -2019759.66047  -1517565.33645  20230061.9844                   20230063.1024
        43.5004         31.5004
    171967.96147    186695.48444  20787489.4224                   20787488.2274
        43.0004         29.2504
    960097.45347    775940.65645  20520246.9144                   20520243.6454
        45.0004         31.7504
   3458980.72346   2701111.66844  22411765.3134                   22411768.2274
        41.0004         26.5004
 19  3  7 18 26 35.0000000  0  5G07G09G16G23G26
  -3908207.81247  -2123370.47745  22114695.7344                   22114695.6804
        42.0004         30.0004
  -2033803.12547  -1528508.28945  20227389.4924                   20227390.8164
        43.7504         31.5004
    166175.75847    182182.07844  20786386.8444                   20786385.7194
        42.7504         29.0004
    955917.99647    772683.93445  20519451.4614                   20519448.1844
        45.5004         32.0004
   3463014.77346   2704255.07844  22412532.9924                   22412535.8444
        40.5004         26.5004
 19  3  7 18 26 40.0000000  0  5G07G09G16G23G26
  -3929268.77046  -2139781.60945  22110688.3674                   22110688.1724
        41.7504         30.0004
  -2047830.73847  -1539438.89845  20224719.9924                   20224721.3634
        43.7504         31.5004
    160405.37547    177685.68844  20785289.2664                   20785287.6484
        42.7504         28.7504
    951754.35947    769439.54345  20518659.0554                   20518655.6294
        45.2504         31.7504
   3467063.53146   2707409.94144  22413303.4144                   22413306.2544
        39.2504         26.7504
 19  3  7 18 26 45.0000000  0  5G07G09G16G23G26
  -3950319.73047  -2156184.94944  22106682.6644                   22106682.1884
        42.0004         29.7504
  -2061842.18447  -1550356.91045  20222053.6484                   20222054.9024
        43.5004         31.5004
    154657.13747    173206.52744  20784195.0164                   20784193.7934
        43.0004         29.5004
    947606.86747    766207.72745  20517869.7194                   20517866.9264
        45.0004         31.7504
   3471127.25446   2710576.47344  22414076.4304                   22414079.3874
        40.7504         25.7504
 19  3  7 18 26 50.0000000  0  5G07G09G16G23G26
  -3971360.99646  -2172580.73444  22102678.2424                   22102678.0274
        41.7504         29.7504
  -2075837.71947  -1561262.52045  20219390.5784                   20219391.9774
        43.7504         31.7504
    148930.68447    168744.36344  20783105.5784                   20783104.6254
        42.5004         29.0004
    943475.27747    762988.30545  20517083.1564                   20517080.7504
        45.2504         31.7504
   3475205.68446   2713754.48844  22414851.8364                   22414855.7464
        40.5004         26.5004
 19  3  7 18 26 55.0000000  0  5G07G09G16G23G26
  -3992392.59846  -2188968.99644  22098675.9614                   22098676.2074
        41.7504         29.5004
  -2089817.41047  -1572155.78945  20216730.4224                   20216731.6764
        43.7504         31.5004
    143225.97347    164299.13344  20782019.6954                   20782018.8444
        42.7504         29.2504
    939359.48447    759781.18845  20516300.8134                   20516297.1914
        45.2504         31.5004
   3479298.76646   2716943.89544  22415631.1334                   22415634.7304
        39.7504         27.0004
 19  3  7 18 27  0.0000000  0  5G07G09G16G23G26
  -4013414.77746  -2205349.91444  22094675.6884                   22094675.6764
        41.5004         29.5004
  -2103781.45747  -1583036.86345  20214073.2504                   20214074.5944
        44.0004         31.5004
    137542.72747    159870.62544  20780938.1024                   20780937.2154
        43.0004         29.2504
    935259.30547    756586.23845  20515520.3674                   20515517.0664
        45.5004         31.5004
   3483406.27746   2720144.52044  22416413.2344                   22416416.0124
        39.7504         25.5004
 19  3  7 18 27  5.0000000  0  5G07G09G16G23G26
  -4034427.16046  -2221723.19944  22090677.6094                   22090676.8014
        41.7504         29.7504
  -2117729.53547  -1593905.50045  20211419.1024                   20211420.3094
        43.7504         31.5004
    131881.30547    155459.12544  20779861.2114                   20779860.0274
        43.0004         29.5004
    931175.04747    753403.70345  20514742.7974                   20514739.9964
        45.0004         31.7504
   3487528.49246   2723356.64544  22417197.7814                   22417200.8754
        40.0004         26.2504
 19  3  7 18 27 10.0000000  0  5G07G09G16G23G26
  -4055429.72346  -2238088.82845  22086681.0314                   22086680.4694
        41.5004         30.0004
  -2131661.60547  -1604761.65645  20208767.9304                   20208768.9694
        43.7504         31.2504
    126241.71147    151064.64144  20778787.9384                   20778786.6524
        42.5004         29.2504
    927106.73847    750233.58645  20513968.8674                   20513965.6134
        45.0004         31.5004
   3491665.44546   2726580.25044  22417984.8444                   22417988.0554
        40.0004         24.7504
 19  3  7 18 27 15.0000000  0  5G07G09G16G23G26
  -4076422.73446  -2254447.02044  22082686.0234                   22082685.3674
        41.5004         29.5004
  -2145577.90647  -1615605.53145  20206119.2344                   20206120.5744
        43.2504         31.0004
    120623.72747    146686.98844  20777718.8054                   20777717.8984
        42.2504         29.2504
    923054.16047    747075.72745  20513198.0234                   20513194.3754
        44.7504         31.7504
   3495816.93846   2729815.15244  22418775.1564                   22418777.9884
        39.5004         25.7504
 19  3  7 18 27 20.0000000  0  5G07G09G16G23G26
  -4097406.27746  -2270797.83244  22078692.2664                   22078692.5864
        41.5004         29.5004
  -2159478.53947  -1626437.19145  20203474.1724                   20203475.3594
        43.5004         31.2504
    115027.19547    142326.04344  20776653.7504                   20776652.3134
        42.5004         28.7504
    919017.16847    743930.01645  20512429.3834                   20512426.0664
        45.0004         31.5004
   3499982.77746   2733061.25844  22419567.3984                   22419570.5274
        39.7504         25.0004
 19  3  7 18 27 25.0000000  0  5G07G09G16G23G26
  -4118380.09046  -2287141.05944  22074701.6254                   22074701.3094
        41.5004         29.5004
  -2173363.20747  -1637256.41445  20200831.9844                   20200833.5704
        43.7504         31.2504
    109452.44547    137982.07844  20775592.8444                   20775591.7894
        42.5004         29.0004
    914996.09847    740796.72345  20511663.9614                   20511660.9964
        45.0004         31.0004
   3504163.20746   2736318.74644  22420362.5864                   22420366.3554
        40.5004         25.5004
 19  3  7 18 27 30.0000000  0  5G07G09G16G23G26
  -4139344.41846  -2303476.89544  22070711.7814                   22070711.6724
        41.5004         29.5004
  -2187232.17647  -1648063.40645  20198192.9534                   20198194.1094
        43.2504         31.5004
    103899.23447    133654.90644  20774536.5004                   20774535.5274
        42.5004         29.0004
    910990.62947    737675.57045  20510901.7504                   20510898.9614
        45.0004         31.5004
   3508358.03546   2739587.45344  22421160.7504                   22421164.7114
        40.0004         25.7504
 19  3  7 18 27 35.0000000  0  5G07G09G16G23G26
  -4160299.46146  -2319805.50844  22066724.4534                   22066724.0634
        41.5004         28.7504
  -2201085.64847  -1658858.31245  20195556.7034                   20195558.2154
        43.5004         31.2504
     98367.34047    129344.34444  20773483.5394                   20773482.3754
        43.0004         29.2504
    907000.59847    734566.46145  20510142.6484                   20510139.5904
        45.0004         31.5004
   3512567.05146   2742867.18044  22421962.6334                   22421965.2194
        40.0004         26.0004
 19  3  7 18 27 40.0000000  0  5G07G09G16G23G26
  -4181244.80546  -2336126.53944  22062739.0004                   22062738.5084
        41.5004         29.5004
  -2214923.24247  -1669640.86345  20192923.0164                   20192924.7704
        43.5004         31.2504
     92857.05947    125050.61744  20772435.1564                   20772434.1134
        42.5004         29.0004
    903026.34447    731469.63745  20509386.0234                   20509383.3634
        45.0004         31.5004
   3516790.52346   2746158.19944  22422765.5084                   22422768.9844
        40.0004         26.5004
 19  3  7 18 27 45.0000000  0  5G07G09G16G23G26
  -4202180.73846  -2352440.26244  22058755.1564                   22058754.4694
        41.5004         29.2504
  -2228745.18447  -1680411.21145  20190292.8984                   20190294.4734
        43.5004         31.0004
     87368.26647    120773.63344  20771390.2894                   20771389.3204
        42.0004         28.0004
    899067.67247    728384.95345  20508632.8054                   20508629.8914
        45.0004         31.5004
   3521028.25846   2749460.34444  22423572.0004                   22423575.3284
        39.7504         26.0004
 19  3  7 18 27 50.0000000  0  5G07G09G16G23G26
  -4223107.23046  -2368746.61745  22054772.7894                   22054772.2074
        41.5004         30.5004
  -2242551.44147  -1691169.32845  20187665.6644                   20187667.0984
        43.5004         31.5004
     81900.90647    116513.34844  20770349.7894                   20770349.1604
        42.5004         28.7504
    895124.59047    725312.41845  20507882.9454                   20507879.7424
        45.5004         31.5004
   3525280.31346   2752773.60544  22424382.1334                   22424384.5354
        39.7504         24.7504
 19  3  7 18 27 55.0000000  0  5G07G09G16G23G26
  -4244024.39546  -2385045.70745  22050792.7504                   22050791.9454
        41.2504         30.5004
  -2256342.14147  -1701915.33645  20185041.2814                   20185043.0274
        43.5004         31.5004
     76454.85947    112269.68044  20769313.7814                   20769312.7504
        42.7504         28.5004
    891196.92647    722251.89545  20507135.5474                   20507132.4184
        45.5004         31.5004
   3529546.52346   2756097.90644  22425193.2974                   22425196.2384
        40.0004         24.5004
 19  3  7 18 28  0.0000000  0  5G07G09G16G23G26
  -4264932.23446  -2401337.52745  22046813.8754                   22046813.6174
        41.5004         31.0004
  -2270117.31647  -1712649.23445  20182420.1094                   20182421.6884
        43.7504         31.5004
     71030.05147    108042.55544  20768281.9304                   20768280.3164
        43.2504         28.5004
    887284.71547    719203.42245  20506390.9064                   20506387.7344
        45.5004         31.5004
   3533826.76246   2759433.15244  22426008.1884                   22426010.7304
        40.0004         26.0004
 19  3  7 18 28  5.0000000  0  5G07G09G16G23G26
  -4285830.53146  -2417621.91044  22042836.6804                   22042836.6884
        41.2504         29.2504
  -2283876.68747  -1723370.81645  20179802.2504                   20179803.4184
        43.2504         31.0004
     65626.75447    103832.19544  20767253.4774                   20767251.8594
        42.5004         28.5004
    883388.16847    716167.14845  20505648.9454                   20505646.0044
        45.0004         31.2504
   3538121.33246   2762779.59044  22426824.8444                   22426828.3634
        40.5004         24.0004
 19  3  7 18 28 10.0000000  0  5G07G09G16G23G26
  -4306719.39546  -2433898.94544  22038862.2194                   22038861.5044
        41.5004         29.7504
  -2297620.39147  -1734080.20345  20177186.6334                   20177188.1334
        43.5004         31.0004
     60244.88347     99638.51644  20766229.0474                   20766227.9064
        42.5004         29.0004
    879507.17647    713143.00445  20504910.7664                   20504907.6684
        45.2504         31.2504
   3542430.15246   2766137.09444  22427644.6644                   22427648.3524
        39.5004         25.2504
 19  3  7 18 28 15.0000000  0  5G07G09G16G23G26
  -4327598.85246  -2450168.65245  22034889.0394                   22034888.3674
        41.2504         30.0004
  -2311348.44547  -1744777.38345  20174574.2504                   20174575.5704
        43.2504         31.0004
     54884.30547     95461.45744  20765209.4844                   20765208.0084
        43.0004         28.7504
    875641.72347    710130.95745  20504175.3364                   20504172.2194
        45.5004         31.5004
   3546753.09046   2769505.61344  22428468.0554                   22428470.7504
        40.5004         24.7504
 19  3  7 18 28 20.0000000  0  5G07G09G16G23G26
  -4348468.97746  -2466431.08645  22030917.2194                   22030916.5234
        41.2504         30.0004
  -2325060.93747  -1755462.44945  20171964.7734                   20171966.4264
        43.2504         31.2504
     49545.00847     91300.95744  20764193.0004                   20764191.6644
        42.7504         29.0004
    871791.75847    707130.97745  20503443.0164                   20503439.6054
        45.5004         31.0004
   3551090.09046   2772885.10944  22429291.9144                   22429296.5704
        40.0004         24.5004
 19  3  7 18 28 25.0000000  0  5G07G09G16G23G26
  -4369329.46946  -2482686.00845  22026947.5784                   22026946.9024
        41.2504         30.0004
  -2338757.52747  -1766135.12145  20169358.4454                   20169360.0554
        43.2504         31.5004
     44227.31347     87157.29344  20763181.2114                   20763180.2504
        42.7504         28.7504
    867957.52347    704143.26645  20502713.1644                   20502710.0004
        45.5004         31.2504
   3555441.47746   2776275.78944  22430120.7894                   22430124.1454
        39.2504         25.7504
 19  3  7 18 28 30.0000000  0  5G07G09G16G23G26
  -4390180.64846  -2498933.68445  22022979.5554                   22022979.3014
        41.0004         30.0004
  -2352438.59447  -1776795.69145  20166754.9144                   20166756.5634
        43.2504         31.5004
     38930.78147     83030.13344  20762173.5554                   20762172.5354
        43.0004         29.0004
    864138.65647    701167.51245  20501987.1724                   20501983.5634
        45.5004         31.5004
   3559806.82046   2779677.32044  22430951.9144                   22430954.6214
        40.0004         25.0004
 19  3  7 18 28 35.0000000  0  5G07G09G16G23G26
  -4411022.31646  -2515173.93745  22019013.4064                   22019013.2504
        41.2504         30.0004
  -2366103.87947  -1787443.96545  20164154.7274                   20164155.6804
        43.5004         31.0004
     33655.69147     78919.66844  20761168.8524                   20761168.1524
        43.2504         29.0004
    860335.42647    698203.95745  20501262.6094                   20501259.6954
        45.0004         31.7504
   3564186.34446   2783089.96144  22431785.1804                   22431788.4144
        39.0004         24.0004
 19  3  7 18 28 40.0000000  0  5G07G09G16G23G26
  -4431854.78946  -2531407.03544  22015049.6254                   22015048.9574
        41.2504         29.5004
  -2379753.73447  -1798080.21945  20161557.1484                   20161558.7304
        43.5004         31.5004
     28401.72747     74825.66844  20760169.3914                   20760168.4694
        42.7504         29.2504
    856547.48847    695252.32045  20500541.7114                   20500538.5944
        45.7504         31.5004
   3568579.76246   2786513.39844  22432621.0164                   22432623.9534
        38.5004         25.5004
 19  3  7 18 28 45.0000000  0  5G07G09G16G23G26
  -4452677.94546  -2547632.86344  22011087.1414                   22011086.7774
        41.2504         29.7504
  -2393388.03147  -1808704.34845  20158962.3984                   20158963.6644
        43.2504         31.5004
     23168.92247     70748.16844  20759174.0084                   20759173.0784
        43.5004         28.7504
    852774.91047    692312.65245  20499823.2034                   20499820.6604
        45.0004         31.0004
   3572987.10946   2789947.68844  22433459.9844                   22433463.2384
        39.0004         24.5004
 19  3  7 18 28 50.0000000  0  5G07G09G16G23G26
  -4473491.83646  -2563851.48045  22007126.3364                   22007125.9104
        41.2504         30.0004
  -2407006.76647  -1819316.34445  20156371.1884                   20156372.7704
        43.5004         31.2504
     17957.30547     66687.16044  20758181.6564                   20758181.2814
        43.2504         28.5004
    849017.74647    689384.99245  20499108.5784                   20499106.2424
        45.5004         31.0004
   3577408.43446   2793392.85244  22434301.2274                   22434303.9344
        39.7504         25.0004
 19  3  7 18 28 55.0000000  0  5G07G09G16G23G26
  -4494296.28146  -2580062.73445  22003167.3594                   22003166.8634
        41.2504         30.0004
  -2420609.86747  -1829916.16845  20153782.6564                   20153783.8794
        43.0004         31.7504
     12766.98847     62642.76244  20757194.3834                   20757193.1884
        43.0004         28.7504
    845276.06647    686469.38745  20498396.8204                   20498393.8094
        45.7504         31.2504
   3581843.75446   2796848.95344  22435145.0474                   22435148.2974
        39.7504         24.5004
 19  3  7 18 29  0.0000000  0  5G07G09G16G23G26
  -4515090.99246  -2596266.40644  21999210.3284                   21999209.4924
        41.2504         29.7504
  -2434196.95747  -1840503.51645  20151197.1724                   20151198.6024
        43.5004         31.5004
      7598.23447     58615.15644  20756210.8914                   20756209.7194
        43.0004         29.2504
    841550.18047    683566.09845  20497687.6724                   20497684.8634
        45.5004         31.2504
   3586293.43446   2800316.22743  22435991.8834                   22435995.2504
        39.7504         23.7504
 19  3  7 18 29  5.0000000  0  5G07G09G16G23G26
  -4535876.41846  -2612462.84445  21995253.8444                   21995254.3484
        41.5004         30.7504
  -2447768.46147  -1851078.71545  20148614.6564                   20148615.6454
        43.2504         31.2504
      2450.68847     54604.06644  20755230.4064                   20755230.1764
        42.7504         28.5004
    837839.66447    680674.78145  20496981.4224                   20496978.6724
        45.0004         31.5004
   3590756.96546   2803794.30944  22436841.1644                   22436844.8204
        40.0004         25.2504
 19  3  7 18 29 10.0000000  0  5G07G09G16G23G26
  -4556652.32046  -2628651.85245  21991300.6954                   21991300.5904
        41.2504         30.0004
  -2461324.19147  -1861641.61745  20146034.9064                   20146036.0864
        43.5004         31.5004
     -2675.49647     50609.65244  20754256.2114                   20754254.6884
        43.5004         29.0004
    834144.73047    677795.60545  20496279.0084                   20496275.8674
        45.5004         31.5004
   3595234.63746   2807283.42244  22437692.7424                   22437696.4184
        38.5004         25.7504
 19  3  7 18 29 15.0000000  0  5G07G09G16G23G26
  -4577418.76646  -2644833.50045  21987350.0084                   21987349.1134
        41.5004         30.2504
  -2474864.19547  -1872192.27345  20143458.3204                   20143459.9654
        43.5004         31.5004
     -7780.40247     46631.79744  20753284.0784                   20753283.1764
        42.5004         28.5004
    830465.31347    674928.52745  20495578.6254                   20495575.7194
        45.5004         31.2504
   3599726.36346   2810783.43444  22438548.7734                   22438551.2274
        38.5004         25.7504
 19  3  7 18 29 20.0000000  0  5G07G09G16G23G26
  -4598175.56246  -2661007.62545  21983399.9924                   21983398.9694
        41.2504         30.7504
  -2488388.24647  -1882730.49245  20140884.4534                   20140886.0744
        43.2504         31.2504
    -12863.82047     42670.69544  20752317.0474                   20752315.8404
        43.2504         29.0004
    826801.63347    672073.71145  20494881.3134                   20494877.9304
        45.7504         31.2504
   3604232.21946   2814294.49244  22439405.2274                   22439409.0944
        39.5004         26.0004
 19  3  7 18 29 25.0000000  0  5G07G09G16G23G26
  -4618923.02746  -2677174.47745  21979451.3754                   21979450.8094
        41.5004         30.0004
  -2501896.68747  -1893256.55545  20138314.0944                   20138315.5594
        43.2504         31.2504
    -17926.07447     38726.07844  20751353.7974                   20751352.4534
        43.2504         29.0004
    823153.41047    669230.93445  20494187.1724                   20494183.9454
        44.7504         31.0004
   3608752.02746   2817816.43044  22440265.1484                   22440268.9064
        39.0004         25.2504
 19  3  7 18 29 30.0000000  0  5G07G09G16G23G26
  -4639661.15646  -2693334.05544  21975505.3204                   21975504.9304
        41.5004         29.2504
  -2515389.54347  -1903770.46545  20135746.7274                   20135747.9304
        43.5004         31.7504
    -22967.24247     34797.89544  20750394.8134                   20750393.2934
        42.5004         28.7504
    819520.48447    666400.09045  20493495.3674                   20493492.6174
        45.2504         31.2504
   3613285.62946   2821349.08244  22441129.1024                   22441131.3954
        40.2504         25.2504
 19  3  7 18 29 35.0000000  0  5G07G09G16G23G26
  -4660389.95346  -2709486.36744  21971560.5784                   21971560.3444
        41.5004         29.2504
  -2528866.82047  -1914272.24245  20133181.9454                   20133183.6334
        43.2504         31.7504
    -27987.26647     30886.18444  20749439.0634                   20749437.9494
        42.5004         29.2504
    815902.99247    663581.26245  20492807.1724                   20492804.5744
        45.2504         31.5004
   3617833.04346   2824892.53144  22441993.0864                   22441996.8954
        39.7504         26.0004
 19  3  7 18 29 40.0000000  0  5G07G09G16G23G26
  -4681109.43046  -2725631.41045  21967617.5314                   21967617.1374
        41.5004         30.2504
  -2542328.46547  -1924761.84445  20130620.0864                   20130621.4694
        43.2504         31.2504
    -32986.17647     26990.93044  20748487.6094                   20748486.8794
        43.2504         28.2504
    812300.90247    660774.43445  20492121.6174                   20492118.7304
        45.5004         31.2504
   3622394.29746   2828446.73044  22442862.0394                   22442865.2034
        39.5004         25.2504
 19  3  7 18 29 45.0000000  0  5G07G09G16G23G26
  -4701819.64846  -2741769.24245  21963676.6954                   21963676.3204
        41.5004         30.2504
  -2555774.54747  -1935239.30545  20128061.5234                   20128063.0124
        43.5004         31.7504
    -37964.04747     23112.06644  20747540.7974                   20747539.2234
        42.7504         28.7504
    808714.09847    657979.51645  20491439.0784                   20491436.3634
        45.5004         31.5004
   3626969.27046   2832011.66444  22443732.3754                   22443735.6174
        39.0004         25.2504
 19  3  7 18 29 50.0000000  0  5G07G09G16G23G26
  -4722520.43446  -2757899.72345  21959737.2664                   21959737.2114
        41.7504         30.0004
  -2569204.88747  -1945704.50045  20125505.8054                   20125507.2114
        43.5004         31.5004
    -42920.68747     19249.75844  20746598.2194                   20746596.3244
        42.5004         29.0004
    805142.78147    655196.67245  20490759.3914                   20490756.4774
        45.5004         31.2504
   3631558.18446   2835587.41844  22444605.8054                   22444608.9654
        39.5004         25.5004
 19  3  7 18 29 55.0000000  0  5G07G09G16G23G26
  -4743211.86746  -2774022.91045  21955799.6094                   21955799.7734
        41.5004         30.2504
  -2582619.59847  -1956157.53145  20122952.9924                   20122954.5204
        43.5004         31.7504
    -47856.23847     15403.86744  20745658.1334                   20745656.8834
        42.5004         28.7504
    801586.84447    652425.80945  20490082.9064                   20490080.4304
        45.5004         31.2504
   3636160.85946   2839173.91444  22445481.6024                   22445484.9654
        40.2504         25.2504
 19  3  7 18 30  0.0000000  0  5G07G09G16G23G26
  -4763893.82846  -2790138.72345  21951864.2894                   21951863.8914
        41.7504         30.0004
  -2596018.55547  -1966598.27345  20120403.1884                   20120404.3404
        44.0004         31.7504
    -52770.53947     11574.53544  20744722.9924                   20744721.9844
        42.2504         28.5004
    798046.37947    649666.99645  20489409.6804                   20489406.6524
        45.5004         31.2504
   3640777.41046   2842771.24244  22446359.0704                   22446362.6994
        39.0004         25.0004
 19  3  7 18 30  5.0000000  0  5G07G09G16G23G26
  -4784566.32447  -2806247.17645  21947930.4144                   21947929.9924
        42.0004         30.2504
  -2609401.76247  -1977026.75045  20117856.4304                   20117857.8284
        43.5004         32.0004
    -57663.64547      7761.73844  20743792.1254                   20743790.8984
        42.5004         29.5004
    794521.46147    646920.30545  20488739.0004                   20488735.6684
        45.5004         31.7504
   3645407.87946   2846379.36744  22447241.9694                   22447244.3204
        40.0004         24.5004
 19  3  7 18 30 10.0000000  0  5G07G09G16G23G26
  -4805229.32046  -2822348.19945  21943998.6644                   21943998.1764
        41.5004         30.5004
  -2622769.18447  -1987442.92245  20115312.8754                   20115314.4184
        43.5004         31.5004
    -62535.56647      3965.43444  20742865.2424                   20742863.5204
        42.7504         28.7504
    791012.05147    644185.70345  20488071.3444                   20488067.7854
        45.5004         31.5004
   3650052.16446   2849998.30144  22448124.9774                   22448128.2074
        40.2504         25.7504
 19  3  7 18 30 15.0000000  0  5G07G09G16G23G26
  -4825882.65645  -2838441.76243  21940068.2424                   21940067.7074
        33.7504         22.5004
  -2636120.83646  -1997846.81245  20112771.9144                   20112773.7704
        41.5004         30.7504
    -67386.28547       185.64544  20741941.9694                   20741940.7504
        43.2504         28.2504
    787518.11747    641463.16045  20487405.7194                   20487403.2344
        45.5004         31.2504
   3654710.33246   2853628.04744  22449010.8284                   22449014.6214
        38.5004         25.0004
 19  3  7 18 30 20.0000000  0  5G07G09G16G23G26
  -4846526.70346  -2854527.95343  21936139.9384                   21936139.9304
        37.0004         19.7504
  -2649456.73047  -2008238.40244  20110234.3524                   20110235.7114
        42.5004         28.7504
    -72215.70747     -3577.55144  20741022.7734                   20741021.5864
        43.0004         29.5004
    784039.79747    638752.75045  20486743.5864                   20486741.0514
        45.5004         31.7504
   3659382.39546   2857268.58244  22449900.9384                   22449903.6174
        39.0004         26.0004
 19  3  7 18 30 25.0000000  0  5G07G09G16G23G26
  -4867160.97746  -2870606.57042  21932213.0004                   21932213.4414
        37.0004         17.7504
  -2662776.49247  -2018617.42644  20107699.8674                   20107700.8094
        42.0004         27.2504
    -77023.64547     -7323.97744  20740107.8984                   20740106.5514
        42.7504         28.5004
    780577.26247    636054.68045  20486085.1954                   20486082.1024
        45.5004         31.5004
   3664068.57446   2860920.16844  22450792.6174                   22450795.3674
        39.5004         25.0004
 19  3  7 18 30 30.0000000  0  5G07G09G16G23G26
  -4887785.84846  -2886677.93442  21928288.5634                   21928289.0824
        38.5004         16.7504
  -2676080.59846  -2028984.25043  20105168.0394                   20105169.3714
        41.7504         23.7504
    -81810.53147    -11054.01644  20739197.3984                   20739195.6604
        44.0004         27.7504
    777130.09447    633368.57845  20485429.7424                   20485425.9804
        47.0004         31.5004
   3668768.41846   2864582.40644  22451686.6254                   22451689.4694
        39.5004         24.0004
 19  3  7 18 30 35.0000000  0  5G07G09G16G23G26
                                  21924363.750
        35.000
  -2689368.89547  -2039338.78543  20102639.3834                   20102640.1524
        42.5004         23.5004
    -86576.25447    -14767.58644  20738289.9534                   20738288.5164
        43.0004         29.2504
    773698.39547    630694.51245  20484776.2194                   20484773.0744
        47.0004         32.0004
   3673482.06646   2868255.31344  22452583.6564                   22452586.0274
        39.0004         24.0004
 19  3  7 18 30 40.0000000  0  5G07G09G16G23G26
  -4929006.25415                  21920444.273
        35.500
  -2702641.46946  -2049681.04343  20100113.7734                   20100115.1214
        41.5004         23.5004
    -91320.83247    -18464.65244  20737386.9844                   20737385.9454
        43.2504         28.0004
    770282.15647    628032.52045  20484126.1174                   20484122.9804
        46.7504         31.7504
   3678209.46546   2871939.03143  22453483.4224                   22453485.7344
        41.7504         23.5004
 19  3  7 18 30 45.0000000  0  5G07G09G16G23G26
  -4949602.891 5                  21916524.633
        31.750
  -2715898.37947  -2060011.10544  20097590.9694                   20097592.0744
        42.2504         24.7504
    -96044.42647    -22145.36744  20736488.0554                   20736486.6024
        44.0004         28.0004
    766881.27747    625382.50044  20483478.6484                   20483475.7894
        46.5004         29.2504
   3682950.48846   2875633.37143  22454384.0704                   22454388.2034
        40.5004         23.7504
 19  3  7 18 30 50.0000000  0  4G09G16G23G26
  -2729139.45346  -2070328.81243  20095071.6254                   20095072.5124
        41.2504         23.0004
   -100746.83247    -25809.60244  20735593.2114                   20735592.2624
        43.7504         28.5004
    763495.89847    622744.53944  20482834.6564                   20482831.1914
        47.0004         28.5004
   3687705.30546   2879338.41443  22455290.0864                   22455292.8914
        39.2504         22.0004
 19  3  7 18 30 55.0000000  0  4G09G16G23G26
  -2742364.14846  -2080633.77344  20092554.4774                   20092555.9964
        41.5004         24.2504
   -105427.50047    -29456.86344  20734703.1954                   20734701.0124
        43.2504         28.7504
    760126.59847    620119.10544  20482193.5314                   20482190.1454
        46.5004         29.2504
   3692474.47346   2883054.63343  22456197.4304                   22456200.6134
        40.2504         21.5004
 19  3  7 18 31  0.0000000  0  5G07G09G16G23G26
  -5011336.13316                  21904777.328
        37.000
  -2755573.41047  -2090926.70744  20090040.9774                   20090042.1994
        42.5004         26.0004
   -110087.39847    -33087.95344  20733816.3444                   20733814.8714
        43.0004         27.5004
    756772.45747    617505.48045  20481554.5554                   20481552.0744
        44.5004         30.0004
   3697257.04346   2886781.29743  22457107.6334                   22457110.3794
        37.5004         22.5004
 19  3  7 18 31  5.0000000  0  5G07G09G16G23G26
  -5031894.28916                  21900864.969
        38.750
  -2768766.47747  -2101207.03144  20087530.2814                   20087531.8134
        43.7504         26.7504
   -114725.82047    -36702.29344  20732933.6884                   20732931.9574
        43.7504         27.0004
    753434.11347    614904.21944  20480918.6024                   20480917.0554
        46.0004         27.5004
   3702053.61346   2890518.86343  22458020.1564                   22458023.6564
        38.5004         22.2504
 19  3  7 18 31 10.0000000  0  5G07G09G16G23G26
  -3477018.855 7                  22196748.313
        42.000
  -1206520.99647   -883872.90244  20384815.7274                   20384817.0164
        43.0004         29.7504
   1456077.82447   1187300.53944  21031847.8134                   21031845.8134
        43.0004         26.2504
   2325532.04347   1839915.53944  20780079.9144                   20780077.1454
        45.5004         28.5004
   5282283.01646   4121866.43043  22758727.4384                   22758731.3364
        39.5004         21.5004
 19  3  7 18 31 15.0000000  0  5G07G09G16G23G26
  -3497557.887 6                  22192839.641
        40.500
  -1219682.39547   -894128.53544  20382310.9454                   20382312.6524
        44.2504         29.7504
   1451481.66847   1183719.10944  21030972.8594                   21030971.2894
        42.5004         27.0004
   2322224.75047   1837338.42644  20779450.4384                   20779447.7774
        44.5004         28.7504
   5287107.02346   4125625.43043  22759644.5164                   22759648.9064
        39.2504         21.7504
 19  3  7 18 31 20.0000000  0  5G07G09G16G23G26
  -3518087.58646  -1690493.56254  22188932.8834                   22188931.3714
        40.5004         27.5004
  -1232828.11347   -904371.95344  20379809.7584                   20379810.9344
        44.2504         29.5004
   1446906.46147   1180154.01644  21030102.0554                   21030101.1134
        42.5004         27.2504
   2318932.75447   1834773.23044  20778823.6954                   20778821.1724
        44.2504         28.7504
   5291944.62546   4129394.93043  22760566.9844                   22760569.5984
        39.0004         21.5004
 19  3  7 18 31 25.0000000  0  5G07G09G16G23G26
  -3538607.98446  -1706483.48444  22185028.2274                   22185026.8554
        40.7504         28.2504
  -1245958.21147   -914603.19944  20377311.0234                   20377312.5314
        44.5004         29.5004
   1442352.12947   1176605.18444  21029235.3054                   21029234.3524
        42.0004         27.2504
   2315656.01647   1832219.93844  20778200.8834                   20778197.6414
        44.2504         28.7504
   5296795.60946   4133174.89843  22761490.8914                   22761492.8444
        41.5004         21.5004
 19  3  7 18 31 30.0000000  0  5G07G09G16G23G26
  -3559118.83646  -1722465.96144  22181125.0944                   22181124.1454
        40.7504         27.5004
  -1259072.45347   -924822.08644  20374815.2504                   20374816.6994
        44.0004         29.0004
   1437818.92247   1173072.81344  21028372.8054                   21028371.0314
        42.2504         26.7504
   2312394.75847   1829678.68444  20777580.1884                   20777576.9264
        44.5004         29.0004
   5301660.29346   4136965.61743  22762414.3284                   22762418.7194
        39.0004         21.7504
 19  3  7 18 31 35.0000000  0  5G07G09G16G23G26
  -3579620.06246  -1738440.95344  22177223.5944                   22177223.1604
        40.5004         25.5004
  -1272170.74247   -935028.55144  20372322.9454                   20372324.1604
        44.0004         29.2504
   1433306.93447   1169556.97744  21027514.1804                   21027512.7664
        42.0004         27.2504
   2309149.03147   1827149.54744  20776962.1484                   20776959.2544
        44.0004         28.7504
   5306538.73846   4140766.97743  22763343.8444                   22763346.8404
        39.7504         22.0004
 19  3  7 18 31 40.0000000  0  5G07G09G16G23G26
  -3600111.53946  -1754408.32844  22173324.6024                   22173324.0084
        41.0004         27.0004
  -1285252.91047   -945222.44944  20369833.7894                   20369835.0864
        44.2504         29.5004
   1428816.26247   1166057.76644  21026659.3914                   21026658.3674
        42.0004         27.0004
   2305918.97747   1824632.62944  20776347.1174                   20776344.3984
        44.5004         28.2504
   5311431.07846   4144579.15643  22764275.1484                   22764278.1334
        41.2504         22.0004
 19  3  7 18 31 45.0000000  0  5G07G09G16G23G26
  -3620593.62946  -1770368.40244  22169426.9924                   22169426.2894
        40.7504         26.7504
  -1298319.37147   -955404.10544  20367347.2734                   20367348.0554
        44.0004         29.2504
   1424346.55546   1162574.85944  21025808.6334                   21025807.6884
        41.7504         26.7504
   2302704.28147   1822127.66844  20775735.7734                   20775733.0744
        44.2504         29.0004
   5316336.88746   4148401.89543  22765207.7034                   22765211.9344
        39.2504         22.5004
 19  3  7 18 31 50.0000000  0  5G07G09G16G23G26
  -3641066.48846  -1786321.27344  22165531.1254                   22165530.6804
        40.5004         27.5004
  -1311370.23847   -965573.61344  20364863.3984                   20364864.9384
        44.0004         29.5004
   1419897.63747   1159108.19144  21024962.3754                   21024960.7894
        42.5004         26.7504
   2299504.87947   1819634.62144  20775127.5474                   20775124.3714
        44.5004         28.5004
   5321256.03946   4152234.97743  22766144.5234                   22766147.7304
        40.0004         22.2504
 19  3  7 18 31 55.0000000  0  5G07G09G16G23G26
  -3661529.93446  -1802266.82044  22161637.0004                   22161636.4654
        40.5004         28.2504
  -1324405.30547   -975730.81244  20362383.1724                   20362384.3364
        44.2504         29.5004
   1415469.72747   1155657.85944  21024119.8134                   21024118.2934
        42.0004         26.2504
   2296320.82847   1817153.53944  20774521.3594                   20774518.3204
        44.0004         28.7504
   5326188.73846   4156078.64543  22767082.4774                   22767086.2384
        39.2504         22.5004
 19  3  7 18 32  0.0000000  0  5G07G09G16G23G26
  -3681983.76246  -1818204.87144  22157744.2814                   22157744.2934
        40.2504         27.2504
  -1337424.43747   -985875.59444  20359905.6804                   20359907.0904
        44.2504         29.5004
   1411063.05147   1152224.09444  21023281.6024                   21023279.9184
        42.7504         25.7504
   2293152.35547   1814684.60244  20773917.9064                   20773915.5434
        44.5004         28.7504
   5331135.07046   4159932.91843  22768024.4304                   22768027.8204
        40.2504         22.5004
 19  3  7 18 32  5.0000000  0  5G07G09G16G23G26
  -3702428.15246  -1834135.56244  22153855.2814                   22153854.1414
        40.5004         28.0004
  -1350427.71947   -996008.01644  20357431.0474                   20357432.5084
        44.0004         29.5004
   1406677.34447   1148806.64144  21022446.4844                   21022445.5274
        42.0004         26.5004
   2289999.30947   1812227.68444  20773318.3054                   20773315.5824
        44.5004         28.5004
   5336094.93846   4163797.73843  22768968.3754                   22768971.2304
        40.0004         22.0004
 19  3  7 18 32 10.0000000  0  5G07G09G16G23G26
  -3722862.91446  -1850058.75044  22149965.9534                   22149965.8554
        40.7504         27.7504
  -1363415.06247  -1006128.02344  20354960.0704                   20354961.2894
        44.7504         29.7504
   1402312.74247   1145405.67244  21021616.0394                   21021614.9454
        42.0004         27.2504
   2286861.84847   1809782.91044  20772721.1804                   20772718.0204
        44.0004         28.5004
   5341068.43446   4167673.18443  22769914.3674                   22769917.8554
        40.5004         22.0004
 19  3  7 18 32 15.0000000  0  5G07G09G16G23G26
  -3743288.27046  -1865974.61744  22146078.8914                   22146078.2664
        40.5004         28.5004
  -1376386.60247  -1016235.72344  20352491.5234                   20352492.6334
        44.0004         28.7504
   1397969.03547   1142020.96144  21020789.4224                   21020788.3524
        42.0004         26.5004
   2283739.76247   1807350.11344  20772126.2504                   20772124.2504
        43.7504         29.0004
   5346055.35546   4171559.10943  22770862.9224                   22770866.8714
        40.0004         22.5004
 19  3  7 18 32 20.0000000  0  5G07G09G16G23G26
  -3763704.16046  -1881883.09844  22142194.3914                   22142193.5434
        40.5004         28.7504
  -1389342.33247  -1026331.09444  20350026.1484                   20350027.2304
        44.5004         29.7504
   1393646.26647   1138652.56344  21019966.8444                   21019965.6524
        42.0004         26.7504
   2280633.03147   1804929.27344  20771536.0474                   20771533.1254
        44.0004         29.2504
   5351055.73046   4175455.49643  22771814.2344                   22771818.4804
        39.5004         22.2504
 19  3  7 18 32 25.0000000  0  5G07G09G16G23G26
  -3784110.49646  -1897784.14144  22138310.7894                   22138310.1644
        40.5004         28.5004
  -1402282.14147  -1036414.06644  20347564.2274                   20347565.0234
        44.0004         29.2504
   1389344.53547   1135300.57444  21019148.6414                   21019147.2194
        42.2504         27.0004
   2277541.77347   1802520.50044  20770947.4774                   20770944.6094
        44.2504         28.7504
   5356069.67646   4179362.46143  22772768.8834                   22772772.5634
        39.5004         22.5004
 19  3  7 18 32 30.0000000  0  5G07G09G16G23G26
  -3804507.53146  -1913677.93744  22134429.2504                   22134428.7154
        40.7504         27.5004
  -1415206.32047  -1046484.85944  20345104.5634                   20345105.4104
        44.5004         29.2504
   1385063.58247   1131964.74244  21018333.5704                   21018332.3524
        42.2504         27.0004
   2274465.77747   1800123.60944  20770362.3674                   20770359.2664
        44.5004         28.7504
   5361096.91046   4183279.79743  22773725.8754                   22773729.2624
        39.0004         22.7504
 19  3  7 18 32 35.0000000  0  5G07G09G16G23G26
  -3824894.82446  -1929564.13744  22130549.6724                   22130549.1294
        40.7504         28.0004
  -1428114.33647  -1056543.05144  20342648.0704                   20342649.4774
        44.5004         29.2504
   1380803.79747   1128645.43844  21017523.1644                   21017521.8914
        42.5004         26.5004
   2271405.41047   1797738.91444  20769780.1954                   20769776.8324
        44.2504         28.7504
   5366137.83246   4187207.72743  22774685.3444                   22774688.1884
        41.0004         22.5004
 19  3  7 18 32 40.0000000  0  5G07G09G16G23G26
  -3845272.49646  -1945442.83244  22126671.9224                   22126671.8094
        40.7504         28.2504
  -1441006.36347  -1066588.78144  20340194.7344                   20340196.2504
        44.2504         29.5004
   1376565.10247   1125342.57044  21016717.2344                   21016715.2974
        42.0004         26.7504
   2268360.60247   1795366.33644  20769200.4694                   20769197.5984
        44.2504         29.0004
   5371192.26646   4191146.30543  22775646.0944                   22775650.7384
        40.0004         22.5004
 19  3  7 18 32 45.0000000  0  5G07G09G16G23G26
  -3865640.80146  -1961314.23444  22122795.6644                   22122795.5354
        40.7504         28.0004
  -1453882.64147  -1076622.25444  20337744.5314                   20337745.9654
        44.0004         29.5004
   1372347.29347   1122055.96144  21015913.8204                   21015912.5744
        42.5004         27.2504
   2265331.11347   1793005.68844  20768624.7424                   20768621.1564
        44.5004         29.0004
   5376260.07846   4195095.23043  22776609.8134                   22776614.8874
        38.7504         22.7504
 19  3  7 18 32 50.0000000  0  5G07G09G16G23G26
  -3885999.61746  -1977178.25044  22118922.1414                   22118921.2894
        41.0004         28.2504
  -1466743.07847  -1086643.37144  20335297.3204                   20335298.3484
        44.5004         29.2504
   1368150.32847   1118785.59844  21015114.8914                   21015113.8134
        42.0004         27.0004
   2262316.97747   1790657.00444  20768051.1174                   20768047.5824
        44.7504         29.0004
   5381341.23446   4199054.52043  22777578.9694                   22777581.3834
        41.0004         21.5004
 19  3  7 18 32 55.0000000  0  5G07G09G16G23G26
  -3906349.05546  -1993034.96944  22115049.7424                   22115048.9414
        41.0004         28.5004
  -1479587.75047  -1096652.21144  20332853.0234                   20332853.9264
        44.5004         29.7504
   1363974.21947   1115531.48444  21014320.8364                   21014319.2704
        42.5004         26.7504
   2259318.15247   1788320.25444  20767480.3134                   20767477.0124
        44.5004         28.7504
   5386435.68046   4203024.25843  22778546.8364                   22778551.0044
        39.5004         21.2504
 19  3  7 18 33  0.0000000  0  5G07G09G16G23G26
  -3926689.05546  -2008884.30544  22111178.6024                   22111178.4774
        40.7504         28.5004
  -1492416.60547  -1106648.71944  20330411.6564                   20330413.0354
        44.5004         29.5004
   1359818.95747   1112293.62544  21013529.5394                   21013528.5204
        42.5004         27.2504
   2256334.64847   1785995.45744  20766912.1334                   20766909.3834
        44.5004         28.7504
   5391543.48446   4207004.32043  22779520.2504                   22779523.1174
        39.5004         21.5004
 19  3  7 18 33  5.0000000  0  5G07G09G16G23G26
  -3947019.65246  -2024726.34444  22107309.8984                   22107309.9654
        41.0004         27.7504
  -1505229.65647  -1116632.91044  20327973.2814                   20327974.6914
        44.2504         29.7504
   1355684.49247   1109071.95344  21012742.8754                   21012741.7154
        42.5004         26.5004
   2253366.44547   1783682.56344  20766347.6484                   20766344.3914
        44.2504         28.7504
   5396664.52746   4210994.76243  22780494.1884                   22780497.1334
        40.0004         21.5004
 19  3  7 18 33 10.0000000  0  5G07G09G16G23G26
  -3967340.64846  -2040560.87944  22103443.0864                   22103442.8284
        40.7504         27.0004
  -1518026.73447  -1126604.66844  20325538.0864                   20325539.6724
        44.0004         29.5004
   1351571.00447   1105866.64144  21011960.6334                   21011958.7504
        42.2504         26.0004
   2250413.77747   1781381.78144  20765785.6804                   20765782.8634
        44.2504         28.7504
   5401799.03546   4214995.67243  22781470.6254                   22781473.9884
        39.5004         21.2504
 19  3  7 18 33 15.0000000  0  5G07G09G16G23G26
  -3987652.42646  -2056388.23844  22099577.7424                   22099577.6764
        40.7504         28.0004
  -1530808.19547  -1136564.24244  20323105.9774                   20323107.4024
        44.5004         29.7504
   1347478.18047   1102677.43444  21011181.5784                   21011179.8054
        42.2504         26.5004
   2247476.22347   1779092.77344  20765226.8054                   20765223.8444
        44.7504         29.0004
   5406946.58246   4219006.75443  22782450.6254                   22782454.1564
        40.5004         21.5004
 19  3  7 18 33 20.0000000  0  5G07G09G16G23G26
  -4007954.68046  -2072208.16844  22095714.3524                   22095714.2504
        40.7504         28.5004
  -1543573.78947  -1146511.45744  20320676.4844                   20320678.4184
        44.5004         29.5004
   1343406.26647   1099504.50444  21010406.8364                   21010405.4064
        42.0004         27.0004
   2244554.06347   1776815.76644  20764670.3444                   20764667.1724
        44.7504         29.0004
   5412107.47746   4223028.20343  22783433.5004                   22783436.4144
        41.0004         21.7504
 19  3  7 18 33 25.0000000  0  5G07G09G16G23G26
  -4028247.41846  -2088020.69544  22091853.1414                   22091852.3134
        41.0004         27.0004
  -1556323.42247  -1156446.23844  20318250.7274                   20318252.0354
        44.5004         29.5004
   1339355.22347   1096347.85244  21009635.1884                   21009634.1454
        42.0004         27.7504
   2241647.32047   1774550.76644  20764117.2734                   20764114.3324
        44.5004         29.0004
   5417281.66046   4227060.04343  22784417.3524                   22784421.0354
        40.7504         21.7504
 19  3  7 18 33 30.0000000  0  5G07G09G16G23G26
  -4048530.84846  -2103825.96544  22087993.5554                   22087992.6134
        41.0004         27.5004
  -1569057.38347  -1166368.80944  20315827.4694                   20315828.5354
        44.5004         29.5004
   1335324.90247   1093207.34044  21008869.0474                   21008867.5514
        42.2504         26.7504
   2238755.77347   1772297.61344  20763567.1334                   20763564.3014
        45.0004         29.0004
   5422468.97346   4231102.12543  22785404.0784                   22785408.0234
        39.2504         22.2504
 19  3  7 18 33 35.0000000  0  5G07G09G16G23G26
  -4068805.00446  -2119624.00444  22084135.2114                   22084134.6804
        40.7504         28.5004
  -1581775.68747  -1176279.18044  20313407.3984                   20313408.3634
        44.0004         29.7504
   1331315.16447   1090082.86744  21008105.6414                   21008104.3484
        42.5004         27.5004
   2235879.39847   1770056.28144  20763020.2194                   20763017.0704
        44.5004         29.0004
   5427669.34046   4235154.31343  22786394.2504                   22786397.1134
        39.5004         22.0004
 19  3  7 18 33 40.0000000  0  5G07G09G16G23G26
  -4089069.82446  -2135414.77744  22080278.8754                   22080278.5514
        40.7504         28.5004
  -1594478.27047  -1186177.29344  20310990.1564                   20310991.2814
        44.0004         29.7504
   1327326.10947   1086974.51244  21007346.8594                   21007345.3914
        42.5004         26.5004
   2233018.18047   1767826.75444  20762475.3444                   20762472.5164
        45.2504         28.7504
   5432882.73446   4239216.69943  22787385.5474                   22787389.3284
        40.0004         21.5004
 19  3  7 18 33 45.0000000  0  5G07G09G16G23G26
  -4109325.37146  -2151198.31644  22076424.3444                   22076424.1334
        40.7504         28.0004
  -1607165.19547  -1196063.21545  20308575.5704                   20308577.1414
        44.0004         30.0004
   1323357.67647   1083882.21944  21006591.7194                   21006590.3754
        42.5004         26.7504
   2230172.10247   1765609.03144  20761933.9844                   20761930.7424
        45.0004         29.0004
   5438109.12946   4243289.22343  22788380.5474                   22788384.1484
        39.0004         21.0004
 19  3  7 18 33 50.0000000  0  5G07G09G16G23G26
  -4129571.48846  -2166974.52044  22072571.8594                   22072571.0554
        40.7504         28.5004
  -1619836.29347  -1205936.79345  20306164.4224                   20306165.9104
        44.0004         30.0004
   1319409.96547   1080806.09444  21005840.8754                   21005839.0354
        42.7504         27.0004
   2227341.31647   1763403.22744  20761395.1174                   20761392.1214
        44.5004         29.2504
   5443348.72746   4247372.00043  22789378.2274                   22789380.7664
        39.7504         21.5004
 19  3  7 18 33 55.0000000  0  5G07G09G16G23G26
  -4149808.09046  -2182743.30144  22068720.5474                   22068719.7034
        40.7504         27.7504
  -1632491.45747  -1215797.96944  20303756.3364                   20303757.8094
        44.5004         29.5004
   1315483.06647   1077746.16044  21005092.9614                   21005091.6884
        42.0004         26.5004
   2224525.85947   1761209.36344  20760859.1804                   20760856.3484
        44.5004         28.2504
   5448601.51646   4251465.09043  22790377.7424                   22790380.6024
        40.0004         21.7504
 19  3  7 18 34  0.0000000  0  5G07G09G16G23G26
  -4170035.19946  -2198504.67644  22064871.6094                   22064871.0704
        40.7504         27.7504
  -1645130.69547  -1225646.71945  20301351.0394                   20301352.6804
        43.5004         30.0004
   1311577.03947   1074702.51244  21004349.8914                   21004348.4224
        42.2504         26.5004
   2221725.84847   1759027.52744  20760326.5634                   20760323.5944
        44.0004         28.5004
   5453867.57046   4255568.50843  22791378.7344                   22791382.8134
        39.0004         21.5004
 19  3  7 18 34  5.0000000  0  5G07G09G16G23G26
  -4190252.93446  -2214258.75044  22061025.0004                   22061023.8914
        40.7504         28.5004
  -1657754.19547  -1235483.21544  20298948.9224                   20298950.4654
        43.5004         29.2504
   1307691.60247   1071674.89144  21003610.9534                   21003608.9064
        42.2504         26.5004
   2218941.03547   1756857.55544  20759796.0634                   20759793.4614
        44.2504         28.7504
   5459146.65246   4259682.05943  22792384.3054                   22792387.5124
        39.0004         21.7504
 19  3  7 18 34 10.0000000  0  5G07G09G16G23G26
  -4210461.48446  -2230005.67644  22057178.8284                   22057178.5234
        40.7504         28.7504
  -1670362.06647  -1245307.52744  20296549.6644                   20296551.1764
        43.7504         29.5004
   1303826.66047   1068663.25044  21002875.2734                   21002873.6604
        42.0004         26.5004
   2216171.22747   1754699.25444  20759269.3984                   20759266.3364
        44.0004         28.7504
   5464438.53946   4263805.60943  22793391.2504                   22793394.7504
        40.2504         21.7504
 19  3  7 18 34 15.0000000  0  5G07G09G16G23G26
  -4230660.69946  -2245745.32444  22053335.0314                   22053334.8834
        40.7504         28.0004
  -1682954.20747  -1255119.59044  20294153.6884                   20294154.9304
        43.7504         29.5004
   1299982.29747   1065667.64544  21002143.8134                   21002142.2504
        42.2504         27.0004
   2213416.60247   1752552.78544  20758745.2274                   20758742.3364
        44.2504         29.0004
   5469743.40646   4267939.28143  22794400.0314                   22794404.1804
        40.0004         21.5004
 19  3  7 18 34 20.0000000  0  5G07G09G16G23G26
  -4250850.87546  -2261477.91844  22049493.2734                   22049492.5944
        40.7504         28.7504
  -1695530.85947  -1264919.57844  20291760.2034                   20291761.3874
        43.7504         29.5004
   1296158.28546   1062687.89544  21001415.8914                   21001414.2194
        41.5004         26.5004
   2210676.94547   1750417.98444  20758224.0314                   20758220.7854
        44.7504         28.7504
   5475061.04746   4272082.89843  22795412.0784                   22795415.7894
        39.5004         21.5004
 19  3  7 18 34 25.0000000  0  5G07G09G16G23G26
  -4271031.33645  -2277202.95743  22045653.1414                   22045652.4534
        34.7504         22.5004
  -1708091.57047  -1274707.14544  20289370.0164                   20289371.2114
        42.5004         29.7504
   1292355.01247   1059724.30944  21000692.2734                   21000690.6134
        42.2504         26.0004
   2207952.58247   1748295.10544  20757705.7114                   20757702.3054
        44.7504         28.5004
   5480391.82046   4276236.69543  22796428.6724                   22796430.2504
        40.5004         21.0004
 19  3  7 18 34 30.0000000  0  5G07G09G16G23G26
  -4291202.69915                  22041814.102
        33.500
  -1720636.55546  -1284482.46543  20286982.9064                   20286983.9574
        40.5004         22.0004
   1288572.31647   1056776.73044  20999972.8284                   20999970.6294
        42.0004         28.7504
   2205243.31647   1746183.96145  20757189.8444                   20757186.5474
        44.0004         31.5004
   5485735.41046   4280400.54743  22797443.4774                   22797446.9534
        38.5004         22.7504
 19  3  7 18 34 35.0000000  0  5G07G09G16G23G26
  -4311365.285 6                  22037977.711
        37.750
  -1733166.59046  -1294246.09843  20284598.0164                   20284599.7304
        41.5004         22.0004
   1284809.42647   1053844.63344  20999255.9224                   20999254.8204
        44.0004         29.5004
   2202548.58247   1744084.17245  20756677.2114                   20756674.0664
        46.5004         33.7504
   5491091.26246   4284573.94144  22798462.7034                   22798466.2114
        41.2504         25.7504
 19  3  7 18 34 40.0000000  0  5G07G09G16G23G26
  -4331519.695 6                  22034142.109
        36.000
  -1745681.77347  -1303998.21943  20282217.6484                   20282218.0474
        43.0004         22.2504
   1281066.16047   1050927.76644  20998543.6644                   20998542.1804
        43.2504         29.7504
   2199867.98047   1741995.37945  20756167.4384                   20756164.3014
        47.0004         33.0004
   5496459.03946   4288756.64544  22799484.6724                   22799487.4964
        41.5004         24.2504
 19  3  7 18 34 45.0000000  0  5G07G09G16G23G26
  -4351665.473 6                  22030308.445
        38.500
  -1758181.87146  -1313738.53944  20279838.3914                   20279839.4454
        41.7504         24.5004
   1277342.71147   1048026.40244  20997835.6024                   20997833.8014
        43.5004         29.0004
   2197201.85547   1739917.86345  20755659.8364                   20755656.9534
        45.5004         32.7504
   5501839.01246   4292948.85244  22800507.8834                   22800511.9694
        39.5004         24.2504
 19  3  7 18 34 50.0000000  0  5G07G09G16G23G26
  -4371801.906 5                  22026476.367
        34.750
  -1770666.27747  -1323466.65643  20277462.8594                   20277463.8914
        42.2504         22.5004
   1273639.78147   1045140.99644  20997130.7814                   20997129.3754
        43.0004         29.2504
   2194550.80147   1737852.14545  20755155.2274                   20755152.5784
        45.7504         30.5004
   5507231.82046   4297150.93844  22801534.5944                   22801537.9264
        39.7504         26.0004
 19  3  7 18 34 55.0000000  0  5G07G09G16G23G26
  -4391928.770 6                  22022647.086
        38.500
  -1783134.67247  -1333182.27043  20275089.9144                   20275091.1914
        42.0004         22.2504
   1269957.69947   1042271.84844  20996429.7504                   20996428.5904
        42.7504         28.2504
   2191915.23847   1735798.43045  20754653.8134                   20754650.6414
        47.0004         32.2504
   5512637.82046   4301363.41443  22802563.7194                   22802566.7304
        40.7504         23.0004
 19  3  7 18 35  0.0000000  0  5G07G09G16G23G26
  -4412046.434 6                  22018818.438
        37.250
  -1795587.42247  -1342885.77344  20272720.5394                   20272721.5904
        42.5004         25.0004
   1266295.93447   1039418.51245  20995732.9144                   20995731.8714
        43.0004         30.5004
   2189294.59047   1733756.34445  20754155.2034                   20754152.2154
        45.0004         34.0004
   5518056.46546   4305585.68044  22803593.5234                   22803598.2234
        39.2504         24.5004
 19  3  7 18 35  5.0000000  0  5G07G09G16G23G26
  -4432154.961 5                  22014991.438
        35.750
  -1808024.74646  -1352577.15243  20270353.8674                   20270355.0824
        41.5004         22.5004
   1262654.39147   1036580.95744  20995039.8204                   20995038.9844
        42.5004         28.5004
   2186688.72747   1731725.82845  20753659.0634                   20753656.1604
        44.5004         32.2504
   5523487.53946   4309817.75844  22804629.3524                   22804631.8324
        40.5004         24.5004
 19  3  7 18 35 10.0000000  0  5G07G09G16G23G26
  -4452254.754 6                  22011166.891
        36.750
  -1820446.59847  -1362256.48043  20267989.3204                   20267991.0124
        45.5004         22.7504
   1259033.11747   1033759.24643  20994350.8914                   20994349.6804
        43.0004         23.7504
   2184097.83647   1729707.01244  20753165.6644                   20753163.0594
        44.0004         27.0004
   5528931.27746   4314059.67243  22805663.5554                   22805667.5664
        41.0004         20.7504
 19  3  7 18 35 15.0000000  0  5G07G09G16G23G26
  -4472346.016 5                  22007344.266
        35.250
  -1832853.59847  -1371924.32044  20265628.4924                   20265629.6094
        43.5004         24.5004
   1255431.30146   1030952.59443  20993665.5164                   20993664.2664
        41.7504         22.7504
   2181520.99247   1727699.05144  20752675.7274                   20752672.7704
        44.7504         25.0004
   5534386.72746   4318310.69543  22806700.8364                   22806705.7304
        40.0004         19.2504
 19  3  7 18 35 20.0000000  0  5G07G09G16G23G26
  -4492428.594 5                  22003522.852
        34.750
  -1845245.67247  -1381580.48043  20263270.0634                   20263271.4304
        42.5004         23.7504
   1251849.16847   1028161.29744  20992983.4694                   20992981.9774
        43.2504         25.5004
   2178958.49647   1725702.27344  20752188.2894                   20752184.7074
        45.7504         29.2504
   5539854.27746   4322571.05143  22807742.6564                   22807745.9654
        40.2504         19.2504
 19  3  7 18 35 25.0000000  0  5G07G09G16G23G26
  -4512503.949 6                  21999702.031
        36.000
  -1857623.97347  -1391225.89144  20260914.7114                   20260916.4104
        43.5004         25.0004
   1248285.50047   1025384.46544  20992305.3834                   20992303.7854
        43.0004         25.0004
   2176409.16447   1723715.79744  20751702.8204                   20751699.9614
        46.2504         28.0004
   5545332.54747   4326839.80543  22808785.2664                   22808788.2734
        42.5004         19.5004
 19  3  7 18 35 30.0000000  0  5G07G09G16G23G26
  -4532572.422 6                  21995883.766
        36.000
  -1869988.82047  -1400860.79343  20258562.2894                   20258563.1644
        44.0004         23.0004
   1244739.96547   1022621.70343  20991631.0474                   20991629.5354
        43.5004         22.7504
   2173872.53947   1721739.24244  20751219.6724                   20751217.1374
        44.5004         25.5004
   5550821.19546   4331116.78143  22809829.3444                   22809832.8134
        40.5004         18.5004
 19  3  7 18 35 35.0000000  0  5G07G09G16G23G26
  -4552632.742 6                  21992066.008
        38.500
  -1882339.14547  -1410484.48844  20256211.7194                   20256213.2154
        44.0004         28.5004
   1241213.58247   1019873.83644  20990960.3914                   20990958.6884
        42.7504         24.5004
   2171349.80947   1719773.46544  20750739.6414                   20750737.4344
        43.0004         25.5004
   5556321.36746   4335402.55143  22810875.8984                   22810879.1334
        40.2504         20.0004
 19  3  7 18 35 40.0000000  0  5G07G09G16G23G26
  -4572684.070 6                  21988250.016
        37.250
  -1894674.07847  -1420096.10244  20253864.4924                   20253865.7934
        43.7504         27.0004
   1237707.25447   1017141.63344  20990292.4064                   20990291.6484
        42.5004         25.7504
   2168841.85247   1717819.20744  20750263.2194                   20750260.4224
        43.7504         25.5004
   5561833.87146   4339698.02343  22811924.5004                   22811928.4574
        40.0004         20.7504
 19  3  7 18 35 45.0000000  0  5G07G09G16G23G26
  -4592726.004 6                  21984437.039
        37.750
  -1906993.14147  -1429695.37144  20251520.4304                   20251521.7034
        44.0004         28.0004
   1234221.40247   1014425.38344  20989629.3524                   20989628.3754
        42.2504         25.5004
   2166349.03547   1715876.73444  20749788.7504                   20749785.7384
        44.0004         26.2504
   5567359.10946   4344003.41843  22812976.5164                   22812979.7114
        41.0004         20.0004
 19  3  7 18 35 50.0000000  0  5G07G09G16G23G26
  -4612757.543 6                  21980625.234
        36.500
  -1919295.34846  -1439281.50844  20249179.4534                   20249180.5474
        41.7504         25.0004
   1230757.08646   1011725.91844  20988970.2664                   20988968.8954
        41.5004         25.2504
   2163872.44147   1713946.93044  20749317.2344                   20749314.2704
        43.0004         27.0004
   5572898.21546   4348319.56643  22814029.5004                   22814033.6684
        37.7504         19.5004
 19  3  7 18 35 55.0000000  0  5G07G09G16G23G26
  -4632779.793 6                  21976813.398
        37.500
  -1931581.79347  -1448855.37544  20246841.3984                   20246842.4804
        43.7504         26.7504
   1227313.10947   1009042.28144  20988314.9614                   20988313.6844
        42.5004         26.2504
   2161410.86747   1712028.83644  20748848.2664                   20748846.3594
        43.7504         26.0004
   5578449.89546   4352645.56343  22815086.7344                   22815090.3364
        39.0004         20.2504
 19  3  7 18 36  0.0000000  0  5G07G09G16G23G26
  -4652793.008 6                  21973006.203
        37.500
  -1943852.78547  -1458417.18444  20244505.8984                   20244507.5594
        43.7504         27.5004
   1223889.20347   1006374.31644  20987663.0004                   20987661.8244
        42.5004         28.0004
   2158964.07047   1710122.19544  20748383.2424                   20748380.7424
        44.0004         28.0004
   5584013.94546   4356981.16843  22816146.1334                   22816149.1764
        41.0004         20.2504
 19  3  7 18 36  5.0000000  0  5G07G09G16G23G26
  -4672797.445 6                  21969199.781
        38.000
  -1956108.47347  -1467967.06644  20242174.1954                   20242175.6484
        43.2504         27.0004
   1220485.12547   1003721.79344  20987015.1884                   20987014.5864
        43.0004         26.2504
   2156531.82847   1708226.96144  20747920.1414                   20747917.4804
        44.0004         26.7504
   5589590.13746   4361326.27043  22817207.4454                   22817210.3594
        41.0004         20.5004
 19  3  7 18 36 10.0000000  0  5G07G09G16G23G26
  -4692792.637 6                  21965395.336
        37.500
  -1968348.52047  -1477504.77344  20239845.6334                   20239846.4144
        43.0004         27.0004
   1217101.30547   1001085.05144  20986371.9304                   20986370.3134
        43.0004         26.0004
   2154114.60947   1706343.41044  20747460.5704                   20747457.5084
        44.0004         27.5004
   5595178.79746   4365681.07043  22818270.1024                   22818273.8714
        39.2504         20.2504
 19  3  7 18 36 15.0000000  0  5G07G09G16G23G26
  -4712779.141 6                  21961591.359
        37.750
  -1980573.35247  -1487030.58643  20237518.6804                   20237519.5204
        42.7504         23.0004
   1213737.25046    998463.73444  20985731.2734                   20985730.0904
        41.5004         24.5004
   2151711.82447   1704471.10544  20747003.3754                   20747000.1844
        43.7504         26.0004
   5600779.52346   4370045.18843  22819335.6564                   22819339.0514
        38.2504         20.0004
 19  3  7 18 36 20.0000000  0  5G07G09G16G23G26
  -4732756.89116                  21957788.398
        38.000
  -1992783.21147  -1496544.78143  20235194.8054                   20235196.3594
        42.7504         23.0004
   1210392.76247    995857.62144  20985094.9924                   20985093.6454
        43.0004         26.5004
   2149323.31647   1702609.87944  20746549.0164                   20746545.6254
        45.7504         29.7504
   5606392.05946   4374418.64143  22820404.1954                   22820406.9574
        40.7504         21.2504
 19  3  7 18 36 25.0000000  0  5G07G09G16G23G26
  -4752726.129 6                  21953989.711
        36.250
  -2004977.76647  -1506047.04744  20232874.9384                   20232875.6134
        42.7504         27.5004
   1207068.09847    993266.96944  20984462.4534                   20984460.8674
        42.0004         26.0004
   2146949.37547   1700760.09844  20746096.7894                   20746094.6414
        43.7504         28.5004
   5612016.58246   4378801.36743  22821474.7194                   22821477.8594
        41.2504         21.7504
 19  3  7 18 36 30.0000000  0  5G07G09G16G23G26
  -4772685.914 5                  21950190.922
        33.000
  -2017156.44547  -1515536.90643  20230557.3204                   20230558.5554
        42.5004         22.5004
   1203763.85547    990692.29344  20983833.8754                   20983832.4184
        42.5004         24.0004
   2144590.55547   1698922.07044  20745647.9534                   20745645.7544
        44.5004         27.7504
   5617653.77046   4383193.96543  22822547.1024                   22822550.8054
        38.7504         20.5004
 19  3  7 18 36 35.0000000  0  5G07G09G16G23G26
  -4792635.738 6                  21946394.648
        36.250
  -2029318.76247  -1525014.04344  20228243.2194                   20228244.1994
        43.0004         26.0004
   1200480.48447    988133.74244  20983209.4144                   20983207.9964
        43.7504         29.0004
   2142247.35247   1697096.13345  20745202.4924                   20745199.8834
        46.2504         32.0004
   5623304.13346   4387596.85943  22823622.7274                   22823626.0274
        40.7504         22.7504
 19  3  7 18 36 40.0000000  0  5G07G09G16G23G26
  -4812576.012 6                  21942600.828
        38.250
  -2041464.95347  -1534478.59043  20225931.7344                   20225932.7544
        44.5004         23.0004
   1197217.71947    985591.37144  20982588.1644                   20982587.3094
        43.5004         26.5004
   2139919.47747   1695282.27344  20744759.3594                   20744756.5124
        45.2504         27.2504
   5628967.32046   4392009.73843  22824701.1644                   22824703.6604
        41.0004         21.5004
 19  3  7 18 36 45.0000000  0  5G07G09G16G23G26
  -4832507.160 7                  21938807.461
        44.250
  -2053595.48847  -1543930.96945  20223622.7034                   20223624.7034
        45.2504         30.7504
   1193975.09047    983064.63344  20981971.0554                   20981970.0314
        43.5004         27.7504
   2137606.50047   1693479.92645  20744319.1414                   20744316.5204
        45.5004         30.7504
   5634642.83246   4396432.20743  22825779.9774                   22825783.6214
        40.5004         21.2504
 19  3  7 18 36 50.0000000  0  5G07G09G16G23G26
  -4852428.812 7                  21935016.445
        43.500
  -2065710.23047  -1553371.01645  20221317.6644                   20221319.2384
        44.5004         31.0004
   1190752.81347    980553.78944  20981357.5704                   20981356.4654
        43.7504         27.5004
   2135308.62947   1691689.37944  20743882.0634                   20743879.7154
        45.7504         29.7504
   5640330.94146   4400864.47743  22826863.4694                   22826866.0474
        41.0004         20.7504
 19  3  7 18 36 55.0000000  0  5G07G09G16G23G26
  -4872341.38747  -2302160.19554  21931227.3524                   21931223.1484
        43.0004         29.7504
  -2077809.39847  -1562798.95345  20219015.3754                   20219017.1644
        44.5004         31.0004
   1187550.59047    978058.54344  20980748.3364                   20980747.4304
        43.5004         27.5004
   2133025.59047   1689910.39144  20743447.3054                   20743444.8594
        45.7504         29.7504
   5646031.27346   4405306.29743  22827947.9304                   22827950.7274
        40.2504         21.0004
 19  3  7 18 37  0.0000000  0  5G07G09G16G23G26
  -4892244.81647  -2317669.36744  21927440.3754                   21927437.7974
        43.2504         29.2504
  -2089892.94547  -1572214.69545  20216716.0554                   20216717.7194
        44.5004         31.2504
   1184368.41847    975578.93444  20980142.9534                   20980141.8284
        43.5004         27.7504
   2130757.37147   1688142.94144  20743015.6724                   20743013.6484
        45.2504         29.7504
   5651743.87146   4409757.66443  22829033.8984                   22829037.9774
        40.2504         21.0004
 19  3  7 18 37  5.0000000  0  5G07G09G16G23G26
  -4912139.35247  -2333171.60944  21923654.1804                   21923653.4694
        43.0004         29.2504
  -2101961.07447  -1581618.43445  20214419.1954                   20214420.9574
        44.7504         31.2504
   1181206.11347    973114.79344  20979541.9064                   20979540.2894
        43.7504         26.7504
   2128503.78147   1686386.89845  20742587.2344                   20742584.4264
        45.5004         30.0004
   5657468.55546   4414218.42243  22830124.0554                   22830126.9224
        41.2504         21.0004
 19  3  7 18 37 10.0000000  0  5G07G09G16G23G26
  -4932025.14847  -2348667.03544  21919870.2274                   21919869.4384
        43.0004         28.7504
  -2114013.98847  -1591010.31645  20212125.8754                   20212127.7774
        44.5004         31.5004
   1178063.39547    970665.91044  20978943.3754                   20978941.9184
        43.5004         27.0004
   2126264.63747   1684642.10545  20742161.1804                   20742158.2664
        45.7504         30.0004
   5663205.05546   4418688.48043  22831214.8754                   22831218.9774
        40.0004         21.0004
 19  3  7 18 37 15.0000000  0  5G07G09G16G23G26
  -4951902.39547  -2364155.79744  21916087.4614                   21916087.5204
        43.0004         28.5004
  -2126051.88747  -1600390.50045  20209834.9144                   20209836.7704
        44.7504         31.2504
   1174940.13347    968232.20744  20978348.9924                   20978347.8484
        44.0004         27.0004
   2124039.75847   1682908.43045  20741737.5394                   20741735.3674
        45.7504         30.0004
   5668953.25446   4423167.54343  22832309.0394                   22832313.1454
        39.2504         20.5004
 19  3  7 18 37 20.0000000  0  5G07G09G16G23G26
  -4971770.90647  -2379637.73844  21912306.8204                   21912306.4654
        43.0004         28.0004
  -2138074.56247  -1609758.81645  20207547.0704                   20207548.7114
        44.5004         31.0004
   1171836.47747    965813.77344  20977758.3364                   20977757.2734
        44.0004         27.0004
   2121829.25847   1681185.95745  20741316.8134                   20741314.1454
        45.5004         30.2504
   5674713.19946   4427655.83243  22833405.5394                   22833408.7384
        40.2504         20.0004
 19  3  7 18 37 25.0000000  0  5G07G09G16G23G26
  -4991630.83647  -2395113.02344  21908527.6024                   21908526.9224
        43.0004         28.5004
  -2150082.14147  -1619115.37145  20205262.6024                   20205263.8094
        45.0004         31.2504
   1168752.32047    963410.53544  20977171.4384                   20977169.9224
        43.7504         27.2504
   2119633.03947   1679474.61345  20740898.6644                   20740896.5314
        45.5004         30.2504
   5680484.82846   4432153.18443  22834503.9774                   22834507.2114
        40.0004         20.2504
 19  3  7 18 37 30.0000000  0  5G07G09G16G23G26
  -5011482.39547  -2410581.77044  21904749.8054                   21904749.3134
        43.0004         29.2504
  -2162074.89147  -1628460.36345  20202980.2974                   20202981.8954
        45.0004         31.5004
   1165687.39847    961022.27744  20976587.9844                   20976587.1764
        44.0004         26.7504
   2117450.84447   1677774.20344  20740483.4144                   20740481.5274
        45.2504         29.7504
   5686267.88746   4436659.44543  22835604.8364                   22835607.4064
        41.2504         19.7504
 19  3  7 18 37 35.0000000  0  5G07G09G16G23G26
  -5031325.69147  -2426044.07444  21900973.6254                   21900973.5784
        43.0004         28.5004
  -2174052.84847  -1637793.84445  20200700.6644                   20200702.0944
        45.0004         31.5004
   1162641.60947    958648.95344  20976008.6334                   20976007.2584
        44.2504         27.0004
   2115282.63347   1676084.68045  20740071.5704                   20740068.7624
        46.0004         30.2504
   5692062.27746   4441174.55943  22836707.0554                   22836710.3284
        40.5004         20.5004
 19  3  7 18 37 40.0000000  0  5G07G09G16G23G26
  -5051160.34047  -2441499.65644  21897199.4534                   21897198.6844
        43.0004         28.7504
  -2186015.64147  -1647115.50845  20198424.3054                   20198425.8954
        44.7504         31.7504
   1159615.35947    956290.81644  20975432.9774                   20975431.4384
        44.5004         27.5004
   2113128.84847   1674406.38345  20739661.8674                   20739658.7584
        46.0004         31.0004
   5697868.35546   4445698.75443  22837811.3754                   22837814.8524
        40.7504         20.0004
 19  3  7 18 37 45.0000000  0  5G07G09G16G23G26
  -5070986.46947  -2456948.58244  21893426.3834                   21893426.3404
        42.5004         29.0004
  -2197963.32047  -1656425.39145  20196150.6414                   20196152.2814
        44.2504         30.5004
   1156608.73047    953947.99644  20974860.6804                   20974859.2734
        44.2504         27.0004
   2110989.41047   1672739.31644  20739253.6724                   20739251.2034
        45.0004         29.7504
   5703686.16446   4450232.10943  22838919.2114                   22838922.2664
        40.5004         20.2504
 19  3  7 18 37 50.0000000  0  5G07G09G16G23G26
  -5090803.52347  -2472390.43745  21889655.3914                   21889654.9024
        42.7504         30.0004
  -2209895.51247  -1665723.19945  20193880.3674                   20193881.7734
        44.5004         30.5004
   1153621.84047    951620.55144  20974291.6884                   20974290.3164
        44.0004         27.5004
   2108864.56347   1671083.57845  20738849.5704                   20738847.0204
        45.5004         30.2504
   5709515.95746   4454774.79743  22840028.6564                   22840031.1134
        40.7504         20.2504
 19  3  7 18 37 55.0000000  0  5G07G09G16G23G26
  -5110612.11347  -2487825.70744  21885885.5084                   21885885.2584
        42.5004         29.7504
  -2221812.75047  -1675009.35245  20191612.3444                   20191613.9844
        44.2504         31.0004
   1150654.12147    949308.04344  20973726.6644                   20973725.7734
        43.5004         28.0004
   2106753.77347   1669438.80545  20738448.6254                   20738445.5474
        45.7504         30.5004
   5715357.05146   4459326.31643  22841139.3594                   22841142.3524
        39.7504         20.5004
 19  3  7 18 38  0.0000000  0  5G07G09G16G23G26
  -5130412.68047  -2503254.70744  21882117.9614                   21882117.2344
        43.0004         28.7504
  -2233715.35247  -1684284.10545  20189347.3594                   20189348.9844
        44.5004         30.0004
   1147705.86747    947010.69944  20973166.5004                   20973165.3244
        44.0004         27.0004
   2104657.27047   1667805.18444  20738048.9384                   20738046.6254
        45.7504         29.5004
   5721209.52046   4463886.63743  22842253.7504                   22842256.7854
        41.0004         21.5004
 19  3  7 18 38  5.0000000  0  5G07G09G16G23G26
  -5150203.98847  -2518676.50844  21878351.9224                   21878351.6994
        43.2504         28.5004
  -2245602.23447  -1693546.60545  20187085.2584                   20187087.1054
        44.2504         30.5004
   1144777.23847    944728.64844  20972608.6644                   20972607.8444
        43.5004         28.0004
   2102575.11347   1666182.70744  20737652.9224                   20737650.0474
        46.0004         29.2504
   5727073.89546   4468456.30143  22843369.2974                   22843372.7544
        40.5004         21.2504
 19  3  7 18 38 10.0000000  0  5G07G09G16G23G26
  -5169986.16047  -2534091.18444  21874587.5474                   21874587.5394
        43.0004         28.5004
  -2257473.52747  -1702796.97345  20184826.4304                   20184828.0004
        44.2504         30.2504
   1141868.42647    942462.04744  20972055.5784                   20972054.8014
        43.5004         27.0004
   2100507.66447   1664571.71144  20737259.3134                   20737257.0634
        45.5004         29.5004
   5732950.25046   4473035.26643  22844487.6884                   22844490.9804
        40.7504         21.2504
 19  3  7 18 38 15.0000000  0  5G07G09G16G23G26
  -5189760.66447  -2549499.89544  21870824.5004                   21870824.3204
        43.5004         28.2504
  -2269330.63747  -1712036.27745  20182570.1094                   20182571.6764
        44.2504         30.5004
   1138978.07847    940209.82844  20971505.2504                   20971504.7734
        44.0004         27.2504
   2098453.55947   1662971.10944  20736868.5944                   20736866.2154
        46.0004         29.5004
   5738837.27346   4477622.52743  22845608.9064                   22845611.2464
        41.0004         20.2504
 19  3  7 18 38 20.0000000  0  5G07G09G16G23G26
  -5209527.95347  -2564902.96144  21867063.1414                   21867062.5554
        43.0004         27.5004
  -2281173.99647  -1721264.87145  20180316.0234                   20180317.5594
        44.5004         30.5004
   1136105.70347    937971.60544  20970958.6884                   20970957.7934
        43.7504         27.5004
   2096412.33647   1661380.53944  20736480.1724                   20736477.6844
        46.0004         29.5004
   5744734.35946   4482217.68043  22846729.8674                   22846733.2734
        40.7504         21.0004
 19  3  7 18 38 25.0000000  0  5G07G09G16G23G26
  -5229287.86347  -2580300.29744  21863302.7974                   21863302.0044
        43.0004         28.2504
  -2293003.38347  -1730482.56645  20178065.6804                   20178066.9304
        44.5004         30.5004
   1133251.80547    935747.79744  20970415.3984                   20970414.9304
        43.5004         27.0004
   2094384.44947   1659800.36745  20736094.0004                   20736091.7384
        45.5004         30.2504
   5750642.06646   4486821.06643  22847853.8674                   22847857.4224
        40.2504         21.0004
 19  3  7 18 38 30.0000000  0  5G07G09G16G23G26
  -5249046.66847  -2595696.75844  21859542.4614                   21859542.0704
        44.5004         26.2504
  -2304821.68347  -1739691.63244  20175816.4454                   20175817.1644
        44.5004         29.0004
   1130421.41947    933542.30944  20969877.2584                   20969875.1174
        43.7504         24.0004
   2092373.54147   1658233.41144  20735711.9454                   20735708.5634
        46.2504         28.2504
   5756565.07646   4491436.39143  22848982.0234                   22848984.4304
        40.0004         21.0004
 19  3  7 18 38 35.0000000  0  5G07G09G16G23G26
  -5268801.19147  -2611089.87144  21855783.6024                   21855782.7624
        43.2504         27.0004
  -2316627.81247  -1748891.22345  20173569.3054                   20173570.0984
        45.5004         31.0004
   1127611.00447    931352.37944  20969342.3834                   20969340.7814
        45.0004         28.2504
   2090378.36747   1656678.71544  20735332.1724                   20735329.0124
        46.2504         29.5004
   5762498.76247   4496060.03543  22850110.2194                   22850113.4304
        42.7504         23.7504
 19  3  7 18 38 40.0000000  0  5G07G09G16G23G26
  -5288544.23847  -2626474.06644  21852026.6644                   21852025.6684
        42.0004         27.0004
  -2328416.19147  -1758076.96545  20171326.3984                   20171327.1454
        45.5004         31.2504
   1124822.18847    929179.28144  20968811.7344                   20968809.9144
        45.0004         28.7504
   2088399.97347   1655137.12144  20734955.5164                   20734952.3754
        46.0004         29.5004
   5768446.08647   4500694.31344  22851242.4064                   22851245.0554
        43.0004         26.0004
 19  3  7 18 38 45.0000000  0  5G07G09G16G23G26
  -5308277.48846  -2641850.62944  21848271.0634                   21848270.5704
        41.5004         26.0004
  -2340188.28947  -1767250.05145  20169086.0474                   20169087.1564
        45.5004         31.5004
   1122053.94947    927022.19944  20968284.7664                   20968283.4454
        45.0004         29.2504
   2086437.53547   1653607.91844  20734581.7034                   20734579.0704
        45.5004         29.7504
   5774405.58247   4505338.07044  22852376.0554                   22852379.6174
        43.2504         26.0004
 19  3  7 18 38 50.0000000  0  5G07G09G16G23G26
  -5328002.59146  -2657220.85343  21844517.6954                   21844516.8984
        41.2504         23.5004
  -2351946.27147  -1776412.12945  20166848.1094                   20166849.8914
        45.5004         31.5004
   1119303.01647    924878.60544  20967760.9064                   20967760.0274
        45.0004         28.7504
   2084487.99347   1652088.79544  20734210.7274                   20734208.3364
        46.2504         28.7504
   5780374.19247   4509988.91744  22853511.6804                   22853515.5234
        42.5004         25.5004
 19  3  7 18 38 55.0000000  0  5G07G09G16G23G26
  -5347723.91447  -2672588.16843  21840764.3594                   21840764.2274
        43.0004         23.0004
  -2363693.66847  -1785565.93444  20164612.4844                   20164614.2584
        45.0004         28.5004
   1116566.67647    922746.40644  20967239.9224                   20967238.7154
        44.0004         26.5004
   2082546.82847   1650576.18844  20733841.0164                   20733838.5394
        46.0004         27.5004
   5786350.51646   4514645.78543  22854648.1564                   22854652.4654
        40.0004         22.0004
 19  3  7 18 39  0.0000000  0  5G07G09G16G23G26
  -5367448.82847  -2687958.23844  21837010.9774                   21837010.6524
        42.2504         25.0004
  -2375437.53547  -1794351.06255  20162377.7814                   20162379.6024
        44.5004         30.5004
   1113839.68047    920621.41844  20966721.1414                   20966719.2274
        44.7504         27.5004
   2080610.34047   1649067.21544  20733473.2344                   20733469.9024
        45.7504         29.2504
   5792327.74646   4519303.32043  22855785.4844                   22855789.5514
        41.5004         22.5004
 19  3  7 18 39  5.0000000  0  5G07G09G16G23G26
  -5387170.88346  -2703326.07844  21833258.0634                   21833257.8014
        41.0004         26.2504
  -2387172.46547  -1803495.14845  20160144.5234                   20160145.9654
        44.2504         30.0004
   1111124.44547    918505.65244  20966204.3834                   20966202.8364
        43.7504         28.5004
   2078680.87147   1647563.70744  20733105.7814                   20733102.3794
        45.0004         28.2504
   5798308.82847   4523963.88744  22856924.4774                   22856927.3204
        42.0004         26.0004
 19  3  7 18 39 10.0000000  0  5G07G09G16G23G26
  -5406883.37546  -2718686.46944  21829506.7734                   21829506.4694
        40.0004         25.0004
  -2398890.85247  -1812626.36744  20157914.7424                   20157915.9264
        43.7504         29.7504
   1108430.69547    916406.61744  20965692.5084                   20965690.1804
        43.5004         27.7504
   2076766.96947   1646072.34044  20732741.4844                   20732737.9224
        44.5004         28.2504
   5804304.05946   4528635.48444  22858064.4844                   22858068.1054
        41.0004         24.5004
 19  3  7 18 39 15.0000000  0  5G07G09G16G23G26
  -5426590.26646  -2734042.48843  21825756.5634                   21825756.2424
        40.2504         23.7504
  -2410596.24247  -1821747.45744  20155687.1334                   20155687.9694
        44.0004         29.5004
   1105756.00847    914322.43044  20965183.1174                   20965181.5864
        42.7504         26.7504
   2074866.64547   1644591.57444  20732379.5474                   20732376.3324
        44.7504         28.5004
   5810310.69146   4533315.96943  22859207.8914                   22859210.7034
        41.5004         22.7504
 19  3  7 18 39 20.0000000  0  5G07G09G16G23G26
  -5446295.35947  -2749397.04344  21822007.6564                   21822006.4924
        42.5004         27.7504
  -2422292.76647  -1830861.55545  20153461.9694                   20153463.3204
        45.0004         31.5004
   1103095.69147    912249.50844  20964677.0234                   20964675.2424
        44.2504         28.7504
   2072975.70747   1643118.18445  20732020.0704                   20732017.7544
        46.0004         30.0004
   5816323.32846   4538001.19943  22860352.5084                   22860355.2774
        41.5004         23.0004
 19  3  7 18 39 25.0000000  0  5G07G09G16G23G26
  -5465997.00047  -2764748.99644  21818258.7034                   21818258.0824
        42.5004         28.7504
  -2433978.77347  -1839967.55145  20151238.5234                   20151239.7114
        45.0004         32.0004
   1100451.00047    910188.71545  20964173.9064                   20964172.5744
        45.0004         30.0004
   2071095.19547   1641652.82045  20731662.5474                   20731660.0314
        45.7504         31.0004
   5822343.57847   4542692.26644  22861498.2894                   22861501.8794
        42.5004         26.7504
 19  3  7 18 39 30.0000000  0  4G09G16G23G26
                                  20149017.5004                   20149019.6804
        43.5004         29.5004
                                  20963674.2664                   20963673.8284
        43.0004         26.5004
                                  20731307.2664                   20731304.6604
        45.5004         27.2504
                                  22862646.6564                   22862649.7934
        39.5004         22.7504
 19  3  7 18 39 35.0000000  0  5G07G09G16G23G26
  -5505371.69156  -2795430.58254  21810765.4144                   21810765.7544
        41.5004         25.0004
  -2457302.81647  -1858142.14845  20146799.4224                   20146801.8524
        44.2504         30.0004
   1095220.05547    906112.62944  20963178.2424                   20963177.4844
        43.7504         28.2504
   2067376.40647   1638755.02744  20730954.9774                   20730953.2544
        45.5004         28.5004
   5834420.24246   4552102.61744  22863796.1334                   22863799.6954
        40.7504         24.5004
 19  3  7 18 39 40.0000000  0  5G07G09G16G23G26
  -5525045.79746  -2810761.03943  21807021.8444                   21807021.7384
        41.2504         23.2504
  -2468941.79747  -1867211.49644  20144584.6804                   20144586.7734
        44.0004         29.7504
   1092633.79747    904097.38744  20962686.5164                   20962684.9384
        44.5004         29.5004
   2065539.13747   1637323.39144  20730605.0474                   20730603.0274
        45.0004         28.7504
   5840475.53947   4556821.06344  22864948.5864                   22864952.3404
        42.0004         26.5004
 19  3  7 18 39 45.0000000  0  5G07G09G16G23G26
  -5544712.10246  -2826085.41844  21803278.8984                   21803278.7934
        41.7504         26.0004
  -2480566.03147  -1876269.33645  20142373.0234                   20142374.4144
        44.5004         31.0004
   1090066.71947    902097.05145  20962197.4454                   20962196.8244
        43.7504         30.0004
   2063715.18047   1635902.12544  20730258.3914                   20730255.2774
        45.0004         28.5004
   5846542.70746   4561548.69944  22866102.8364                   22866106.6684
        41.5004         27.0004
 19  3  7 18 39 50.0000000  0  5G07G09G16G23G26
  -5564372.35547  -2841405.07444  21799538.7894                   21799537.7234
        44.0004         29.0004
  -2492177.24147  -1885316.97345  20140163.9144                   20140165.1884
        46.0004         32.7504
   1087517.21947    900110.46144  20961712.9534                   20961711.7034
        44.2504         29.0004
   2061903.94147   1634490.82045  20729914.3754                   20729910.8324
        46.2504         30.5004
   5852619.11747   4566283.60544  22867259.8754                   22867263.1954
        42.5004         24.7504
 19  3  7 18 39 55.0000000  0  5G07G09G16G23G26
  -5584025.43046  -2856719.20344  21795798.2974                   21795798.5824
        41.0004         27.2504
  -2503775.55947  -1894354.69545  20137956.2504                   20137958.3714
        44.2504         31.0004
   1084983.33247    898135.96144  20961230.1024                   20961230.0234
        44.0004         29.2504
   2060103.44547   1633087.77744  20729571.0314                   20729568.9264
        45.2504         29.7504
   5858703.46146   4571024.59444  22868417.1484                   22868421.3674
        41.5004         24.7504
 19  3  7 18 40  0.0000000  0  5G07G09G16G23G26
  -5603670.99647  -2872027.39144  21792060.3524                   21792059.9224
        42.7504         27.2504
  -2515359.98047  -1903381.45745  20135752.4614                   20135754.0904
        45.7504         32.7504
   1082466.74647    896175.02745  20960751.8984                   20960750.7074
        45.5004         30.2504
   2058314.94147   1631694.18445  20729231.0234                   20729228.2734
        46.7504         30.7504
   5864797.47747   4575773.22344  22869577.5944                   22869581.1134
        43.0004         26.5004
 19  3  7 18 40  5.0000000  0  5G07G09G16G23G26
  -5623310.37947  -2887330.81644  21788323.2664                   21788323.2774
        43.7504         28.2504
  -2526932.06247  -1912398.67645  20133550.2274                   20133552.0554
        46.0004         33.0004
   1079966.33647    894226.64545  20960276.2194                   20960275.8714
        46.0004         31.5004
   2056538.98847   1630310.31345  20728893.2504                   20728891.1094
        46.7504         31.7504
   5870898.86347   4580527.54044  22870738.7894                   22870742.3014
        43.0004         26.5004
 19  3  7 18 40 10.0000000  0  5G07G09G16G23G26
  -5642940.03947  -2902626.63744  21784587.6484                   21784587.8484
        42.5004         25.2504
  -2538486.93047  -1921402.46545  20131350.7344                   20131353.8954
        45.7504         31.2504
   1077488.08647    892295.55544  20959804.3754                   20959803.5354
        45.5004         29.0004
   2054779.15247   1628939.02044  20728557.8524                   20728556.4614
        46.2504         29.2504
   5877014.92647   4585293.30144  22871901.6644                   22871906.7274
        42.7504         25.5004
 19  3  7 18 40 15.0000000  0  5G07G09G16G23G26
  -5662558.94547  -2917914.09844  21780854.0234                   21780854.2734
        44.2504         27.0004
  -2550024.89547  -1930393.10545  20129155.2584                   20129157.7734
        45.7504         30.7504
   1075030.05147    890380.19544  20959336.4774                   20959336.2894
        45.0004         28.7504
   2053034.93447   1627579.85544  20728225.9454                   20728224.1374
        46.0004         28.7504
   5883143.27347   4590068.61744  22873068.4534                   22873072.1374
        42.5004         26.0004
 19  3  7 18 40 20.0000000  0  5G07G09G16G23G26
  -5682171.86347  -2933196.89844  21777121.8364                   21777122.0634
        44.7504         27.7504
  -2561549.80147  -1939373.52045  20126962.5004                   20126964.5204
        45.2504         31.5004
   1072589.90247    888478.77344  20958872.2274                   20958871.7384
        43.7504         27.7504
   2051302.91047   1626230.25844  20727896.4454                   20727894.7194
        46.5004         29.5004
   5889282.00846   4594852.05143  22874236.5234                   22874240.7344
        41.2504         22.5004
 19  3  7 18 40 25.0000000  0  5G07G09G16G23G26
  -5701777.29347  -2948473.85544  21773391.0634                   21773390.9104
        42.5004         26.0004
  -2573060.69147  -1948343.05945  20124772.0784                   20124773.6914
        45.2504         30.2504
   1070166.54347    886590.45344  20958410.9454                   20958409.9144
        45.0004         28.2504
   2049582.82047   1624889.91044  20727568.5704                   20727566.7894
        46.2504         28.5004
   5895429.35547   4599642.18444  22875406.4304                   22875410.1914
        42.5004         24.5004
 19  3  7 18 40 30.0000000  0  5G07G09G16G23G26
  -5721368.95346  -2963740.22343  21769661.7584                   21769662.9884
        39.5004         22.7504
  -2584553.16847  -1957298.37544  20122584.7894                   20122586.8484
        42.0004         24.2504
   1067762.43046    884716.96943  20957952.9614                   20957952.8244
        41.0004         22.7504
   2047878.75847   1623561.94143  20727244.3524                   20727242.0204
        42.7504         22.5004
   5901587.43446   4604440.51643  22876577.8754                   22876582.0554
        40.2504         21.0004
 19  3  7 18 40 35.0000000  0  5G07G09G16G23G26
  -5740953.08647  -2979000.42244  21765936.6174                   21765936.7664
        43.5004         25.5004
  -2596030.52347  -1966241.62544  20120401.5704                   20120404.1764
        45.2504         29.2504
   1065379.51247    882860.29744  20957500.4614                   20957499.5664
        44.5004         27.2504
   2046191.09847   1622247.02744  20726923.7424                   20726921.1844
        46.0004         28.2504
   5907758.05946   4609248.96543  22877752.4304                   22877757.2274
        41.2504         21.2504
 19  3  7 18 40 40.0000000  0  5G07G09G16G23G26
  -5760529.262 7                  21762210.414
        43.250
  -2607493.52747  -1974816.88155  20118219.4064                   20118221.9924
        45.0004         32.5004
   1063014.180 7                  20957049.406
        44.500
   2044514.79747   1621098.83155  20726603.9144                   20726600.5394
        46.7504         32.2504
   5913939.66847   4614065.76243  22878928.6484                   22878933.3754
        43.0004         22.5004
 19  3  7 18 40 45.0000000  0  5G07G09G16G23G26
  -5780098.51247  -2994252.42254  21758486.8984                   21758485.1884
        42.2504         24.5004
  -2618943.03147  -1983738.55555  20116041.2114                   20116042.5274
        45.0004         30.7504
   1060665.89547    881168.29754  20956603.3754                   20956600.5824
        44.5004         28.7504
   2042851.21547   1619802.45354  20726288.2974                   20726285.3134
        46.0004         29.0004
   5920129.87147   4618889.28543  22880107.0554                   22880110.7894
        42.2504         22.5004
 19  3  7 18 40 50.0000000  0  5G07G09G16G23G26
  -5799659.70747  -3009494.85544  21754765.2894                   21754763.3284
        42.7504         24.0004
  -2630377.74647  -1992648.68445  20113865.4064                   20113866.6454
        45.5004         31.0004
   1058337.43447    879353.96944  20956160.2114                   20956158.5594
        45.5004         28.5004
   2041202.91847   1618518.14544  20725974.2894                   20725971.8284
        45.7504         28.5004
   5926331.63747   4623721.87943  22881287.8134                   22881291.4574
        43.5004         22.7504
 19  3  7 18 40 55.0000000  0  5G07G09G16G23G26
  -5819209.10747  -3024728.20244  21751045.0164                   21751043.6294
        43.7504         27.5004
  -2641794.46147  -2001544.88145  20111692.6884                   20111693.8284
        46.2504         30.7504
   1056029.17747    877555.27744  20955721.6884                   20955719.4774
        45.0004         28.0004
   2039569.14747   1617244.98844  20725664.0314                   20725660.7274
        46.5004         28.0004
   5932546.35257   4628564.44553  22882469.9064                   22882473.2504
        42.5004         23.0004
 19  3  7 18 41  0.0000000  0  5G07G09G16G23G26
  -5838752.13747  -3039956.50844  21747326.1484                   21747325.2194
        43.5004         27.0004
  -2653197.66847  -2010430.44545  20109522.6804                   20109524.3444
        46.0004         31.5004
   1053739.52047    875771.17244  20955285.2734                   20955284.1484
        45.5004         29.5004
   2037950.00847   1615983.39845  20725355.5234                   20725353.3984
        46.7504         30.0004
   5938770.48047   4633414.45344  22883654.2584                   22883657.7624
        42.7504         24.5004
 19  3  7 18 41  5.0000000  0  3G07G16G23
                                  21743607.3054                   21743607.5824
        36.5004         21.5004
                                  20954852.3204                   20954851.8634
        35.0004         24.5004
                                  20725049.8204                   20725047.0864
        38.2504         25.2504
 19  3  7 18 41 10.0000000  0  5G07G09G16G23G26
  -5877822.15247  -3070400.70744  21739891.7194                   21739891.6024
        43.7504         25.7504
  -2675968.06657  -2028173.61755  20105189.6334                   20105192.0594
        46.5004         30.2504
   1049209.55947    872241.27044  20954423.3594                   20954423.1454
        45.7504         27.2504
   2034747.67647   1613488.02045  20724746.0944                   20724744.4774
        47.0004         30.0004
   5951244.28117                  22886027.148
        43.500
 19  3  7 18 41 15.0000000  0  5G07G09G16G23G26
  -5897348.33947  -3085615.88444  21736175.2974                   21736175.7504
        44.5004         26.0004
  -2687334.37147  -2037030.49245  20103026.8364                   20103028.9534
        46.2504         31.5004
   1046969.28547    870495.64844  20953997.0634                   20953996.5434
        45.2504         28.2504
   2033163.91847   1612253.93644  20724444.7664                   20724442.8594
        47.2504         29.2504
   5957493.18047   4642750.76654  22887216.9694                   22887220.9104
        42.7504         25.0004
 19  3  7 18 41 20.0000000  0  5G07G09G16G23G26
  -5916861.437 6                  21732462.711
        40.250
  -2698683.01646  -2045873.52744  20100867.8444                   20100870.3404
        40.5004         25.7504
   1044746.762 7                  20953573.664
        42.000
   2031592.96547   1611029.91444  20724146.0164                   20724143.8914
        43.2504         25.0004
   5963752.922 6                  22888408.859
        37.500
 19  3  7 18 41 25.0000000  0  5G07G09G16G23G26
  -5936369.42247  -3098386.96553  21728749.8834                   21728749.9574
        43.5004         22.5004
  -2710018.33247  -2054706.41044  20098710.2894                   20098713.4804
        45.0004         28.5004
   1042544.29347    869184.57054  20953154.8594                   20953154.1684
        45.0004         28.0004
   2030037.93847   1609817.99644  20723849.9224                   20723847.9924
        46.5004         27.0004
   5970023.36346   4647046.55554  22889601.0784                   22889605.7584
        41.5004         26.2504
 19  3  7 18 41 30.0000000  0  5G07G09G16G23G26
  -5955869.97747  -3113582.20744  21725039.6644                   21725039.3524
        46.0004         28.0004
  -2721339.37547  -2063527.93745  20096555.6024                   20096558.1374
        46.0004         31.2504
   1040360.74647    867483.06344  20952739.5164                   20952739.5904
        44.2504         27.7504
   2028493.84047   1608614.87544  20723556.4454                   20723554.1644
        47.2504         29.2504
   5976307.62546   4651943.29743  22890797.0004                   22890801.5394
        40.5004         22.5004
 19  3  7 18 41 35.0000000  0  5G07G09G16G23G26
  -5975365.21947  -3128773.27344  21721329.3444                   21721330.2274
        45.0004         24.5004
  -2732649.03147  -2072340.65245  20094403.3914                   20094405.8794
        46.5004         31.0004
   1038191.40647    865792.71144  20952326.5314                   20952326.4304
        45.2504         28.0004
   2026961.09047   1607420.52344  20723264.9144                   20723262.3284
        46.7504         29.0004
   5982596.48447   4656843.76243  22891993.5704                   22891998.2814
        42.5004         22.5004
 19  3  7 18 41 40.0000000  0  5G07G09G16G23G26
  -5994849.187 7                  21717620.789
        45.250
  -2743939.46548  -2075157.32456  20092254.0394                   20092245.4344
        48.0004         39.0004
   1036045.902 7                  20951917.430
        46.500
   2025446.094 8                  20722974.914
        48.250
   5988901.266 7                  22893193.016
        44.500
 19  3  7 18 41 45.0000000  0  5G07G09G16G23G26
  -6014324.06647  -3136667.86754  21713915.0084                   21713918.2734
        43.5004         29.5004
  -2755214.64947  -2083240.28955  20090109.1804                   20090106.9224
        46.7504         32.0004
   1033920.01246    865260.26254  20951512.8134                   20951512.3284
        41.2504         27.2504
   2023946.05447   1606855.23055  20722690.0004                   20722668.9104
        43.0004         35.5004
   5995217.99346   4658808.62554  22894395.1024                   22894399.9454
        41.0004         26.7504
 19  3  7 18 41 50.0000000  0  5G07G09G16G23G26
  -6033787.82417                  21710211.539
        44.250
  -2766471.38347  -2092011.80555  20087967.1884                   20087969.2234
        46.0004         30.5004
   1031816.109 7                  20951112.977
        44.750
   2022463.87747   1605839.16255  20722408.5314                   20722408.2464
        46.2504         30.2504
   6001547.66046   4663740.82444  22895599.0784                   22895605.6724
        41.7504         26.5004
 19  3  7 18 41 55.0000000  0  5G07G09G16G23G26
  -6053244.45747  -3148799.44154  21706509.0864                   21706509.7734
        46.0004         27.0004
  -2777715.17647  -2100773.12945  20085827.1884                   20085830.4774
        46.5004         31.7504
   1029728.77347    863827.41454  20950715.8524                   20950714.7504
        44.5004         28.5004
   2020992.34847   1604692.52044  20722128.1254                   20722126.8404
        46.7504         29.5004
   6007887.36747   4668680.89144  22896806.6884                   22896811.8594
        42.7504         24.5004
 19  3  7 18 42  0.0000000  0  5G07G09G16G23G26
  -6072696.44147  -3163956.80144  21702807.6094                   21702808.4734
        44.5004         24.0004
  -2788946.56647  -2109524.88345  20083690.3594                   20083692.7974
        46.2504         30.2504
   1027657.94947    862213.76244  20950322.1024                   20950321.4344
        45.0004         27.2504
   2019532.36747   1603554.87144  20721850.8134                   20721848.2034
        47.0004         28.0004
   6014234.79347   4673626.91444  22898014.2814                   22898019.5274
        42.7504         24.2504
 19  3  7 18 42  5.0000000  0  5G07G09G16G23G26
  -6092138.82047  -3179106.72444  21699107.5474                   21699109.1374
        45.5004         26.0004
  -2800161.23347  -2118263.58145  20081556.2034                   20081560.0594
        46.2504         31.0004
   1025608.80047    860617.04244  20949932.0314                   20949932.3554
        44.5004         28.2504
   2018089.72147   1602430.73244  20721575.7034                   20721574.9264
        46.7504         28.2504
   6020595.32447   4678583.18044  22899224.8134                   22899230.4384
        42.5004         25.2504
 19  3  7 18 42 10.0000000  0  5G07G09G16G23G26
  -6111569.32847  -3194247.32044  21695411.0004                   21695411.4304
        44.2504         26.2504
  -2811357.28947  -2126987.74245  20079426.0554                   20079428.7584
        46.5004         31.7504
   1023581.78947    859037.57844  20949546.5474                   20949546.4964
        45.7504         28.7504
   2016665.28147   1601320.80544  20721305.2734                   20721303.3874
        47.0004         28.5004
   6026969.14547   4683549.81344  22900437.6644                   22900442.6844
        43.7504         25.5004
 19  3  7 18 42 15.0000000  0  5G07G09G16G23G26
  -6130990.52047  -3209380.76243  21691714.1094                   21691714.7034
        43.7504         23.7504
  -2822538.28547  -2135700.24645  20077297.9694                   20077299.8014
        45.2504         30.0004
   1021572.48447    857471.85944  20949164.0234                   20949163.0474
        45.0004         26.7504
   2015253.57447   1600220.75044  20721036.3204                   20721034.1294
        46.2504         28.0004
   6033353.31347   4688524.45744  22901652.0314                   22901656.7464
        42.2504         25.0004
 19  3  7 18 42 20.0000000  0  5G07G09G16G23G26
  -6150409.18747  -3224512.19144  21688019.5634                   21688020.1374
        44.2504         26.5004
  -2833710.33647  -2144405.73845  20075172.0474                   20075174.8954
        46.2504         30.7504
   1019576.03947    855916.16844  20948783.8054                   20948783.6414
        45.0004         27.5004
   2013849.37147   1599126.56344  20720769.1334                   20720767.2464
        47.0004         28.0004
   6039742.93847   4693503.37543  22902867.4844                   22902873.3164
        42.5004         23.0004
 19  3  7 18 42 25.0000000  0  5G07G09G16G23G26
  -6169820.94547  -3239638.21944  21684325.3914                   21684326.0124
        44.2504         25.2504
  -2844870.21947  -2153101.73845  20073048.3524                   20073050.5634
        46.2504         30.5004
   1017592.10547    854370.27344  20948405.9614                   20948406.2424
        45.2504         27.2504
   2012454.74647   1598039.85944  20720504.0084                   20720502.3594
        47.0004         28.0004
   6046135.81347   4698484.87543  22904084.9844                   22904089.2624
        43.0004         22.5004
 19  3  7 18 42 30.0000000  0  5G07G09G16G23G26
  -6189222.39847  -3254756.23443  21680633.6884                   21680633.8794
        43.0004         23.7504
  -2856013.98047  -2161785.19145  20070927.6334                   20070930.0474
        45.7504         30.7504
   1015626.80547    852838.85944  20948032.6174                   20948031.2774
        45.5004         27.5004
   2011074.64547   1596964.42644  20720241.4144                   20720238.9534
        46.5004         28.2504
   6052539.14847   4703474.46544  22905303.3444                   22905307.6024
        43.7504         26.2504
 19  3  7 18 42 35.0000000  0  5G07G09G16G23G26
  -6208616.11747  -3269868.23444  21676942.8364                   21676942.8014
        44.5004         24.5004
  -2867142.35547  -2170456.65645  20068810.2974                   20068812.3954
        46.0004         30.0004
   1013682.53147    851323.84044  20947662.6334                   20947661.3554
        45.5004         27.7504
   2009709.62147   1595900.78144  20719981.8834                   20719979.4414
        46.5004         28.7504
   6058956.00847   4708474.59844  22906524.6334                   22906528.5474
        44.0004         24.5004
 19  3  7 18 42 40.0000000  0  5G07G09G16G23G26
  -6228000.44047  -3284972.88243  21673254.5084                   21673253.9844
        44.2504         22.0004
  -2878255.76647  -2179116.46145  20066695.6724                   20066697.1024
        46.2504         30.0004
   1011754.53947    849821.50444  20947295.7584                   20947294.6374
        45.5004         27.2504
   2008356.86747   1594846.66444  20719723.9924                   20719721.4144
        46.7504         27.5004
   6065380.91347   4713481.02044  22907747.2894                   22907751.0784
        44.0004         25.5004
 19  3  7 18 42 45.0000000  0  5G07G09G16G23G26
  -6247379.98447  -3300073.83644  21669566.5164                   21669566.2424
        45.2504         26.5004
  -2889357.65647  -2187767.27045  20064582.9694                   20064585.0594
        46.5004         31.5004
   1009842.02347    848331.23444  20946931.6564                   20946930.8754
        45.0004         27.2504
   2007012.65647   1593799.25444  20719468.3054                   20719465.6764
        47.0004         28.5004
   6071814.91047   4718494.52043  22908971.6564                   22908975.5664
        43.0004         22.7504
 19  3  7 18 42 50.0000000  0  5G07G09G16G23G26
  -6266750.75447  -3315167.93044  21665880.2194                   21665879.6334
        43.0004         24.0004
  -2900441.75847  -2196404.21945  20062473.1954                   20062475.4654
        46.0004         30.5004
   1007953.28947    846859.49644  20946572.0784                   20946571.2274
        45.0004         27.0004
   2005689.87147   1592768.52044  20719216.2974                   20719213.9494
        46.5004         25.7504
   6078261.29347   4723517.66843  22910197.9694                   22910201.7584
        43.0004         23.5004
 19  3  7 18 42 55.0000000  0  5G07G09G16G23G26
  -6286106.32047  -3330250.18444  21662197.0784                   21662196.8524
        44.5004         24.5004
  -2911505.71147  -2205025.50845  20060367.9454                   20060371.1454
        45.5004         30.5004
   1006085.89547    845404.37144  20946216.9844                   20946217.0474
        44.7504         26.7504
   2004381.82847   1591749.25044  20718967.7504                   20718966.0634
        46.5004         27.7504
   6084723.35247   4728553.03544  22911427.7274                   22911432.5744
        42.5004         25.0004
 19  3  7 18 43  0.0000000  0  5G07G09G16G23G26
  -6305461.41847  -3345332.09444  21658513.9614                   21658514.1914
        45.7504         27.0004
  -2922560.63547  -2213639.72045  20058264.5554                   20058267.6994
        46.5004         30.5004
   1004234.68847    843961.87144  20945864.6174                   20945864.6804
        44.2504         26.2504
   2003084.19547   1590738.11744  20718720.9144                   20718718.7384
        46.5004         27.0004
   6091193.77047   4733594.91443  22912658.7734                   22912663.5204
        42.0004         23.0004
 19  3  7 18 43  5.0000000  0  5G07G09G16G23G26
  -6324811.363 7                  21654830.656
        45.750
  -2933603.48447  -2218114.38755  20056162.4064                   20056154.3594
        47.0004         35.5004
   1002399.492 7                  20945514.484
        46.500
   2001798.52348   1590177.37456  20718475.5004                   20718460.5514
        48.5004         36.7504
   6097671.230 7                  22913891.203
        44.500
 19  3  7 18 43 10.0000000  0  5G07G09G16G23G26
  -6344153.58647  -3357390.77054  21651151.6954                   21651152.3594
        45.2504         28.0004
  -2944632.78147  -2226020.74655  20054064.8284                   20054062.8674
        47.0004         33.0004
   1000578.89847    842992.25855  20945169.4144                   20945170.1094
        45.7504         30.2504
   2000523.68448   1589224.00055  20718234.3594                   20718227.3484
        48.0004         30.5004
   6104154.543 7                  22915126.180
        43.000
 19  3  7 18 43 15.0000000  0  5G07G09G16G23G26
  -6363489.76247  -3372457.95344  21647472.2814                   21647472.6644
        44.2504         25.0004
  -2955650.02347  -2234605.63345  20051968.4384                   20051969.9064
        46.2504         31.2504
    998773.78147    841585.63744  20944826.1644                   20944826.1684
        45.7504         27.7504
   1999259.05147   1588238.51244  20717993.1564                   20717990.3794
        47.0004         28.7504
   6110646.30147   4738648.76653  22916361.0164                   22916363.6764
        43.2504         22.7504
 19  3  7 18 43 20.0000000  0  5G07G09G16G23G26
  -6382819.35517                  21643792.156
        43.750
  -2966654.30557  -2242151.27855  20049873.0394                   20049877.2734
        45.7504         32.7504
    996985.50457    840192.19554  20944484.1884                   20944485.8754
        44.5004         27.0004
   1998014.20357   1587347.27054  20717754.1884                   20717754.5824
        46.2504         29.0004
   6117152.10517                  22917597.180
        42.500
 19  3  7 18 43 25.0000000  0  5G07G09G16G23G26
  -6402145.94547  -3388119.23054  21640114.1254                   21640116.9184
        43.5004         27.0004
  -2977649.53947  -2250718.93445  20047780.7424                   20047784.2424
        46.0004         31.5004
    995209.25047    838808.03144  20944146.5784                   20944146.9774
        44.7504         28.0004
   1996769.71147   1586456.19555  20717517.4454                   20717515.5044
        46.2504         30.7504
   6123656.68847   4741491.98454  22918834.9614                   22918837.9964
        42.0004         25.2504
 19  3  7 18 43 30.0000000  0  5G07G09G16G23G26
  -6421464.34847  -3403172.55144  21636439.0634                   21636439.7384
        43.0004         25.7504
  -2988628.84847  -2259274.22745  20045691.6024                   20045693.9184
        45.5004         31.5004
    993453.30147    837439.78144  20943813.1094                   20943812.2854
        45.0004         28.5004
   1995542.04747   1585499.66044  20717284.1254                   20717281.5984
        46.0004         29.0004
   6130172.00847   4746568.90644  22920075.1644                   22920078.5824
        42.0004         24.2504
