     2.11           OBSERVATION DATA    G (GPS)             RINEX VERSION / TYPE
teqc  2019Feb25     Martin Truffer      20190308 01:05:42UTCPGM / RUN BY / DATE
Linux 2.6.32-573.12.1.x86_64|x86_64|gcc|Linux 64|=+         COMMENT
BIT 2 OF LLI FLAGS DATA COLLECTED UNDER A/S CONDITION       COMMENT
51890652                                                    MARKER NAME
5189                                                        MARKER NUMBER
-Unknown-           -Unknown-                               OBSERVER / AGENCY
0220315189          TRIMBLE 5700        2.30                REC # / TYPE / VERS
-Unknown-           TRM41249.00     NONE                    ANT # / TYPE
 -1794386.8154 -3484140.9828  5017863.2267                  APPROX POSITION XYZ
        0.0530        0.0000        0.0000                  ANTENNA: DELTA H/E/N
     1     1                                                WAVELENGTH FACT L1/2
     7    L1    L2    C1    P1    P2    S1    S2            # / TYPES OF OBSERV
    18                                                      LEAP SECONDS
 SNR is mapped to RINEX snr flag value [0-9]                COMMENT
  L1 & L2: min(max(int(snr_dBHz/6), 0), 9)                  COMMENT
  2019     3     6    23    24   50.0000000     GPS         TIME OF FIRST OBS
                                                            END OF HEADER
 19  3  6 23 24 50.0000000  0  5G17G13G18G28G30
    -63726.69957    -33676.41455  21507129.0634                   21507127.0164
        47.2504         35.0004
      -661.79757      -170.14855  21838513.6954                   21838510.4384
        46.5004         34.5004
     -3819.17617                  23044074.445
        43.250
    -10799.63357        -5.45954  20688151.6174                   20688148.9344
        43.0004         29.7504
     18483.82056      8927.16053  21935607.6174                   21935608.1954
        40.0004         23.2504
 19  3  6 23 24 55.0000000  0  5G17G13G18G28G30
                                  21503470.6024                   21503469.1414
        49.7504         42.2504
                                  21838475.8834                   21838474.5984
        48.5004         36.5004
     -9104.45755      -662.89853  23043069.5234                   23043066.8754
        35.0004         20.7504
                                  20687223.9694                   20687222.3754
        44.5004         34.2504
                                  21936666.4144                   21936668.7704
        44.2504         32.2504
 19  3  6 23 25  0.0000000  0  5G17G13G18G28G30
   -102162.83248    -58234.41446  21499814.9694                   21499812.9614
        49.0004         37.0004
     -1034.91847      -461.05545  21838442.8134                   21838440.3444
        45.7504         32.2504
    -14371.37146     -4766.96143  23042067.5004                   23042065.4924
        38.2504         19.0004
    -20544.77047     -7599.32446  20686297.9774                   20686294.5354
        47.2504         38.0004
     29624.63347     17608.10545  21937727.7734                   21937728.6334
        45.0004         31.7504
 19  3  6 23 25 10.0000000  0  4G17G13G18G28
    -15316.53558    -73116.08255  21492514.6174                   21492510.0594
        50.2504         35.5004
                                  21838387.9304                   21838383.2934
        49.2504         35.7504
                                  23040078.320
        43.500
                                  20684454.5084                   20684447.9924
        44.0004         34.7504
 19  3  6 23 25 15.0000000  0  5G17G13G18G28G30
    -34475.14548    -88044.70344  21488870.2504                   21488865.4804
        50.0004         29.7504
      -237.15248      -716.15255  21838368.9774                   21838363.1414
        50.0004         32.7504
     -6862.262 6                  23039090.750
        41.000
     -8510.03147    -14726.34045  20683537.7584                   20683532.4224
        44.0004         32.2504
      5172.63316                  21940931.195
        41.500
 19  3  6 23 25 20.0000000  0  5G17G13G18G28G30
    -53623.56248   -102965.55145  21485226.4534                   21485222.5164
        51.0004         30.7504
      -337.16848      -794.03545  21838349.2894                   21838346.5824
        49.5004         31.0004
    -12039.98446    -14665.50053  23038106.0314                   23038102.9264
        41.0004         20.2504
    -13329.62147    -18481.83245  20682620.5474                   20682616.0354
        44.7504         31.5004
     10802.11346     21972.94953  21942003.0084                   21942002.3914
        38.2504         22.0004
 19  3  6 23 25 25.0000000  0  5G17G13G18G28G30
    -72762.00848   -117878.57044  21481584.4534                   21481580.2464
        49.7504         29.2504
      -423.80948      -861.54744  21838333.0634                   21838330.0234
        48.5004         29.5004
    -17201.62146    -18687.49243  23037122.8834                   23037120.9844
        41.5004         19.2504
    -18143.26247    -22232.68745  20681704.3594                   20681700.6604
        43.5004         31.5004
     16438.98046     26365.36343  21943076.0784                   21943075.4414
        41.2504         22.7504
 19  3  6 23 25 30.0000000  0  5G17G13G18G28G30
    -91889.65248   -132783.49246  21477943.0784                   21477941.3754
        50.0004         37.5004
      -496.12948      -918.12945  21838316.9534                   21838316.3094
        48.5004         35.2504
    -22346.07446    -22696.35943  23036142.9454                   23036142.8014
        39.5004         19.5004
    -22949.91847    -25978.34845  20680788.5314                   20680785.9384
        44.7504         35.2504
     22084.00446     30763.78543  21944148.3914                   21944148.9264
        38.7504         23.0004
 19  3  6 23 25 35.0000000  0  5G17G13G18G28G30
   -111006.09848   -147679.33646  21474306.2814                   21474302.3834
        51.5004         37.0004
      -553.82447      -963.03145  21838307.3754                   21838304.0084
        47.7504         34.0004
    -27473.18446    -26691.45743  23035168.1024                   23035166.7734
        37.2504         20.2504
    -27749.42647    -29718.17246  20679875.9224                   20679871.7384
        44.5004         36.2504
     27737.45746     35169.16843  21945225.4144                   21945224.3914
        41.2504         22.7504
 19  3  6 23 25 40.0000000  0  5G17G13G18G28G30
   -130111.44548   -162566.63346  21470670.4844                   21470667.1374
        50.7504         36.5004
      -596.95348      -996.67645  21838299.1804                   21838296.1644
        49.2504         34.7504
    -32583.03546    -30673.20743  23034195.8674                   23034194.1054
        36.5004         18.5004
    -32541.76247    -33452.46546  20678963.5234                   20678959.8524
        46.0004         36.0004
     33399.55546     39581.20743  21946302.5634                   21946301.8244
        41.2504         22.5004
 19  3  6 23 25 45.0000000  0  8G17G11G13G15G18G19G28G30
   -149205.37548   -177445.02046  21467036.8134                   21467032.4344
        50.0004         36.0004
    -29490.66416                  22350903.391
        40.250
      -625.24248     -1018.68045  21838293.3134                   21838289.5514
        49.5004         35.2504
    -55269.37958    -55258.41855  22838641.4304                   22838638.2344
        49.7504         32.2504
    -37675.15646    -34641.06643  23033227.3054                   23033225.3594
        39.0004         19.7504
   -213660.98057   -192321.59854  23216387.4064                   23216382.1294
        44.0004         29.2504
    -37326.64547    -37180.92645  20678053.0474                   20678048.4694
        44.5004         34.7504
     39070.28546     43999.91043  21947381.5164                   21947380.4534
        38.7504         22.2504
 19  3  6 23 25 50.0000000  0  9G17G01G11G13G15G18G19G28G30
   -168287.87948   -192314.46145  21463405.4614                   21463401.5204
        50.5004         35.5004
    -81672.77715                  22766986.414
        35.500
    -33342.285 6                  22350171.289
        39.250
      -638.69548     -1029.19945  21838291.6954                   21838287.1454
        49.5004         34.2504
    -62323.17248    -60754.85945  22837298.8674                   22837295.4144
        49.0004         31.0004
    -42749.69946    -38595.22343  23032260.6024                   23032258.8444
        38.5004         19.0004
   -241170.31647   -213757.43444  23211152.7344                   23211147.3484
        43.2504         29.0004
    -42104.09047    -40903.61745  20677144.1884                   20677139.0594
        44.7504         35.5004
     44749.82846     48425.53143  21948462.2504                   21948460.3484
        40.7504         23.0004
 19  3  6 23 25 55.0000000  0  9G17G01G11G13G15G18G19G28G30
   -187358.95748   -207175.05146  21459776.4844                   21459772.0554
        50.5004         36.0004
    -96125.523 5                  22764235.750
        34.000
    -37177.41046     -3848.69153  22349441.2274                   22349436.4414
        39.5004         20.0004
      -637.39848     -1028.17245  21838291.2034                   21838287.6214
        49.2504         33.5004
    -69361.08248    -66238.92645  22835959.2814                   22835956.2424
        49.5004         31.5004
    -47806.73346    -42535.74242  23031298.6484                   23031296.5634
        38.2504         17.7504
   -268674.27347   -235189.05945  23205918.4064                   23205913.5274
        43.0004         30.0004
    -46874.15647    -44620.53945  20676235.9064                   20676231.4534
        45.0004         35.5004
     50437.98846     52857.86743  21949543.5784                   21949542.8554
        40.2504         22.7504
 19  3  6 23 26  0.0000000  0  8G17G11G13G15G18G19G28G30
   -206418.62148   -222026.77046  21456149.5944                   21456144.6884
        50.0004         36.0004
    -40995.84846     -6824.07443  22348713.6884                   22348709.7424
        37.0004         18.5004
      -621.28948     -1015.60545  21838294.3284                   21838290.1804
        48.0004         33.2504
    -76383.12948    -71710.67645  22834623.7034                   22834620.2234
        50.2504         31.0004
    -52846.10546    -46462.61742  23030339.4304                   23030337.8984
        38.5004         16.2504
   -296172.61347   -256616.39144  23200686.6024                   23200680.8794
        44.0004         29.2504
    -51636.76247    -48331.66045  20675329.8834                   20675325.1684
        45.5004         32.2504
     56134.92246     57297.00443  21950628.9694                   21950626.2894
        40.5004         21.7504
 19  3  6 23 26  5.0000000  0  9G17G01G11G13G15G18G19G28G30
   -225466.82048   -236869.46145  21452524.8754                   21452519.9414
        49.7504         34.5004
   -124983.93715                  22758744.930
        33.750
    -44797.71146     -9786.52742  22347991.2814                   22347986.4694
        37.5004         17.2504
      -590.41048      -991.54345  21838300.5554                   21838295.4534
        49.5004         33.0004
    -83389.23848    -77169.93744  22833290.1174                   22833286.2034
        49.7504         29.7504
    -57867.90646    -50375.64142  23029383.6484                   23029382.0744
        40.5004         17.2504
   -323665.40647   -278039.28144  23195454.3524                   23195448.7424
        45.0004         29.5004
    -56391.94147    -52036.98445  20674425.2584                   20674419.8634
        45.0004         34.0004
     61840.51646     61742.96144  21951713.7734                   21951712.2974
        41.2504         25.2504
 19  3  6 23 26 10.0000000  0  9G17G01G11G13G15G18G19G28G30
   -244503.43048   -251703.19145  21448902.2114                   21448897.1914
        50.0004         35.0004
   -139388.484 5                  22756002.266
        32.750
    -48582.67246    -12735.87142  22347271.1564                   22347266.6724
        36.7504         17.2504
      -544.60248      -955.85245  21838308.8204                   21838304.1724
        48.7504         33.2504
    -90379.29348    -82616.74645  22831960.2114                   22831955.4104
        50.0004         31.2504
    -62871.99246    -54274.94143  23028432.4924                   23028429.4344
        39.5004         19.0004
   -351152.47747   -299457.82844  23190224.4844                   23190217.6214
        44.5004         29.0004
    -61139.52047    -55736.40645  20673521.6484                   20673516.2854
        45.5004         34.0004
     67554.94947     66195.75044  21952802.1334                   21952799.6524
        42.0004         25.5004
 19  3  6 23 26 20.0000000  0  8G17G11G13G15G18G19G28G30
    -20543.67258   -275433.42456  21441663.3914                   21441659.7344
        52.0004         38.7504
     -4052.26216                  22345839.234
        37.500
      -391.07058      -855.50856  21838335.0084                   21838330.8284
        50.2504         37.0004
     -7523.08658    -90650.70355  22829308.7664                   22829305.0944
        51.5004         35.5004
     -5365.71916                  23026537.719
        41.250
    -29674.28557   -332858.32255  23179765.6564                   23179760.7194
        44.2504         30.2504
     -5111.82057    -61050.42656  20671718.6804                   20671714.2114
        46.2504         38.0004
                                  21954981.289
        44.000
 19  3  6 23 26 25.0000000  0  8G17G11G13G15G18G19G28G30
    -39545.20748   -290239.81646  21438047.2424                   21438045.7624
        50.7504         36.5004
     -7786.60546    -17179.23853  22345128.1724                   22345125.6644
        37.5004         19.2504
      -300.27048      -784.76245  21838352.0234                   21838349.8794
        48.5004         34.2504
    -14464.69948    -96059.82845  22827987.1724                   22827985.9184
        49.5004         33.7504
    -10316.31246    -60160.52753  23025594.9534                   23025592.8634
        39.0004         20.5004
    -57143.90247   -354263.25445  23174538.0234                   23174534.5204
        42.2504         30.2504
     -9836.50447    -64732.05546  20670819.5704                   20670817.3794
        44.5004         36.7504
                                  21956072.992
        40.500
 19  3  6 23 26 30.0000000  0  8G17G11G13G15G18G19G28G30
    -58535.21548   -305037.20345  21434434.1334                   21434432.0514
        50.0004         34.7504
    -11504.37146    -20076.17643  22344421.2974                   22344418.5944
        39.7504         19.5004
      -194.59448      -702.41045  21838371.4614                   21838369.6294
        48.0004         33.0004
    -21390.35948   -101456.39845  22826669.5234                   22826668.3794
        49.0004         32.0004
    -15249.18446    -64004.32443  23024656.2424                   23024654.4694
        40.5004         20.7504
    -84607.83647   -375663.62544  23169311.9614                   23169308.3094
        44.5004         29.7504
    -14553.68447    -68407.75445  20669921.9844                   20669919.0864
        45.2504         35.5004
     14016.72346     78957.31653  21957168.1884                   21957167.5594
        40.7504         22.2504
 19  3  6 23 26 35.0000000  0  9G17G01G11G13G15G18G19G28G30
    -77513.45348   -319825.44945  21430822.2974                   21430818.5004
        49.0004         34.5004
                                  22742342.992
        33.250
    -15205.14546    -22959.91043  22343717.4064                   22343714.3094
        40.0004         21.5004
       -73.89548      -608.37145  21838394.8834                   21838391.5004
        48.5004         34.0004
    -28299.78948   -106840.39545  22825354.9534                   22825352.1294
        50.0004         31.5004
    -20164.16446    -67834.17643  23023721.6884                   23023719.2034
        41.0004         20.7504
   -112065.81647   -397059.51244  23164086.5394                   23164082.1724
        44.5004         29.0004
    -19263.22747    -72077.52345  20669025.5634                   20669021.1644
        44.7504         35.2504
     19775.72746     83444.85243  21958263.8914                   21958263.0904
        40.2504         21.7504
 19  3  6 23 26 40.0000000  0  9G17G01G11G13G15G18G19G28G30
    -96479.91448   -334604.48445  21427213.2584                   21427209.4224
        50.0004         35.0004
    -25145.801 5                  22739621.586
        32.750
    -18889.02046    -25830.42243  22343015.9844                   22343012.8484
        39.5004         20.5004
        61.84848      -502.59845  21838421.4694                   21838417.2584
        48.2504         33.2504
    -35193.02048   -112211.69945  22824043.1174                   22824040.0274
        49.5004         31.5004
    -25061.26246    -71650.09443  23022789.1254                   23022787.2464
        41.5004         20.5004
   -139517.87147   -418450.64844  23158862.3134                   23158857.9884
        43.5004         29.2504
    -23965.02747    -75741.25045  20668130.9384                   20668126.9884
        44.7504         34.7504
     25543.63346     87939.32843  21959361.6954                   21959360.8874
        41.0004         21.5004
 19  3  6 23 26 45.0000000  0  9G17G01G11G13G15G18G19G28G30
   -115434.11748   -349374.00045  21423606.3594                   21423602.7734
        50.0004         34.5004
    -39435.59045     -9389.43453  22736902.1094                   22736898.8984
        33.7504         19.0004
    -22555.47746    -28687.42643  22342318.2894                   22342314.7504
        39.0004         20.0004
       213.08648      -384.73045  21838449.9924                   21838446.2194
        48.7504         34.5004
    -42069.57048   -117570.05945  22822734.6644                   22822731.6484
        50.0004         31.0004
    -29939.95746    -75451.66043  23021860.8914                   23021858.9694
        40.7504         20.0004
   -166963.46947   -439836.87944  23153640.1024                   23153635.6884
        43.7504         29.5004
    -28658.64147    -79398.62945  20667238.2584                   20667233.8984
        45.5004         34.7504
     31321.00446     92441.19143  21960460.3754                   21960459.8874
        39.7504         21.2504
 19  3  6 23 26 50.0000000  0  9G17G01G11G13G15G18G19G28G30
   -134376.79348   -364134.52045  21420001.8524                   21419997.6724
        49.7504         34.7504
    -53709.32845    -20511.81642  22734185.6644                   22734183.7424
        33.0004         17.2504
    -26205.28946    -31531.42643  22341623.7344                   22341620.3714
        40.5004         20.0004
       379.09848      -255.38345  21838480.9064                   21838477.3634
        49.2504         33.7504
    -48930.18748   -122916.00045  22821429.5704                   22821425.9144
        50.5004         31.0004
    -34801.10946    -79239.57443  23020935.8674                   23020933.3404
        41.2504         19.5004
   -194403.36347   -461218.59044  23148418.3054                   23148413.5084
        44.0004         29.7504
    -33344.84447    -83050.21145  20666346.3754                   20666341.6884
        45.7504         34.5004
     37107.07046     96949.78143  21961562.4304                   21961560.8364
        40.0004         21.5004
 19  3  6 23 26 55.0000000  0  9G17G01G11G13G15G18G19G28G30
   -153307.82048   -378885.95745  21416399.4144                   21416394.9734
        49.7504         34.5004
    -67966.70745    -31621.43742  22731473.1174                   22731471.0004
        32.0004         16.2504
    -29838.33646    -34362.34443  22340932.8984                   22340928.4224
        39.7504         20.0004
       559.91448      -114.46145  21838515.9304                   21838511.4494
        49.0004         34.2504
    -55774.73048   -128249.38345  22820127.0944                   22820123.0004
        50.0004         31.5004
    -39644.52046    -83013.64543  23020014.8594                   23020011.2114
        41.7504         19.5004
   -221837.43447   -482595.78544  23143197.9224                   23143193.0554
        44.2504         29.2504
    -38023.52047    -86695.91445  20665455.6724                   20665450.8754
        46.2504         34.5004
     42901.91446    101465.26643  21962664.8204                   21962663.1454
        40.0004         21.2504
 19  3  6 23 27  0.0000000  0  9G17G01G11G13G15G18G19G28G30
   -172227.23848   -393628.35245  21412799.0004                   21412794.2464
        49.5004         34.2504
    -82207.84845    -42718.41442  22728763.1414                   22728761.1564
        32.2504         16.7504
    -33454.71546    -37180.30143  22340244.3674                   22340239.9344
        40.5004         20.2504
       755.56648        37.98045  21838553.5084                   21838548.0984
        49.0004         33.5004
    -62603.32848   -133570.36745  22818827.2974                   22818823.5204
        50.0004         31.5004
    -44470.21546    -86773.93043  23019095.7424                   23019093.1524
        41.0004         20.5004
   -249265.67647   -503968.42644  23137978.4064                   23137973.1804
        44.2504         29.7504
    -42694.67647    -90335.78145  20664567.2814                   20664562.0234
        46.0004         34.2504
     48705.53146    105987.56643  21963769.3914                   21963766.9454
        40.0004         21.5004
 19  3  6 23 27  5.0000000  0  9G17G01G11G13G15G18G19G28G30
   -191135.08248   -408361.71545  21409201.6094                   21409195.9024
        50.0004         33.5004
    -96432.85245    -53802.83242  22726056.3914                   22726053.9344
        32.0004         15.5004
    -37054.39846    -39985.23843  22339559.7034                   22339554.5744
        39.5004         20.0004
       965.94948       201.94545  21838593.1254                   21838588.1054
        49.2504         32.7504
    -69415.96548   -138878.90645  22817531.5634                   22817526.5234
        50.5004         31.5004
    -49278.25446    -90520.42243  23018181.3134                   23018177.5554
        41.2504         20.5004
   -276688.19147   -525336.59044  23132760.0234                   23132754.6644
        44.0004         28.5004
    -47358.38347    -93969.80945  20663679.8914                   20663674.0314
        46.0004         33.5004
     54517.82446    110516.63343  21964875.2034                   21964872.7584
        39.5004         22.5004
 19  3  6 23 27 10.0000000  0  9G17G01G11G13G15G18G19G28G30
   -210031.47748   -423086.18445  21405605.5394                   21405599.6684
        50.5004         33.2504
   -110641.81645    -64874.74242  22723352.4064                   22723350.4144
        32.7504         16.2504
    -40637.58646    -42777.32443  22338877.8914                   22338872.5354
        39.2504         20.7504
      1190.93048       377.25845  21838635.7894                   21838630.7304
        49.0004         33.5004
    -76212.85248   -144175.18745  22816238.2274                   22816232.7814
        50.7504         31.7504
    -54068.85946    -94253.39843  23017269.9454                   23017265.6524
        40.5004         20.7504
   -304105.05947   -546700.39544  23127542.7734                   23127536.8284
        44.7504         29.2504
    -52014.80547    -97598.19945  20662793.9144                   20662787.6134
        46.2504         33.5004
     60338.66446    115052.35243  21965983.7894                   21965980.3834
        40.7504         21.7504
 19  3  6 23 27 15.0000000  0  9G17G01G11G13G15G18G19G28G30
   -228916.40248   -437801.73845  21402011.7034                   21402005.6524
        49.5004         34.0004
   -124834.676 5                  22720649.992
        31.000
    -44204.25046    -45556.57043  22338199.9384                   22338194.0204
        39.2504         19.7504
      1430.52748       563.91445  21838682.2194                   21838675.6914
        49.2504         33.7504
    -82993.96148   -149459.18445  22814947.5864                   22814942.0314
        50.5004         30.5004
    -58841.88746    -97972.62543  23016360.9144                   23016357.2734
        40.2504         19.7504
   -331516.21947   -568059.77744  23122326.6954                   23122320.2274
        44.5004         29.5004
    -56663.87947   -101220.88745  20661909.2894                   20661902.5354
        45.2504         33.2504
     66168.06346    119594.69943  21967092.0944                   21967089.5164
        39.0004         21.5004
 19  3  6 23 27 20.0000000  0  9G17G01G11G13G15G18G19G28G30
   -247789.85548   -452508.28545  21398420.0164                   21398414.8554
        49.5004         34.7504
   -139011.434 5                  22717954.336
        32.250
    -47754.36746    -48322.87943  22337523.6094                   22337518.0744
        39.5004         20.7504
      1684.73848       762.01645  21838729.6024                   21838724.6054
        48.0004         33.0004
    -89759.18748   -154730.78545  22813660.3444                   22813655.5704
        50.2504         32.0004
    -63597.43446   -101678.27043  23015456.0394                   23015452.5274
        41.5004         19.7504
   -358921.71947   -589414.64144  23117111.5474                   23117105.6764
        43.5004         29.7504
    -61305.59047   -104837.76245  20661025.7034                   20661020.2894
        45.7504         34.0004
     72006.00046    124143.77743  21968203.7504                   21968200.3444
        40.0004         21.5004
 19  3  6 23 27 25.0000000  0  9G17G01G11G13G15G18G19G28G30
   -266651.79748   -467205.90245  21394831.2344                   21394825.1994
        50.0004         34.5004
   -153172.020 5                  22715259.992
        32.250
    -51287.90246    -51076.28143  22336851.0634                   22336845.5204
        40.2504         21.5004
      1953.60248       971.52745  21838780.9614                   21838775.3054
        48.5004         32.7504
    -96508.57848   -159990.03145  22812376.1094                   22812370.8594
        50.5004         30.7504
    -68335.46946   -105370.20743  23014554.9064                   23014550.5164
        41.2504         20.0004
   -386321.54747   -610765.18744  23111897.8524                   23111891.2074
        44.0004         29.5004
    -65939.96547   -108448.96945  20660144.1414                   20660137.8204
        45.7504         33.7504
     77852.58246    128699.55943  21969316.3594                   21969312.7424
        39.2504         21.0004
 19  3  6 23 27 30.0000000  0  8G17G01G11G13G15G19G28G30
                                  21391243.2814                   21391239.5274
        50.2504         33.7504
                                  22712568.359
        34.750
                                  22336182.0634                   22336177.2664
        37.7504         19.2504
                                  21838835.7424                   21838830.9574
        48.7504         34.0004
                                  22811094.0314                   22811085.3754
        50.5004         38.0004
                                  23106684.5314                   23106680.7894
        44.5004         34.5004
                                  20659262.7424                   20659258.7274
        46.0004         37.2504
                                  21970429.273
        41.000
 19  3  6 23 27 35.0000000  0  9G17G01G11G13G15G18G19G28G30
   -304338.04748   -496572.13745  21387659.1484                   21387654.9104
        50.0004         33.0004
    -19771.633 5                  22709878.383
        31.500
    -58301.14146    -56541.26243  22335515.4534                   22335511.6094
        38.2504         18.2504
      2536.29348      1425.78545  21838890.8444                   21838887.7584
        48.2504         32.0004
   -109961.75448   -170053.46145  22809816.3444                   22809811.2854
        50.0004         31.5004
     -6334.89816                  23012762.406
        39.000
    -38345.94947   -644061.75454  23101473.2114                   23101467.5594
        45.2504         29.2504
    -75187.57047   -115367.12545  20658384.3914                   20658378.9344
        45.7504         35.5004
     89574.492 6                  21971545.633
        40.500
 19  3  6 23 27 40.0000000  0  9G17G01G11G13G15G18G19G28G30
   -323165.32048   -511242.70745  21384076.5084                   21384070.9804
        48.7504         31.7504
    -33883.742 5                  22707193.930
        35.000
    -61784.94146    -59255.85943  22334853.3364                   22334848.0594
        39.7504         18.5004
      2849.10248      1669.57445  21838951.9144                   21838946.2584
        48.0004         32.2504
   -116663.51648   -175275.57444  22808541.2034                   22808535.7234
        49.0004         29.5004
    -11020.18446   -110351.00853  23011869.5554                   23011865.6644
        39.2504         18.5004
    -65728.55147   -665398.83244  23096262.9844                   23096256.5204
        44.7504         28.5004
    -79799.86747   -118961.07845  20657507.1644                   20657500.7734
        46.0004         33.0004
     95446.84846    135648.05553  21972664.6254                   21972661.3244
        39.7504         21.7504
 19  3  6 23 27 45.0000000  0  9G17G01G11G13G15G18G19G28G30
   -341980.77748   -525904.09845  21380495.8834                   21380490.3094
        49.0004         32.2504
    -47979.281 5                  22704511.938
        34.500
    -65251.86346    -61957.34442  22334193.4614                   22334188.4924
        39.0004         16.7504
      3176.76647      1924.89545  21839013.1724                   21839008.9804
        47.5004         32.0004
   -123349.17648   -180485.18444  22807268.5234                   22807263.6454
        48.2504         29.7504
    -15687.71546   -113988.01643  23010981.6724                   23010977.9534
        39.0004         18.2504
    -93105.08647   -686731.19544  23091053.1094                   23091046.6684
        45.0004         29.0004
    -84404.51247   -122549.12145  20656630.7504                   20656624.1054
        45.7504         33.0004
    101328.01646    140230.78543  21973782.3834                   21973780.3054
        39.5004         20.5004
 19  3  6 23 27 50.0000000  0  9G17G01G11G13G15G18G19G28G30
   -360784.87948   -540556.65245  21376917.8984                   21376911.5864
        49.0004         32.0004
    -62058.832 5                  22701831.969
        34.500
    -68702.43446    -64646.11343  22333536.9454                   22333531.4454
        39.2504         18.2504
      3518.83648      2191.43445  21839079.4534                   21839073.5354
        48.5004         32.5004
   -130019.17648   -185682.59844  22805999.2814                   22805994.1334
        48.0004         29.2504
    -20337.89546   -117611.55942  23010095.6644                   23010092.5084
        38.7504         17.2504
   -120475.98447   -708059.16844  23085844.9224                   23085838.3754
        45.0004         28.5004
    -89001.91047   -126131.50845  20655755.9384                   20655749.5704
        46.0004         33.5004
    107217.59846    144820.06643  21974903.8444                   21974900.8554
        40.2504         20.5004
 19  3  6 23 27 55.0000000  0  9G17G01G11G13G15G18G19G28G30
   -379577.56248   -555200.30545  21373341.5234                   21373335.4494
        49.0004         32.5004
    -76122.35945    -85574.39153  22699155.3054                   22699154.5784
        34.5004         19.2504
    -72136.57046    -67322.05943  22332883.0164                   22332877.8634
        40.0004         19.0004
      3875.34848      2469.22345  21839146.7664                   21839140.8794
        48.0004         33.0004
   -136673.46548   -190867.77044  22804733.0474                   22804727.7894
        48.5004         29.5004
    -24970.66446   -121221.49243  23009215.5314                   23009211.2934
        39.7504         18.2504
   -147841.19147   -729382.71944  23080637.2504                   23080630.0274
        45.5004         29.2504
    -93592.14147   -129708.31645  20654882.2584                   20654875.4574
        46.0004         33.0004
    113115.56646    149415.83643  21976026.2424                   21976023.2234
        39.5004         20.5004
 19  3  6 23 28  0.0000000  0  9G17G01G11G13G15G18G19G28G30
   -398358.93448   -569835.12545  21369767.9694                   21369761.6604
        49.0004         33.0004
    -90169.89545    -96520.49242  22696483.8444                   22696481.5084
        34.5004         17.2504
    -75554.40246    -69985.30143  22332232.3754                   22332227.2114
        39.0004         18.5004
      4246.18848      2758.19545  21839218.1954                   21839211.7154
        48.2504         33.2504
   -143312.18448   -196040.78545  22803469.6094                   22803464.2234
        48.5004         30.5004
    -29586.21946   -124818.05543  23008336.7114                   23008332.9384
        39.7504         18.5004
   -175200.84447   -750701.91444  23075430.7814                   23075423.8204
        44.5004         29.0004
    -98175.22347   -133279.54345  20654010.1254                   20654003.3874
        46.0004         33.2504
    119021.85546    154018.14843  21977150.2974                   21977146.4104
        39.7504         20.2504
 19  3  6 23 28  5.0000000  0  9G17G01G11G13G15G18G19G28G30
   -417129.16448   -584461.30545  21366195.8054                   21366189.1214
        49.5004         33.5004
   -104201.55546   -107454.26642  22693812.5234                   22693810.9924
        36.2504         16.7504
    -78956.12946    -72636.01643  22331586.4144                   22331579.8204
        40.0004         19.0004
      4631.24648      3058.20745  21839290.5634                   21839284.9184
        48.0004         32.7504
   -149935.46548   -201201.82045  22802209.8204                   22802203.5004
        49.0004         31.0004
    -34184.55146   -128401.17242  23007461.9844                   23007457.7584
        40.0004         17.7504
   -202555.09847   -772016.93044  23070226.0704                   23070218.6024
        45.5004         27.7504
   -102751.38747   -136845.39145  20653139.3674                   20653132.3324
        46.0004         33.5004
    124936.34446    158626.84043  21978275.7424                   21978271.7624
        39.5004         19.7504
 19  3  6 23 28 10.0000000  0  9G17G01G11G13G15G18G19G28G30
   -435888.37548   -599078.85545  21362625.7734                   21362620.2584
        50.2504         32.2504
   -118217.41845   -118375.69942  22691144.4694                   22691144.0004
        32.5004         15.5004
    -82341.87946    -75274.25443  22330941.0394                   22330935.4024
        38.0004         18.2504
      5030.25847      3369.15645  21839365.5704                   21839361.1214
        47.5004         30.5004
   -156543.49248   -206350.87944  22800951.9454                   22800946.5354
        50.5004         28.5004
    -38765.86746   -131970.98042  23006589.7584                   23006586.7424
        38.2504         15.5004
   -229904.10247   -793327.78144  23065020.5554                   23065014.0274
        45.0004         27.5004
   -107320.75447   -140405.94145  20652269.4844                   20652263.5664
        46.5004         33.7504
    130858.71947    163241.64543  21979401.8834                   21979398.8284
        42.5004         22.0004
 19  3  6 23 28 15.0000000  0  9G17G01G11G13G15G18G19G28G30
   -454636.40248   -613687.71945  21359058.2114                   21359052.3674
        50.7504         33.2504
   -132217.863 5                  22688481.484
        33.500
    -85711.60246    -77900.02043  22330299.3594                   22330294.3634
        40.5004         19.5004
      5443.46948      3691.09045  21839444.8204                   21839440.1414
        48.2504         32.2504
   -163136.10248   -211488.02745  22799697.5084                   22799692.2114
        51.2504         30.7504
    -43330.19946   -135527.59042  23005721.1884                   23005718.1724
        40.5004         16.2504
   -257247.65247   -814634.46944  23059817.9224                   23059810.9734
        44.5004         29.5004
   -111883.21547   -143961.09845  20651401.6954                   20651395.3324
        46.5004         33.7504
    136789.19546    167862.83643  21980530.4384                   21980527.5434
        40.7504         22.5004
 19  3  6 23 32 20.0000000  0  8G17G11G13G18G19G28G30G15
    -57586.22357   -653147.43055  21186729.7424                   21186727.6254
        47.5004         30.7504
     -1992.89515                  22302475.008
        35.000
      3585.24257      4803.73854  21846416.7034                   21846413.0204
        44.2504         27.2504
     -2944.47316                  22966996.734
        38.750
    -18409.21917                  22806026.820
        43.250
    -11994.36356   -149483.27054  20610324.4454                   20610321.9384
        41.0004         26.0004
      4540.73817                  22037552.930
        44.750
     -6504.58217                  22741664.680
        45.250
 19  3  6 23 32 25.0000000  0  8G17G11G13G18G19G28G30G15
    -75788.99648   -667331.43045  21183266.2034                   21183263.9144
        48.0004         32.2504
     -4583.71115                  22301982.906
        34.500
      4672.88347      5651.29744  21846622.0084                   21846620.5824
        43.7504         28.5004
     -6678.340 6                  22966286.727
        37.000
    -45486.89847    -20399.55554  22800874.7974                   22800870.9924
        43.0004         26.2504
    -16233.91047   -152786.80543  20609518.3914                   20609515.1724
        42.2504         22.7504
     10847.69147    174801.71554  22038753.4534                   22038753.6174
        43.2504         26.2504
    -12351.21147     -4376.02754  22740552.7814                   22740550.6214
        44.5004         24.7504
 19  3  6 23 32 30.0000000  0  9G01G17G11G13G18G19G28G30G15
                                  22556484.477
        35.000
    -93991.24248   -681514.99645  21179802.1724                   21179799.9614
        48.2504         31.5004
     -7169.46946      -332.41454  22301490.7274                   22301486.8364
        41.0004         25.2504
      5763.21147      6500.88744  21846830.3054                   21846828.2544
        44.7504         28.0004
    -10406.05146     -2867.69153  22965576.4844                   22965575.4264
        40.7504         21.2504
    -72569.44147    -41502.83644  22795720.8674                   22795717.1134
        43.2504         25.5004
    -20477.57447   -156093.59045  20608710.5394                   20608707.5274
        45.5004         34.5004
     17151.62547    178927.89555  22039953.1564                   22039942.6644
        42.0004         32.5004
    -18193.55947     -8928.54344  22739440.8524                   22739438.5004
        44.5004         24.5004
 19  3  6 23 32 35.0000000  0  9G01G17G11G13G18G19G28G30G15
    -25928.137 5                  22553970.781
        35.000
   -112194.91448   -695699.66445  21176338.3914                   21176336.3364
        48.5004         31.7504
     -9752.26646     -2344.99243  22300999.3984                   22300996.3594
        39.0004         23.5004
      6854.30547      7351.10244  21847037.6414                   21847035.4614
        45.0004         27.7504
    -14129.84046     -5769.38743  22964867.7894                   22964866.6684
        40.0004         20.5004
    -99658.85547    -62611.45744  22790565.8204                   22790562.3444
        43.0004         25.5004
    -24727.30547   -159405.05145  20607902.0084                   20607898.9534
        45.2504         33.5004
     23450.34047    183836.00454  22041151.4534                   22041150.2424
        42.0004         27.2504
    -24033.52047    -13479.15244  22738329.7034                   22738327.3914
        44.5004         27.5004
 19  3  6 23 32 40.0000000  0  9G01G17G11G13G18G19G28G30G15
    -39133.676 5                  22551458.375
        35.000
   -130397.38348   -709883.38745  21172874.7974                   21172872.5634
        48.5004         32.2504
    -12329.50446     -4353.23443  22300509.2664                   22300506.6414
        39.5004         23.7504
      7948.78147      8203.94544  21847245.7344                   21847244.1724
        44.5004         26.5004
    -17846.89846     -8665.79343  22964161.0394                   22964159.7344
        40.5004         20.0004
   -126752.51247    -83723.38744  22785410.0394                   22785406.5744
        42.0004         25.5004
    -28980.48447   -162719.23445  20607092.7734                   20607089.3794
        45.0004         33.5004
     29746.51246    188742.09844  22042349.8284                   22042349.5664
        41.5004         26.2504
    -29868.45747    -18025.86744  22737219.2034                   22737217.3794
        44.5004         25.2504
 19  3  6 23 32 45.0000000  0  9G01G17G11G13G18G19G28G30G15
    -52330.953 5                  22548946.469
        34.000
   -148596.18448   -724064.28545  21169411.2664                   21169408.9454
        48.5004         32.5004
    -14898.77046     -6355.25443  22300020.1644                   22300017.7734
        41.2504         22.5004
      9049.05547      9061.27744  21847455.8984                   21847453.0044
        45.0004         28.2504
    -21554.93046    -11555.16043  22963455.2584                   22963454.3404
        40.0004         21.0004
   -153847.91847   -104836.68444  22780253.6414                   22780250.9414
        42.0004         25.5004
    -33234.69547   -166034.21145  20606283.0554                   20606280.1604
        46.0004         34.7504
     36042.60246    193648.16444  22043547.7274                   22043547.7624
        41.5004         26.0004
    -35696.00847    -22566.81644  22736110.7194                   22736108.5664
        44.5004         26.5004
 19  3  6 23 32 50.0000000  0  9G01G17G11G13G18G19G28G30G15
    -65518.320 6                  22546437.914
        36.000
   -166790.05948   -738241.33245  21165948.9844                   21165947.1884
        48.0004         32.0004
    -17458.63346     -8349.98843  22299533.2734                   22299531.0164
        36.2504         20.2504
     10156.36747      9924.11744  21847666.8754                   21847664.3484
        45.0004         27.2504
    -25252.54346    -14436.42643  22962752.0394                   22962750.9344
        40.2504         20.0004
   -180943.75046   -125950.30944  22775097.1484                   22775094.8324
        41.7504         25.0004
    -37488.62147   -169348.93745  20605473.3984                   20605470.1804
        45.2504         33.5004
     42339.92647    198555.07844  22044745.8204                   22044746.3554
        43.0004         26.5004
    -41514.83647    -27100.96943  22735003.5394                   22735001.3284
        44.5004         22.7504
 19  3  6 23 32 55.0000000  0  9G01G17G11G13G18G19G28G30G15
    -78696.023 6                  22543928.969
        41.500
   -184978.77348   -752414.33645  21162487.7504                   21162485.9184
        48.5004         31.7504
    -20008.96546    -10337.12143  22299047.7344                   22299046.1604
        37.7504         18.2504
     11270.92247     10792.61344  21847877.6174                   21847876.3204
        44.0004         27.2504
    -28939.54314                  22962049.555
        28.750
   -208039.89847   -147064.16844  22769941.0864                   22769938.3594
        42.5004         24.0004
    -41742.17247   -172663.40244  20604664.3134                   20604660.9614
        44.7504         29.7504
     48638.59446    203463.20744  22045944.8984                   22045945.2274
        41.7504         29.0004
    -47324.81647    -31628.22744  22733897.6884                   22733895.6954
        43.7504         25.5004
 19  3  6 23 33  0.0000000  0  9G01G17G11G13G18G19G28G30G15
    -91863.000 6                  22541423.148
        38.000
   -203161.62947   -766582.79345  21159027.7424                   21159025.7854
        47.7504         31.5004
    -22549.20745    -12316.68042  22298564.9924                   22298562.6804
        35.7504         16.2504
     12393.46947     11667.30544  21848092.6174                   21848090.4184
        44.2504         27.0004
                                  22961349.672
        27.250
   -235135.56247   -168177.66444  22764784.8594                   22764781.9414
        43.0004         25.5004
    -45994.54747   -175976.93745  20603855.1564                   20603851.8444
        45.5004         30.0004
     54939.44147    208372.90644  22047143.3134                   22047143.9534
        42.2504         28.2504
    -53125.22347    -36148.03543  22732793.2274                   22732791.9224
        43.7504         23.7504
 19  3  6 23 33  5.0000000  0  9G01G17G11G13G18G19G28G30G15
                                  22538920.156
        43.000
   -221338.10248   -780746.27345  21155569.0004                   21155566.8914
        48.5004         32.0004
    -25078.79746    -14287.82442  22298082.8674                   22298081.8594
        39.7504         16.2504
     13524.38747     12548.55944  21848306.5944                   21848305.2274
        44.0004         27.7504
                                  22960653.500
        31.000
   -262230.27347   -189290.43443  22759629.0474                   22759625.9694
        42.2504         23.0004
    -50245.27747   -179289.19944  20603046.2584                   20603042.8984
        44.7504         29.5004
     61242.75446    213284.59844  22048343.2584                   22048343.0944
        41.2504         24.7504
    -58915.58247    -40660.00443  22731692.4774                   22731689.8984
        44.5004         23.0004
 19  3  6 23 33 10.0000000  0  9G01G17G11G13G18G19G28G30G15
   -118162.816 6                  22536419.422
        40.500
   -239507.47748   -794904.21545  21152111.4694                   21152109.3094
        49.0004         32.0004
    -27596.94146    -16249.86742  22297603.3364                   22297602.7584
        37.2504         16.2504
     14664.57847     13437.00044  21848524.7734                   21848522.3134
        44.2504         26.7504
    -39930.918 4                  22959958.609
        27.500
   -289323.23447   -210401.82044  22754473.9614                   22754470.1054
        43.5004         24.5004
    -54493.57047   -182599.55144  20602237.2894                   20602234.7194
        44.5004         29.7504
     67549.47346    218198.94144  22049543.3984                   22049543.6724
        41.7504         26.5004
    -64695.10547    -45163.52744  22730592.3054                   22730589.7704
        44.5004         26.0004
 19  3  6 23 33 15.0000000  0  9G01G17G11G13G18G19G28G30G15
   -131294.82046     -6547.30153  22533920.1174                   22533920.2934
        39.0004         20.2504
   -257669.66448   -809056.57845  21148655.2424                   21148653.4614
        48.0004         31.5004
    -30103.469 5                  22297128.172
        33.500
     15814.03547     14332.67644  21848743.2814                   21848740.9224
        45.0004         27.5004
    -43570.01615                  22959266.398
        30.750
   -316414.32047   -231511.74644  22749318.9844                   22749314.8554
        43.7504         25.0004
    -58739.36747   -185907.97344  20601430.0704                   20601426.5354
        44.2504         29.2504
     73859.59447    223115.88744  22050744.3914                   22050744.7034
        42.2504         27.2504
    -70463.72347    -49658.55544  22729494.3754                   22729492.4414
        44.5004         25.7504
 19  3  6 23 33 20.0000000  0  9G01G17G11G13G18G19G28G30G15
   -144414.66046    -16770.59843  22531423.7734                   22531424.2424
        36.7504         19.5004
   -275824.53547   -823203.24245  21145200.4844                   21145198.2034
        47.7504         32.0004
    -32598.598 6                  22296652.922
        36.750
     16972.83247     15235.64544  21848963.5944                   21848961.2704
        44.5004         28.2504
    -47196.37116                  22958576.172
        36.750
   -343503.45747   -252620.14144  22744164.1414                   22744160.3634
        43.0004         25.0004
    -62982.55547   -189214.34845  20600621.8594                   20600619.2584
        46.7504         32.5004
     80173.20346    228035.59844  22051945.4304                   22051946.0164
        41.5004         26.5004
    -76221.39547    -54145.07844  22728398.7664                   22728397.1994
        44.2504         26.0004
 19  3  6 23 33 25.0000000  0  9G01G17G11G13G18G19G28G30G15
   -157522.25047    -26984.23443  22528929.0784                   22528929.8834
        42.2504         22.7504
   -293971.70348   -837343.88745  21141747.4064                   21141745.0514
        48.0004         31.5004
    -35081.65247    -18661.16854  22296179.3834                   22296175.9264
        42.0004         25.7504
     18141.35947     16146.18444  21849185.6724                   21849184.1604
        44.2504         27.2504
    -50809.414 6                  22957888.109
        38.750
   -370590.32446   -273726.80544  22739009.0554                   22739005.7974
        41.7504         24.5004
    -67222.77747   -192518.41845  20599815.2584                   20599811.9844
        45.2504         33.5004
     86490.70746    232958.29743  22053147.3674                   22053147.9964
        38.2504         21.7504
    -81967.58647    -58622.63344  22727305.1334                   22727303.0084
        43.7504         25.0004
 19  3  6 23 33 30.0000000  0  9G01G17G11G13G18G19G28G30G15
   -170616.90647    -37187.88743  22526437.6334                   22526438.3244
        42.0004         23.7504
   -312110.80948   -851478.25045  21138295.7424                   21138293.5984
        48.2504         32.2504
    -37552.30147    -20586.34844  22295709.8914                   22295706.2504
        42.5004         25.0004
     19320.02747     17064.61344  21849410.5784                   21849408.0204
        44.5004         27.7504
    -54409.16046    -17618.84453  22957203.7194                   22957200.3404
        39.7504         21.2504
   -397674.42647   -294831.27744  22733855.1254                   22733851.6884
        43.0004         25.2504
    -71459.67247   -195819.89145  20599009.0234                   20599005.9614
        45.5004         33.2504
     92812.43446    237884.34443  22054350.2974                   22054351.0314
        39.5004         22.5004
    -87702.12147    -63091.09044  22726214.3984                   22726212.0704
        44.5004         24.5004
 19  3  6 23 33 35.0000000  0  9G01G17G11G13G18G19G28G30G15
   -183698.60547    -47381.41444  22523947.6804                   22523948.9104
        42.5004         24.0004
   -330241.71948   -865606.22345  21134845.1484                   21134842.9654
        48.2504         31.7504
    -40010.51247    -22501.84844  22295242.0944                   22295238.7304
        42.5004         24.2504
     20508.82447     17990.95744  21849636.5474                   21849634.1884
        44.2504         28.0004
    -57995.36346    -20413.30143  22956521.1884                   22956517.8754
        39.5004         21.2504
   -424755.66047   -315933.52344  22728701.0394                   22728698.3794
        42.5004         25.5004
    -75693.08647   -199118.66445  20598203.4144                   20598200.4184
        45.5004         33.2504
     99138.49646    242813.73843  22055554.6024                   22055554.9454
        38.0004         21.2504
    -93424.78547    -67550.30944  22725124.9844                   22725123.1174
        44.2504         24.0004
 19  3  6 23 33 40.0000000  0  9G01G17G11G13G18G19G28G30G15
   -196767.17247    -57564.70344  22521460.7194                   22521461.6484
        42.0004         24.5004
   -348364.22348   -879727.66845  21131396.8364                   21131394.4144
        48.0004         32.5004
    -42456.10547    -24407.50444  22294776.4304                   22294773.6454
        42.7504         25.5004
     21708.01247     18925.39544  21849864.4774                   21849862.3984
        44.2504         28.7504
    -61567.89546    -23197.09043  22955840.8524                   22955838.8134
        39.2504         20.5004
   -451833.87946   -337033.41844  22723549.1094                   22723545.7814
        41.5004         25.7504
    -79922.88747   -202414.60545  20597398.3524                   20597395.5944
        45.7504         33.5004
    105468.93046    247746.55943  22056758.9144                   22056759.5704
        38.5004         19.7504
    -99135.39147    -72000.13344  22724038.1884                   22724036.6954
        43.7504         25.2504
 19  3  6 23 33 45.0000000  0  9G01G17G11G13G18G19G28G30G15
   -209821.77747    -67737.12544  22518977.1174                   22518977.8284
        42.0004         24.7504
   -366477.56248   -893841.96145  21127949.8204                   21127947.7934
        48.0004         32.5004
    -44888.29347    -26302.71543  22294313.6254                   22294310.8554
        42.5004         23.7504
     22918.37547     19868.50844  21850095.2424                   21850092.6484
        45.0004         27.0004
    -65125.88746    -25969.55943  22955164.4534                   22955162.3094
        39.5004         20.0004
   -478908.27747   -358130.36344  22718397.8674                   22718393.8554
        42.2504         25.0004
    -84148.33647   -205707.16045  20596594.2034                   20596591.3324
        45.2504         33.0004
    111804.80147    252683.56344  22057964.7034                   22057965.3874
        42.5004         26.5004
   -104833.17647    -76439.96944  22722954.1174                   22722952.1024
        44.2504         25.2504
 19  3  6 23 33 50.0000000  0  9G01G17G11G13G18G19G28G30G15
   -222862.81247    -77898.97344  22516495.1884                   22516496.1484
        42.0004         25.5004
   -384582.05548   -907949.35545  21124504.5634                   21124502.4344
        48.0004         32.5004
    -47307.41047    -28187.73443  22293852.9224                   22293850.6524
        42.5004         22.7504
     24139.50447     20820.05544  21850326.7344                   21850325.0354
        44.2504         28.0004
    -68669.77046    -28731.01243  22954489.5474                   22954487.9024
        39.0004         19.7504
   -505979.15647   -379224.54344  22713245.4454                   22713242.3754
        42.0004         24.7504
    -88369.67247   -208996.51645  20595791.1484                   20595788.1684
        46.0004         33.2504
    118145.61347    257624.45744  22059171.0864                   22059171.5274
        42.5004         27.0004
   -110518.57047    -80870.12944  22721872.1484                   22721870.6884
        44.0004         24.0004
 19  3  6 23 33 55.0000000  0  9G01G17G11G13G18G19G28G30G15
   -235890.63746    -88050.51643  22514015.9614                   22514017.3524
        41.2504         23.0004
   -402678.09847   -922050.14845  21121061.3134                   21121059.0084
        47.7504         31.7504
    -49713.85947    -30062.90644  22293395.3914                   22293393.0784
        42.5004         25.0004
     25371.04347     21779.68044  21850561.5554                   21850559.5274
        44.5004         28.0004
    -72199.82446    -31481.70343  22953817.1334                   22953816.1724
        38.5004         20.0004
   -533046.95747   -400316.35244  22708094.3054                   22708090.8834
        42.2504         25.2504
    -92587.34047   -212283.00445  20594988.7664                   20594985.7544
        45.5004         32.7504
    124490.96946    262568.89143  22060379.0634                   22060379.1764
        41.2504         23.7504
   -116191.85947    -85290.88343  22720792.2734                   22720791.1914
        44.0004         23.2504
 19  3  6 23 34  0.0000000  0  9G01G17G11G13G18G19G28G30G15
   -248904.93046    -98191.53944  22511539.1484                   22511540.8284
        41.5004         24.7504
   -420765.39848   -936144.16445  21117619.1414                   21117616.7624
        48.0004         31.5004
    -52107.32847    -31927.94544  22292939.9304                   22292937.3054
        42.5004         24.7504
     26613.24647     22747.62544  21850798.4774                   21850795.7154
        44.5004         27.0004
    -75715.93446    -34221.55143  22953149.1724                   22953147.5984
        39.5004         20.2504
   -560111.35247   -421405.44944  22702944.7504                   22702941.0004
        43.0004         25.2504
    -96801.07847   -215566.44545  20594186.4224                   20594183.4104
        46.5004         33.0004
    130841.13747    267517.07844  22061587.0784                   22061587.5944
        43.0004         26.7504
   -121852.82447    -89702.03544  22719715.6644                   22719713.2544
        44.2504         24.7504
 19  3  6 23 34  5.0000000  0  9G01G17G11G13G18G19G28G30G15
   -261906.18746   -108322.37144  22509065.2814                   22509066.8404
        41.5004         25.2504
   -438844.41448   -950231.71145  21114178.9694                   21114176.6804
        48.0004         31.7504
    -54488.35247    -33783.29744  22292486.7974                   22292484.4924
        42.5004         25.5004
     27865.64547     23723.52744  21851036.2664                   21851034.1564
        44.2504         27.7504
    -79218.39546    -36950.73843  22952482.1024                   22952480.8674
        39.5004         20.7504
   -587172.75847   -442492.26644  22697794.8284                   22697791.4304
        42.5004         26.0004
   -101011.29747   -218847.12945  20593384.9924                   20593382.5944
        45.7504         33.0004
    137195.68847    272468.66444  22062796.1094                   22062796.8754
        42.5004         28.2504
   -127501.87947    -94103.88744  22718640.6954                   22718638.5234
        44.2504         24.2504
 19  3  6 23 34 10.0000000  0  9G01G17G11G13G18G19G28G30G15
   -274894.12946   -118442.85244  22506594.2114                   22506595.4384
        41.7504         24.5004
   -456914.92248   -964312.62545  21110740.0164                   21110738.0164
        48.0004         32.2504
    -56856.68047    -35628.74244  22292035.8754                   22292033.4414
        42.5004         25.0004
     29128.42247     24707.49644  21851276.9064                   21851274.5274
        44.5004         28.2504
    -82707.07446    -39669.16843  22951818.5634                   22951817.2234
        38.7504         20.2504
   -614231.03947   -463576.63344  22692645.7344                   22692642.4964
        42.7504         24.7504
   -105217.81647   -222124.93745  20592584.7584                   20592581.7624
        45.2504         33.0004
    143554.79347    277423.81644  22064006.1724                   22064007.2584
        42.5004         27.0004
   -133138.84847    -98496.33644  22717567.9614                   22717565.9414
        44.0004         26.0004
 19  3  6 23 34 15.0000000  0  9G01G17G11G13G18G19G28G30G15
   -287869.03146   -128553.16844  22504125.1414                   22504125.9384
        41.2504         24.0004
   -474977.10248   -978387.03145  21107302.8364                   21107300.8754
        48.0004         32.5004
    -59212.52047    -37464.47343  22291588.3364                   22291585.1644
        42.2504         23.7504
     30401.35247     25699.39844  21851518.5944                   21851516.7704
        44.2504         28.2504
    -86182.19946    -42377.08243  22951156.8364                   22951156.2704
        39.5004         19.7504
   -641286.25047   -484658.62944  22687496.5314                   22687494.0084
        42.5004         24.2504
   -109420.84047   -225400.02045  20591785.0084                   20591781.9654
        45.2504         33.2504
    149918.24647    282382.35543  22065217.3754                   22065218.0944
        42.0004         22.5004
   -138763.91447   -102879.50044  22716497.3594                   22716495.4654
        44.5004         24.5004
 19  3  6 23 34 20.0000000  0  9G01G17G11G13G18G19G28G30G15
   -300830.59447   -138653.07044  22501658.4224                   22501659.4344
        42.0004         24.5004
   -493030.74647   -992454.83645  21103867.4454                   21103865.6174
        47.7504         31.0004
    -61555.65647    -39290.28944  22291142.0704                   22291139.5274
        42.0004         25.2504
     31684.66447     26699.35944  21851763.8834                   21851761.1604
        44.5004         28.2504
    -89643.53546    -45074.20743  22950498.8524                   22950497.7624
        39.0004         19.2504
   -668338.25046   -505738.09843  22682349.6414                   22682346.2624
        41.2504         22.0004
   -113620.12947   -228672.19545  20590986.0394                   20590982.9734
        46.0004         33.0004
    156286.25847    287344.43044  22066429.6414                   22066429.9654
        42.7504         25.5004
   -144376.87947   -107253.23844  22715429.0554                   22715427.3134
        44.5004         25.2504
 19  3  6 23 34 25.0000000  0  9G01G17G11G13G18G19G28G30G15
   -313778.74246   -148742.54743  22499194.5704                   22499195.6604
        41.5004         23.7504
   -511075.65648  -1006515.78945  21100433.6564                   21100431.4614
        48.7504         34.0004
    -63885.96547    -41106.12144  22290698.8284                   22290695.7154
        42.2504         26.0004
     32978.50447     27707.59444  21852009.5784                   21852007.2074
        45.0004         27.5004
    -93090.96146    -47760.52743  22949841.9844                   22949841.7544
        39.0004         19.2504
   -695386.90647   -526814.95743  22677202.3914                   22677198.6054
        43.0004         22.7504
   -117815.59847   -231941.39145  20590187.5944                   20590184.7424
        45.2504         33.5004
    162659.00447    292310.20744  22067641.6954                   22067642.8324
        42.2504         27.0004
   -149977.57047   -111617.42244  22714363.5784                   22714361.7114
        44.2504         27.2504
 19  3  6 23 34 30.0000000  0  9G01G17G11G13G18G19G28G30G15
   -326713.48847   -158821.54744  22496733.4144                   22496734.6604
        42.2504         25.7504
   -529112.01248  -1020570.08245  21097001.3834                   21096999.3634
        48.7504         33.7504
    -66203.50447    -42911.98444  22290257.5634                   22290254.3094
        42.5004         25.5004
     34282.81647     28723.92244  21852257.3444                   21852255.3954
        44.2504         28.7504
    -96524.54746    -50436.04343  22949188.9144                   22949188.1174
        38.7504         19.7504
   -722432.14847   -547889.17644  22672056.1564                   22672052.2034
        42.2504         25.0004
   -122007.25847   -235207.61345  20589389.8754                   20589387.0904
        46.0004         33.5004
    169036.37547    297279.57844  22068856.2424                   22068856.0004
        43.0004         27.5004
   -155566.12947   -115972.14144  22713299.8444                   22713298.1054
        44.0004         26.7504
 19  3  6 23 34 35.0000000  0  9G01G17G11G13G18G19G28G30G15
   -339634.58247   -168889.94143  22494274.5634                   22494275.7034
        42.0004         23.2504
   -547139.46148  -1034617.43745  21093570.9924                   21093568.9104
        48.2504         32.5004
    -68508.07847    -44707.77044  22289818.4694                   22289816.0784
        42.5004         25.7504
     35597.78147     29748.53944  21852507.7894                   21852506.1374
        44.5004         28.0004
    -99944.05146    -53100.60543  22948538.2504                   22948537.8634
        38.7504         20.2504
   -749473.85247   -568960.60543  22666909.8754                   22666906.5744
        43.0004         22.5004
   -126194.87947   -238470.69945  20588593.3054                   20588590.4344
        46.2504         33.5004
    175418.60547    302252.76244  22070070.2504                   22070070.4844
        43.0004         28.0004
   -161142.28947   -120317.19944  22712238.6094                   22712237.6334
        44.0004         24.5004
 19  3  6 23 34 40.0000000  0  9G01G17G11G13G18G19G28G30G15
   -352541.84447   -178947.54744  22491817.9304                   22491819.3874
        42.0004         25.5004
   -565157.87547  -1048657.73845  21090142.2424                   21090140.0084
        47.7504         31.5004
    -70799.48047    -46493.27044  22289382.6954                   22289380.1954
        42.5004         24.0004
     36923.59447     30781.64844  21852760.0234                   21852758.1174
        43.7504         27.7504
   -103349.21546    -55753.97743  22947890.5474                   22947889.4844
        39.0004         20.0004
   -776511.72746   -590029.09444  22661764.6254                   22661760.8794
        41.7504         25.0004
   -130378.31647   -241730.52045  20587797.1094                   20587794.3754
        45.5004         33.5004
    181805.88347    307229.85944  22071285.3444                   22071286.1724
        42.2504         27.7504
   -166705.82847   -124652.43044  22711179.8754                   22711178.5434
        44.0004         24.0004
 19  3  6 23 34 45.0000000  0  9G01G17G11G13G18G19G28G30G15
   -365435.20746   -188994.32444  22489364.4694                   22489366.0004
        41.7504         26.2504
   -583167.13748  -1062690.95345  21086715.3204                   21086713.2034
        48.0004         33.0004
    -73077.61347    -48268.43743  22288949.6804                   22288946.6374
        42.5004         23.2504
     38260.40647     31823.31344  21853014.8204                   21853012.0824
        44.5004         27.2504
   -106740.01246    -58396.16443  22947245.3134                   22947244.2304
        39.0004         19.2504
   -803545.71947   -611094.53144  22656620.2114                   22656616.8954
        43.0004         25.5004
   -134557.44147   -244986.98445  20587001.8364                   20586998.7234
        45.7504         33.5004
    188198.23847    312210.91844  22072501.9614                   22072502.3324
        42.0004         26.2504
   -172256.72347   -128977.79744  22710123.6094                   22710122.0124
        44.0004         26.0004
 19  3  6 23 34 50.0000000  0  9G01G17G11G13G18G19G28G30G15
   -378314.27346   -199029.95344  22486913.4534                   22486915.0824
        41.5004         24.7504
   -601166.91847  -1076716.74645  21083289.8054                   21083288.0004
        47.7504         32.5004
    -75342.15247    -50033.03144  22288518.6804                   22288515.4184
        42.5004         24.7504
     39608.45747     32873.74244  21853270.8364                   21853269.0984
        44.0004         27.7504
   -110116.10546    -61026.89843  22946602.9774                   22946601.7894
        39.0004         19.5004
   -830575.43747   -632156.63344  22651477.0164                   22651472.9104
        42.0004         26.7504
   -138731.89547   -248239.79745  20586207.1724                   20586204.5474
        46.0004         33.5004
    194596.10547    317196.25844  22073719.9534                   22073720.0824
        42.5004         27.2504
   -177794.60247   -133293.03144  22709070.0164                   22709068.2854
        44.0004         25.7504
 19  3  6 23 34 55.0000000  0  9G01G17G11G13G18G19G28G30G15
   -391179.05146   -209054.45744  22484465.2194                   22484466.7034
        41.7504         25.0004
   -619157.20747  -1090735.14545  21079866.4534                   21079864.3204
        47.7504         32.0004
    -77593.08647    -51787.00044  22288089.8284                   22288087.4224
        42.5004         25.5004
     40967.70347     33932.88744  21853529.3984                   21853527.2584
        44.5004         28.7504
   -113477.62146    -63646.22743  22945963.4844                   22945962.0594
        39.5004         19.5004
   -857600.96147   -653215.48444  22646333.9454                   22646330.0664
        42.0004         26.2504
   -142901.75447   -251489.04745  20585414.0164                   20585410.5394
        46.0004         33.5004
    200999.37947    322185.82044  22074938.0314                   22074938.6844
        42.7504         27.5004
   -183319.44147   -137598.10244  22708018.1804                   22708016.7814
        43.7504         26.5004
 19  3  6 23 35  0.0000000  0  9G01G17G11G13G18G19G28G30G15
   -404029.32846   -219067.66444  22482019.8054                   22482021.4734
        41.2504         25.0004
   -637137.73448  -1104745.94145  21076444.8364                   21076442.5634
        48.0004         31.7504
    -79830.22347    -53530.21544  22287664.5944                   22287661.4264
        42.5004         24.2504
     42338.51647     35001.04744  21853791.0554                   21853788.3014
        44.5004         28.5004
   -116824.10546    -66253.88343  22945326.1334                   22945325.0314
        39.2504         19.0004
   -884621.96547   -674270.79344  22641193.2584                   22641188.4804
        42.7504         25.5004
   -147066.72747   -254734.47345  20584621.3914                   20584618.3914
        45.5004         33.5004
    207408.34047    327179.80944  22076157.3834                   22076158.3094
        42.5004         26.7504
   -188831.01247   -141892.83644  22706969.6254                   22706968.2974
        44.2504         24.5004
 19  3  6 23 35  5.0000000  0  9G01G17G11G13G18G19G28G30G15
   -416864.97747   -229069.46144  22479578.4304                   22479579.0274
        42.0004         25.0004
   -655108.45748  -1118749.10545  21073025.1174                   21073022.7854
        48.0004         32.7504
    -82053.47747    -55262.62944  22287241.0474                   22287238.5124
        42.2504         25.2504
     43720.86347     36078.21544  21854053.1564                   21854051.0634
        44.5004         27.2504
   -120155.63746    -68849.89143  22944691.9614                   22944691.3484
        38.5004         19.5004
   -911638.39846   -695322.55144  22636050.8674                   22636047.6094
        41.5004         24.5004
   -151226.75047   -257976.05145  20583829.3834                   20583826.6954
        46.0004         33.0004
    213823.09447    332178.31344  22077377.8364                   22077378.6994
        42.5004         26.5004
   -194329.30947   -146177.21944  22705923.9224                   22705921.7774
        44.2504         27.0004
 19  3  6 23 35 10.0000000  0  9G01G17G11G13G18G19G28G30G15
   -429686.20747   -239060.02344  22477138.3134                   22477138.9534
        42.2504         26.0004
   -673069.39548  -1132744.63745  21069607.2344                   21069604.4924
        48.2504         32.5004
    -84263.04347    -56984.36344  22286820.8524                   22286817.8484
        42.5004         24.2504
     45114.75447     37164.32444  21854319.3674                   21854316.3554
        44.7504         28.5004
   -123472.30946    -71434.31243  22944061.1564                   22944060.3014
        38.0004         19.2504
   -938650.26647   -716370.75044  22630910.7344                   22630907.3054
        42.2504         26.2504
   -155381.96547   -261213.87945  20583039.1414                   20583035.8914
        45.5004         33.5004
    220243.42647    337181.16444  22078599.9694                   22078600.2704
        43.0004         27.5004
   -199814.24247   -150451.20744  22704879.8984                   22704877.6024
        44.5004         27.0004
 19  3  6 23 35 15.0000000  0  9G01G17G11G13G18G19G28G30G15
   -442493.26247   -249039.53944  22474700.8834                   22474702.0084
        42.0004         25.0004
   -691021.06648  -1146732.95345  21066191.4224                   21066189.2114
        48.2504         32.5004
    -86459.20747    -58695.67643  22286402.6174                   22286400.0984
        42.5004         22.7504
     46519.52747     38258.97744  21854586.2734                   21854583.8794
        44.5004         29.2504
   -126774.54746    -74007.47743  22943432.4844                   22943431.6454
        38.2504         18.5004
   -965658.10247   -737415.81644  22625771.8284                   22625768.0864
        42.7504         27.5004
   -159532.78947   -264448.27745  20582249.5234                   20582246.0004
        45.7504         33.5004
    226668.98847    342188.10244  22079822.2814                   22079823.0944
        43.0004         27.2504
   -205286.61347   -154715.40244  22703838.0234                   22703836.3714
        44.5004         27.0004
 19  3  6 23 35 20.0000000  0  9G01G17G11G13G18G19G28G30G15
   -455285.82845   -259007.68743  22472267.5314                   22472268.7704
        35.2504         22.0004
   -708962.87546  -1160713.43045  21062777.9304                   21062776.6334
        39.7504         30.0004
    -88641.57845    -60396.10943  22285987.7424                   22285985.0984
        35.0004         21.2504
     47936.21946     39363.00844  21854855.7894                   21854854.0044
        36.5004         24.0004
   -130061.65645    -76568.75843  22942808.1644                   22942806.4224
        32.2504         18.2504
   -992661.31245   -758457.17643  22620633.7584                   22620629.8054
        35.2504         22.0004
   -163678.50846   -267678.59045  20581461.2584                   20581458.5634
        39.7504         32.0004
    233099.97746    347199.34443  22081047.0474                   22081047.3674
        38.2504         22.7504
   -210744.91446   -158968.54344  22702800.6724                   22702798.8794
        40.0004         27.5004
 19  3  6 23 35 25.0000000  0  9G01G17G11G13G18G19G28G30G15
   -468063.02016                  22469834.156
        41.250
   -726895.29317                  21059364.008
        46.000
    -90810.24616                  22285574.367
        41.250
     49365.73457     40299.07955  21855126.0944                   21855126.7424
        44.0004         33.5004
   -133334.16056    -79119.05153  22942182.7584                   22942184.8484
        40.2504         18.5004
  -1019659.41057   -772763.56255  22615492.8364                   22615488.5784
        42.2504         33.5004
                                  20580670.7664                   20580670.9734
        45.0004         34.7504
    239537.38716                  22082270.344
        41.500
   -216189.71157   -163042.29955  22701762.6644                   22701764.9454
        45.5004         33.2504
 19  3  6 23 35 30.0000000  0  9G01G17G11G13G18G19G28G30G15
   -480825.25047   -268554.64153  22467406.8984                   22467410.7034
        42.0004         20.7504
   -744816.47747  -1188092.67255  21055954.1484                   21055952.4344
        47.2504         31.5004
    -92963.89847    -62142.44153  22285165.1884                   22285166.2304
        42.0004         20.0004
     50805.99647     41331.30554  21855401.5944                   21855398.2664
        43.7504         28.7504
   -136590.49246    -81656.45343  22941564.6024                   22941565.8164
        40.2504         18.2504
  -1046652.391 7                  22610359.391
        42.000
   -171953.87947   -273611.02745  20579885.3134                   20579883.8794
        45.0004         35.0004
    245981.039 7                  22083497.484
        42.250
   -221621.12947   -167105.60954  22700729.9144                   22700727.0044
        45.7504         29.7504
 19  3  6 23 35 35.0000000  0  9G01G17G11G13G18G19G28G30G15
   -493572.60946   -278487.60543  22464981.0234                   22464983.9264
        40.7504         20.2504
   -762728.98447  -1202050.41845  21052545.8754                   21052544.7664
        47.0004         30.0004
                                  22284758.000
        40.250
     52257.75847     42462.52744  21855677.9064                   21855676.4964
        43.7504         27.2504
                                  22940947.4224                   22940949.7464
        39.2504         17.7504
                                  22605222.359
        40.000
   -176083.36647   -276828.82945  20579099.9224                   20579097.6214
        44.0004         32.0004
                                  22084724.727
        41.500
   -227037.18047   -171325.91444  22699698.7424                   22699698.2664
        46.5004         29.0004
 19  3  6 23 35 40.0000000  0  9G01G17G11G13G18G19G28G30G15
                                  22462556.4454                   22462560.7704
        33.2504         22.0004
   -780635.71546  -1216003.75044  21049137.6954                   21049137.5824
        39.0004         29.0004
    -97224.66015                  22284354.039
        32.000
                                  21855956.1024                   21855955.8164
        36.7504         25.5004
                                  22940335.1024                   22940336.4964
        29.7504         18.5004
                                  22600085.734
        32.750
   -180205.63746   -280040.94545  20578315.0084                   20578313.2664
        36.5004         32.0004
                                  22085950.813
        30.750
   -232428.67646   -175526.96944  22698672.2814                   22698673.1214
        37.5004         26.2504
 19  3  6 23 35 45.0000000  0  7G01G17G11G13G18G28G15
                                  22460137.023
        40.500
   -798530.74147  -1229389.86054  21045732.7894                   21045732.9184
        47.0004         29.0004
                                  22283953.313
        39.500
                                  21856238.5864                   21856239.2114
        43.5004         25.5004
                                  22939725.2894                   22939726.9224
        37.5004         20.0004
                                  20577531.2974                   20577530.1914
        43.5004         33.5004
   -237800.41847   -179209.74854  22697650.8834                   22697646.1094
        43.5004         27.2504
 19  3  6 23 35 50.0000000  0  9G01G17G11G13G18G19G28G30G15
   -531731.26247   -297911.60954  22457719.1254                   22457721.4144
        42.0004         25.7504
   -816409.82447  -1243321.67645  21042330.4454                   21042328.6334
        47.2504         31.2504
   -101427.22347    -65116.24654  22283554.4924                   22283552.6804
        43.5004         27.0004
     56704.35547     45835.39144  21856523.6414                   21856522.6334
        43.2504         28.5004
   -149441.61746    -91670.30943  22939119.6954                   22939119.9694
        39.5004         19.5004
  -1154590.53557   -799678.05554  22589818.4534                   22589815.9344
        42.0004         24.5004
   -188429.85547   -286449.45745  20576749.9774                   20576747.7234
        45.7504         34.5004
    271778.90656    369703.42653  22088406.7504                   22088410.3914
        41.0004         21.5004
   -243155.27747   -183382.45354  22696631.9924                   22696629.9024
        44.2504         29.5004
 19  3  6 23 35 55.0000000  0  9G01G17G11G13G18G19G28G30G15
   -544413.42647   -307793.78944  22455305.5944                   22455308.1564
        42.5004         27.5004
   -834270.70347  -1257239.23045  21038931.7504                   21038930.1094
        47.2504         32.0004
   -103499.57847    -66731.09044  22283160.1024                   22283158.0204
        42.2504         24.7504
     58224.74647     47020.14144  21856813.4064                   21856811.8554
        43.7504         28.5004
   -152607.50046    -94137.22343  22938516.9614                   22938517.1214
        41.0004         20.0004
  -1181549.26647   -820684.84444  22584688.7114                   22584685.8834
        42.0004         26.7504
   -192524.76247   -289640.28945  20575970.5554                   20575968.4614
        46.5004         35.2504
    278251.29346    374746.90643  22089638.4844                   22089640.9774
        41.0004         22.0004
   -248486.16447   -187536.37544  22695617.3364                   22695615.7814
        44.5004         28.5004
 19  3  6 23 36  0.0000000  0  9G01G17G11G13G18G19G28G30G15
   -557074.37547   -317659.48444  22452897.2274                   22452898.5594
        42.0004         25.7504
   -852117.19547  -1271145.59445  21035535.7344                   21035534.0634
        46.7504         31.5004
   -105551.65647    -68330.10544  22282769.9304                   22282767.8364
        43.2504         25.2504
     59760.11347     48216.51244  21857105.8754                   21857104.3634
        44.2504         29.5004
   -155751.86346    -96587.38343  22937918.5164                   22937918.8484
        40.2504         20.7504
  -1208499.36746   -841684.91044  22579560.2664                   22579557.3404
        41.5004         27.2504
   -196609.28547   -292823.03545  20575193.7274                   20575191.4104
        46.5004         34.7504
    284734.80946    379798.97743  22090872.6094                   22090874.4344
        39.5004         22.2504
   -253800.20747   -191677.19544  22694605.8984                   22694605.0704
        45.7504         28.7504
 19  3  6 23 36  5.0000000  0  9G01G17G11G13G18G19G28G30G15
   -569708.70747   -327504.40644  22450492.2894                   22450493.9884
        43.0004         27.7504
   -869943.01647  -1285035.84045  21032143.5474                   21032141.3834
        46.7504         31.2504
   -107581.01647    -69911.41844  22282383.2894                   22282381.5744
        43.2504         24.2504
     61311.49247     49425.36344  21857400.5474                   21857399.1844
        43.5004         28.5004
   -158874.51246    -99020.60943  22937324.3674                   22937324.3164
        40.2504         20.2504
  -1235433.30946   -862672.39844  22574435.7814                   22574432.1484
        41.2504         26.0004
   -200681.61747   -295996.28145  20574418.6954                   20574416.1954
        46.2504         35.2504
    291240.32446    384868.20343  22092109.7734                   22092111.8244
        39.2504         22.0004
   -259102.90247   -195809.18044  22693597.2034                   22693595.7624
        44.5004         28.5004
 19  3  6 23 36 10.0000000  0  9G01G17G11G13G18G19G28G30G15
   -582332.34047   -337341.00444  22448090.1644                   22448091.8364
        42.0004         25.7504
   -887760.39347  -1298919.51345  21028753.0234                   21028751.1724
        47.0004         30.2504
   -109597.67847    -71482.84344  22281999.8364                   22281997.8674
        42.2504         25.2504
     62879.27747     50647.05144  21857699.3204                   21857697.5354
        43.0004         27.5004
                                  22936732.9224                   22936733.1054
        39.0004         21.5004
  -1262364.13246   -883657.43144  22569310.0634                   22569307.0004
        40.5004         24.5004
   -204748.21947   -299165.06245  20573644.9064                   20573642.2304
        46.0004         35.5004
    297744.12546    389936.11343  22093347.8594                   22093349.6374
        37.5004         20.5004
   -264381.18447   -199922.10244  22692592.6804                   22692591.5594
        43.0004         27.5004
 19  3  6 23 36 15.0000000  0  9G01G17G11G13G18G19G28G30G15
   -594942.01647   -347166.71944  22445691.5084                   22445692.8714
        43.5004         27.7504
   -905565.07447  -1312793.28145  21025364.9144                   21025363.5784
        47.0004         30.5004
   -111600.55547    -73043.52044  22281618.6954                   22281617.0124
        43.2504         26.7504
     64464.46547     51882.25044  21858000.8674                   21857999.4414
        43.7504         29.0004
   -165072.94146   -103850.52743  22936144.6484                   22936144.8164
        40.5004         21.7504
  -1289286.37147   -904635.78143  22564186.7734                   22564184.2934
        42.0004         23.5004
   -208807.80947   -302328.37145  20572872.6024                   20572870.4924
        46.7504         35.5004
    304253.44146    395008.30143  22094586.6254                   22094588.4964
        41.2504         21.2504
   -269638.74247   -204018.92244  22691592.5314                   22691591.1254
        45.5004         27.7504
 19  3  6 23 36 20.0000000  0  9G01G17G11G13G18G19G28G30G15
   -607530.76247   -356976.14544  22443295.4304                   22443297.5204
        43.7504         25.5004
   -923354.32447  -1326655.04345  21021980.1174                   21021978.9534
        47.2504         31.7504
   -113583.24647    -74588.49244  22281241.6334                   22281240.0394
        44.5004         26.5004
     66066.32847     53130.44145  21858305.4844                   21858304.5434
        43.5004         30.2504
   -168142.95747   -106242.78143  22935560.5084                   22935560.1294
        42.7504         21.5004
  -1316198.69546   -925606.42644  22559065.4224                   22559063.4844
        41.0004         27.2504
   -212856.53947   -305483.23845  20572102.0784                   20572099.7544
        47.5004         35.0004
    310774.02346    400089.25843  22095827.6724                   22095829.6094
        40.5004         22.5004
   -274877.46947   -208101.03144  22690595.3594                   22690594.9184
        44.5004         28.5004
 19  3  6 23 36 25.0000000  0  9G01G17G11G13G18G19G28G30G15
   -620100.59447   -366770.82844  22440903.6724                   22440906.0664
        43.2504         27.5004
   -941127.14147  -1340503.98445  21018597.4454                   21018596.9654
        47.0004         31.7504
   -115547.59447    -76119.14844  22280867.6724                   22280866.7814
        43.5004         26.0004
     67687.84547     54393.97144  21858613.9694                   21858613.3984
        43.5004         29.5004
   -171193.41047   -108619.75843  22934980.4144                   22934980.2624
        42.5004         22.7504
  -1343099.20746   -946567.84844  22553947.0784                   22553944.3634
        39.0004         25.0004
   -216894.55147   -308629.73445  20571333.3364                   20571332.2074
        45.5004         35.5004
    317305.13746    405178.43443  22097070.0394                   22097071.9884
        37.7504         21.7504
   -280094.04647   -212165.88344  22689602.6644                   22689602.6764
        44.5004         26.7504
 19  3  6 23 36 30.0000000  0  9G01G17G11G13G18G19G28G30G15
   -632651.31247   -376550.58644  22438514.3914                   22438517.6724
        42.5004         26.2504
   -958887.66447  -1354343.35945  21015217.6884                   21015217.3634
        47.5004         31.7504
   -117493.89147    -77635.73044  22280497.4224                   22280496.6294
        43.0004         25.5004
     69322.04347     55667.34844  21858924.6094                   21858924.3954
        43.7504         28.2504
   -174224.63346   -110981.73443  22934402.8524                   22934403.7624
        41.0004         22.7504
  -1369992.79746   -967523.88744  22548828.5394                   22548826.7934
        41.2504         24.2504
   -220924.67647   -311770.08645  20570566.3914                   20570565.0594
        46.2504         35.5004
    323845.39846    410274.76643  22098315.1724                   22098317.1884
        39.5004         21.5004
   -285296.19547   -216219.53944  22688612.7114                   22688612.6604
        44.5004         26.5004
 19  3  6 23 36 35.0000000  0  5G17G11G13G28G15
                                  21011841.9064                   21011840.2074
        30.0004         23.0004
   -119422.82444    -79138.74653  22280130.8284                   22280129.4304
        25.2504         21.5004
                                  21859238.8444                   21859238.4184
        25.7504         22.5004
                                  20569802.1724                   20569799.8594
        28.2504         27.5004
   -290483.402 4                  22687624.984
        28.000
 19  3  6 23 36 40.0000000  0  9G01G17G11G13G18G19G28G30G15
   -657696.18457   -385924.10954  22433748.7974                   22433755.1334
        43.2504         25.5004
   -994365.54358  -1381435.44455  21008466.3524                   21008468.7854
        48.0004         30.2504
   -121333.469 7                  22279766.297
        43.500
     72636.83657     58043.30854  21859555.4144                   21859554.6374
        44.0004         28.2504
   -180232.40216                  22933260.539
        41.000
  -1423750.92216                  22538598.109
        40.000
   -228958.30957   -317655.08755  20569037.7344                   20569035.6174
        46.0004         35.2504
    336956.86756    420491.43053  22100810.3204                   22100813.2814
        39.5004         18.5004
   -295650.19157   -223320.54454  22686642.1804                   22686638.9494
        44.5004         28.5004
 19  3  6 23 36 45.0000000  0  9G01G17G11G13G18G19G28G30G15
   -670188.76647   -395658.52344  22431371.7584                   22431376.3954
        42.7504         25.5004
  -1012082.35247  -1395240.72345  21005095.3284                   21005095.7774
        47.5004         30.5004
   -123224.52747    -80553.15653  22279406.6254                   22279406.2154
        42.7504         23.5004
     74318.97347     59249.09855  21859875.4384                   21859871.3094
        43.7504         31.0004
   -183204.99246   -115178.65253  22932693.5084                   22932695.9304
        40.2504         22.2504
  -1450616.21546  -1005218.07853  22533486.4844                   22533486.1994
        40.5004         23.5004
   -232959.93747   -320773.19145  20568275.9144                   20568275.1684
        46.0004         35.2504
    343527.78146    425611.70743  22102060.2114                   22102063.6954
        37.7504         18.5004
   -300798.74647   -227332.43044  22685662.3524                   22685662.1134
        45.2504         27.2504
 19  3  6 23 36 50.0000000  0  9G01G17G11G13G18G19G28G30G15
   -682665.67647   -405380.80944  22428997.3524                   22429001.0744
        43.0004         27.5004
  -1029785.51647  -1409035.41845  21001726.0944                   21001725.9884
        47.7504         31.0004
   -125100.72747    -82015.10944  22279049.6724                   22279048.5744
        43.5004         25.7504
     76017.40647     60572.53944  21860199.5634                   21860197.3984
        44.2504         29.0004
   -186161.70346   -117482.58643  22932131.5784                   22932133.1684
        40.5004         21.7504
  -1477472.35546  -1026144.91044  22528376.2814                   22528375.2074
        41.5004         25.0004
   -236954.11347   -323885.55145  20567516.0004                   20567514.6764
        46.5004         35.2504
    350106.58646    430737.99643  22103312.6484                   22103314.9614
        39.0004         19.7504
   -305929.11347   -231330.12544  22684686.1644                   22684686.4924
        45.0004         24.7504
 19  3  6 23 36 55.0000000  0  9G01G17G11G13G18G19G28G30G15
   -695118.84847   -415084.56244  22426627.4534                   22426631.0944
        43.2504         27.0004
  -1047472.72347  -1422817.64544  20998360.7344                   20998360.1684
        47.5004         29.7504
   -126955.73847    -83460.56644  22278696.6174                   22278695.8794
        44.0004         26.5004
     77728.91847     61906.15244  21860524.9304                   21860523.9414
        43.7504         27.5004
   -189097.03946   -119769.83243  22931573.2974                   22931574.2934
        41.2504         22.7504
  -1504318.15247  -1047063.71943  22523267.4924                   22523266.1644
        42.2504         22.5004
   -240937.76647   -326989.69945  20566758.0164                   20566757.0824
        46.7504         34.5004
    356700.72346    435876.29743  22104567.0784                   22104569.5984
        39.0004         20.0004
   -311047.65247   -235318.60244  22683712.7194                   22683712.3014
        45.0004         27.0004
 19  3  6 23 37  0.0000000  0  5G01G17G11G19G28
                                  22424260.992
        28.500
  -1065150.754 5                  20994997.352
        31.500
                                  22278346.336
        28.000
                                  22518161.281
        26.250
                                  20566001.352
        29.250
 19  3  6 23 37 10.0000000  0  1G17
                                  21288070.891
        33.000
 19  3  6 23 37 15.0000000  0  8G01G17G11G13G18G28G30G15
   1555809.60517                  22716972.445
        42.500
    457317.08658   -244750.57856  21284712.6024                   21284713.0354
        48.0004         36.5004
   1572925.79757   1141597.37954  22577106.6804                   22577099.1644
        42.2504         29.0004
   1660089.00457   1293224.71355  22161644.8524                   22161640.5474
        44.0004         32.5004
   1570929.78516                  23229162.484
        38.500
   1318610.20757    889603.93556  20863530.7034                   20863528.9064
        45.5004         36.5004
                                  22409391.078
        43.250
   1568355.62557    986868.13755  22979639.5394                   22979638.9804
        44.7504         30.7504
 19  3  6 23 37 20.0000000  0  9G01G17G11G13G18G19G28G30G15
   1543436.08247    796666.88354  22714617.2504                   22714620.9774
        42.5004         24.7504
    439688.34047   -258487.25445  21281358.1954                   21281358.6024
        47.7504         34.5004
   1571146.01647   1140210.51644  22576768.1094                   22576766.0474
        42.5004         25.2504
   1661868.39147   1294611.29345  22161984.2974                   22161984.1604
        44.2504         30.2504
   1568075.82056   1103327.56353  23228620.3834                   23228621.2424
        40.2504         22.0004
   1547535.33216                  22797536.250
        40.500
   1314659.02747    886525.09045  20862779.3054                   20862778.9534
        45.2504         34.5004
   1584412.65646   1677086.58653  22410652.8134                   22410655.8054
        38.2504         21.0004
   1563316.06357    982941.16054  22978680.4534                   22978681.2384
        45.2504         29.7504
 19  3  6 23 37 25.0000000  0  9G01G17G11G13G18G19G28G30G15
                                  22712264.1804                   22712269.6524
        41.5004         24.2504
    422062.06657   -272222.08655  21278002.9774                   21278005.6334
        47.0004         31.0004
   1569374.09857   1138829.79753  22576430.5554                   22576430.3714
        42.0004         23.0004
   1663651.36757   1296000.57054  22162322.7034                   22162324.7274
        43.0004         26.7504
   1565231.08556   1101110.82253  23228078.3364                   23228080.8714
        40.0004         21.2504
   1520720.58646    128704.87953  22792432.6564                   22792434.1524
        40.7504         22.5004
   1310706.41847    883445.28145  20862026.2814                   20862028.7544
        44.2504         31.7504
   1591039.22316                  22411912.859
        37.750
   1558282.47757    979018.84054  22977722.0084                   22977723.9844
        45.7504         25.5004
 19  3  6 23 37 30.0000000  0  8G01G17G11G13G18G19G28G15
                                  22709914.3284                   22709918.7154
        39.0004         22.5004
                                  21274651.3054                   21274653.2304
        46.0004         38.7504
                                  22576095.180
        39.250
                                  22162663.648
        39.250
                                  23227539.9614                   23227543.3874
        39.2504         21.2504
                                  22787331.508
        37.000
                                  20861275.2664                   20861276.6764
        42.5004         31.5004
                                  22976766.1174                   22976766.4304
        41.5004         25.7504
 19  3  6 23 37 35.0000000  0  7G17G11G13G18G19G28G15
    386829.01047   -298578.05355  21271299.0234                   21271302.2274
        45.0004         31.0004
                                  22575762.6334                   22575763.4614
        38.7504         22.7504
                                  22163005.8754                   22163008.9344
        42.2504         30.2504
                                  23227003.4384                   23227007.8634
        35.5004         21.0004
                                  22782229.2974                   22782230.7544
        39.7504         22.2504
                                  20860523.1334                   20860527.4264
        42.5004         32.5004
   1548231.51647    971186.79645  22975811.9614                   22975813.6254
        44.2504         30.2504
 19  3  6 23 37 40.0000000  0  9G01G17G11G13G18G19G28G30G15
   1494041.75057    768179.35954  22705219.4774                   22705224.9924
        42.5004         24.0004
    369228.68847   -312292.71545  21267949.5784                   21267950.8164
        47.5004         32.2504
                                  22575431.438
        41.250
   1669054.72757   1299987.21154  22163352.0164                   22163352.2384
        43.5004         29.0004
   1556776.61046   1094522.68743  23226468.6644                   23226472.8324
        38.2504         21.0004
                                  22777128.680
        41.750
   1298854.76257    874455.99255  20859772.9144                   20859770.4064
        45.7504         34.5004
   1589638.37556   1683907.74253  22415699.0704                   22415702.2854
        39.7504         20.7504
   1543237.59857    967295.35254  22974861.2504                   22974862.5514
        43.5004         27.5004
 19  3  6 23 37 45.0000000  0  9G01G17G11G13G18G19G28G30G15
   1481736.39847    758590.78144  22702878.1024                   22702883.6954
        43.0004         26.0004
    351643.99647   -325995.04445  21264603.8914                   21264604.5554
        47.2504         32.2504
   1562403.52347   1133616.30154  22575105.3134                   22575104.4774
        42.5004         27.2504
   1670884.94947   1301413.36644  22163699.8914                   22163700.8014
        45.0004         29.7504
   1553992.73847   1092353.45643  23225939.2974                   23225942.3134
        42.0004         22.0004
   1413483.04846     48485.24854  22772029.7344                   22772029.8714
        40.5004         25.2504
   1294923.35947    871392.52345  20859024.6564                   20859024.0354
        46.0004         34.5004
   1596286.93046   1689088.57843  22416964.9534                   22416968.3204
        36.5004         21.0004
   1538260.02047    963416.74244  22973914.7114                   22973915.9774
        46.2504         27.7504
 19  3  6 23 37 50.0000000  0  5G01G11G18G19G15
                                  22700538.8754                   22700545.8284
        41.5004         21.5004
                                  22574781.344
        41.750
                                  23225411.3984                   23225415.7504
        37.5004         21.5004
                                  22766932.875
        33.000
                                  22972970.883
        39.250
 19  3  6 23 37 55.0000000  0  7G01G17G11G13G19G28G15
                                  22698204.336
        37.750
    316510.31517                  21257917.914
        42.000
   1559011.41016                  22574460.750
        36.750
                                  22164403.516
        39.250
   1359917.87516                  22761836.820
        37.500
   1287057.23316                  20857531.766
        39.000
   1528360.93816                  22972028.375
        39.000
 19  3  6 23 38  0.0000000  0  5G01G17G13G28G15
                                  22695873.617
        23.750
    298962.67654   -365951.29754  21254579.4694                   21254585.9964
        28.2504         24.5004
                                  22164761.4454                   22164765.6374
        24.5004         22.0004
                                  20856788.5394                   20856794.3164
        26.2504         24.5004
                                  22971090.227
        25.250
 19  3  6 23 38  5.0000000  0  9G01G17G11G13G18G19G28G30G15
   1432687.52017                  22693544.359
        42.250
    281427.29347   -378522.36055  21251242.0004                   21251243.3484
        47.5004         34.7504
   1555690.00856   1129018.44154  22573829.1644                   22573827.3874
        41.7504         27.7504
   1581246.05557   1305833.88455  22165119.6414                   22165112.8484
        43.7504         31.2504
                                  23223851.539
        41.750
                                  22751649.102
        42.000
   1279244.44547    861267.57956  20856045.0944                   20856043.4304
        45.5004         36.5004
                                  22422039.469
        38.750
   1518515.324 7                  22970155.891
        46.250
 19  3  6 23 38 10.0000000  0  9G01G17G11G13G18G19G28G30G15
   1420466.76547    740247.75754  22691218.2274                   22691222.1644
        42.5004         28.7504
    263902.26447   -392178.22145  21247906.8284                   21247907.9304
        46.7504         33.7504
   1554052.45847   1127742.43344  22573517.5554                   22573517.3554
        42.0004         26.7504
   1583141.97046   1307311.16344  22165480.1414                   22165478.7034
        41.7504         28.7504
   1570440.37946   1085714.34653  23223338.7814                   23223340.2664
        38.5004         21.7504
   1529390.51746    -14103.74353  22746557.5314                   22746555.9924
        39.0004         23.7504
   1275346.50347    858230.19545  20855303.4304                   20855303.5744
        45.2504         35.7504
   1587717.66846   1694907.80553  22423312.0394                   22423315.1484
        38.5004         23.0004
   1513613.39347    956355.31254  22969222.7344                   22969224.2734
        43.5004         29.0004
 19  3  6 23 38 15.0000000  0  9G01G17G11G13G18G19G28G30G15
   1408260.55547    730736.42644  22688895.8054                   22688899.7304
        42.2504         26.7504
    246386.49648   -405826.87545  21244573.5944                   21244574.8444
        48.0004         34.0004
   1552428.26246   1126476.81644  22573207.8594                   22573208.1724
        41.7504         25.0004
   1585047.84047   1308796.28945  22165842.5634                   22165842.9304
        44.2504         30.5004
   1567755.18446   1083621.98443  23222827.4924                   23222829.7854
        39.7504         22.0004
   1502635.53147    -34951.76644  22741465.5004                   22741464.4574
        42.2504         26.2504
   1271452.96947    855196.27345  20854562.0634                   20854562.3834
        45.2504         35.0004
   1594408.43446   1700121.37943  22424585.5084                   22424588.6914
        39.5004         22.2504
   1508723.36347    952544.90644  22968292.2114                   22968293.9694
        45.0004         26.7504
 19  3  6 23 38 20.0000000  0  9G01G17G11G13G18G19G28G30G15
   1396070.27347    721237.50044  22686576.3444                   22686580.3284
        42.7504         26.5004
    228882.11347   -419466.65245  21241242.9144                   21241243.4614
        47.7504         33.5004
   1550818.72747   1125222.64544  22572902.3984                   22572902.2384
        42.2504         27.7504
   1586966.57847   1310291.38744  22166207.9384                   22166208.5044
        43.0004         28.5004
   1565085.74246   1081541.88743  23222319.6254                   23222321.3834
        41.5004         22.0004
   1475887.39847    -55794.47343  22736375.6334                   22736375.1764
        42.0004         23.5004
   1267565.19147    852166.82845  20853822.9694                   20853822.3594
        45.7504         34.5004
   1601106.09446   1705340.32043  22425860.2664                   22425863.3164
        40.0004         21.5004
   1503848.17247    948746.02744  22967364.2584                   22967365.8484
        45.5004         28.2504
 19  3  6 23 38 25.0000000  0  9G01G17G11G13G18G19G28G30G15
   1383889.68457    711746.55154  22684258.4454                   22684262.4884
        42.2504         26.5004
    211388.72758   -433097.76255  21237912.4304                   21237915.9414
        48.0004         33.7504
   1549218.50857   1124075.19254  22572597.7734                   22572596.9844
        42.5004         28.7504
   1588894.43457   1311672.24055  22166573.8284                   22166573.0634
        43.7504         32.7504
   1562428.94116                  23221812.820
        40.250
   1449144.75056    -76632.75954  22731284.8284                   22731285.9924
        41.5004         25.7504
   1263677.96157    849137.58655  20853082.9454                   20853083.0824
        45.0004         34.0004
   1607806.03956   1710561.05153  22427134.5474                   22427138.1914
        40.2504         21.7504
   1498980.00057    944952.35954  22966438.1484                   22966440.8714
        44.5004         29.0004
 19  3  6 23 38 30.0000000  0  9G01G17G11G13G18G19G28G30G15
   1371727.40246    702269.34344  22681943.5314                   22681947.9844
        38.7504         24.5004
    193901.84047   -446723.89145  21234585.2424                   21234586.4344
        46.7504         33.5004
   1547634.05546   1122840.66854  22572295.8914                   22572296.5984
        37.5004         24.2504
   1590832.78147   1313182.68245  22166942.8284                   22166943.2504
        44.2504         30.7504
                                  23221311.5314                   23221313.4494
        34.5004         21.2504
   1422404.73947    -97469.14643  22726197.0474                   22726196.6764
        42.0004         22.7504
   1259797.01847    846113.49745  20852344.1564                   20852344.5124
        43.5004         32.5004
   1614513.24546   1715787.45643  22428410.4614                   22428414.6644
        39.5004         20.7504
                                  22965514.7504                   22965516.8284
        43.5004         26.2504
 19  3  6 23 38 35.0000000  0  9G01G17G11G13G18G19G28G30G15
   1359584.66047    692807.50044  22679633.0234                   22679637.2304
        42.5004         27.2504
    176428.25857   -460339.93055  21231260.7584                   21231261.3754
        47.0004         32.0004
   1546067.34447   1121619.80544  22571998.5554                   22571998.1804
        42.5004         29.0004
   1592782.71147   1314702.06344  22167313.5554                   22167313.9804
        42.5004         27.7504
   1557162.66446   1078257.05943  23220811.9144                   23220813.9884
        41.2504         22.5004
   1395672.41446   -118299.50843  22721110.7274                   22721110.1174
        41.5004         22.5004
   1255924.98057    843096.27355  20851607.9534                   20851607.4614
        45.2504         34.5004
   1621231.13246   1721022.16143  22429689.8834                   22429693.2934
        40.0004         20.2504
   1489287.05547    937399.46144  22964593.8364                   22964595.0944
        45.5004         26.5004
 19  3  6 23 38 40.0000000  0  9G01G17G11G13G18G19G28G30G15
   1347451.93447    683353.41844  22677324.5704                   22677328.0744
        43.0004         28.0004
    158960.17247   -473951.38745  21227936.3834                   21227936.1764
        47.2504         34.5004
   1544508.92247   1120405.46144  22571701.7034                   22571701.5984
        42.5004         28.5004
   1594737.83647   1316225.57445  22167686.1954                   22167685.5984
        43.7504         30.0004
   1554547.77046   1076219.46943  23220314.4304                   23220315.5984
        41.5004         23.7504
   1368940.02346   -139129.95344  22716023.0164                   22716022.1294
        40.2504         24.5004
   1252052.05547    840078.44546  20850870.8284                   20850869.6564
        45.7504         36.2504
   1627950.19946   1726257.82443  22430968.7344                   22430972.0744
        37.2504         21.2504
   1484452.70347    933632.46544  22963673.7584                   22963674.1094
        46.0004         26.7504
 19  3  6 23 38 45.0000000  0  9G01G17G11G13G18G19G28G30G15
   1335332.26247    673909.53944  22675018.0084                   22675021.3054
        42.5004         27.5004
    141501.96957   -487555.21555  21224613.5704                   21224614.6604
        47.5004         33.5004
   1542963.62556   1119201.35554  22571407.0704                   22571406.8754
        41.5004         28.5004
   1596707.53557   1317760.39854  22168060.6954                   22168060.7274
        44.0004         28.5004
   1551948.22356   1074193.85253  23219819.1724                   23219820.9454
        40.2504         23.0004
   1342213.14156   -159956.06653  22710936.9454                   22710936.1214
        40.7504         23.0004
   1248183.29357    837063.55955  20850133.7974                   20850134.2274
        45.0004         35.0004
   1634671.36756   1731495.07053  22432247.1484                   22432250.2034
        38.7504         20.7504
   1479639.02357    929881.78154  22962757.2274                   22962757.9614
        45.0004         27.7504
 19  3  6 23 38 50.0000000  0  9G01G17G11G13G18G19G28G30G15
   1323228.84057    664478.29354  22672713.8674                   22672717.8984
        42.0004         28.7504
    124056.78547   -501148.80945  21221294.4844                   21221293.9534
        45.5004         31.2504
   1541432.93057   1118008.61354  22571116.6484                   22571115.1374
        42.7504         29.7504
   1598691.05547   1319305.99644  22168437.9844                   22168437.9344
        42.5004         27.0004
   1549364.09447   1072180.27044  23219327.8524                   23219328.5474
        42.0004         27.7504
   1315494.66046   -180775.63343  22705853.4614                   22705851.4694
        38.7504         21.7504
   1244322.23847    834054.99245  20849400.2114                   20849398.4414
        45.2504         35.2504
   1641400.87156   1736738.84853  22433527.8754                   22433530.5664
        36.7504         20.2504
   1474839.23847    926141.67244  22961844.4144                   22961844.0274
        46.0004         26.2504
 19  3  6 23 38 55.0000000  0  9G01G17G11G13G18G19G28G30G15
                                  22670413.5474                   22670418.8364
        42.7504         27.7504
    106618.08657   -512562.31656  21217975.6024                   21217972.0744
        46.5004         36.2504
   1539911.84357   1116823.04954  22570827.0554                   22570827.0514
        43.0004         29.0004
   1600683.48757   1320858.57154  22168816.5314                   22168818.5124
        42.0004         29.0004
   1546791.24357   1070175.15354  23218838.0084                   23218840.1414
        42.2504         26.5004
   1288776.96356   -201594.91053  22700769.2734                   22700768.4654
        40.0004         22.5004
   1240464.85157    831288.62256  20848665.3054                   20848662.6764
        45.7504         36.7504
   1648128.19216                  22434807.758
        38.500
   1470051.78557    922411.17654  22960933.0944                   22960934.5594
        43.7504         26.5004
 19  3  6 23 39  0.0000000  0  9G01G17G11G13G18G19G28G30G15
                                  22668116.867
        42.750
                                  21214669.180
        45.000
                                  22570541.1564                   22570542.4384
        43.2504         28.0004
                                  22169198.7194                   22169198.8524
        44.0004         33.0004
                                  23218352.4614                   23218355.7234
        43.0004         25.2504
                                  22695685.7974                   22695686.5354
        41.5004         22.5004
                                  20847920.719
        44.500
                                  22436090.523
        41.250
                                  22960024.6724                   22960027.4104
        46.0004         28.2504
 19  3  6 23 39  5.0000000  0  5G11G18G19G30G15
                                  22570258.7344                   22570260.5904
        44.2504         26.5004
                                  23217870.6724                   23217873.4964
        40.7504         22.0004
                                  22690605.766
        40.750
                                  22437376.1564                   22437377.3674
        40.2504         22.0004
                                  22959120.7504                   22959122.7154
        45.5004         27.7504
 19  3  6 23 39 10.0000000  0  8G01G17G11G13G18G19G30G15
   1274972.86717                  22663531.883
        42.500
                                  21208035.5164                   21208035.3164
        46.7504         37.2504
   1535459.44557   1113354.68854  22569978.4304                   22569981.8674
        42.5004         26.0004
                                  22169969.969
        46.000
   1539186.53156   1064250.52753  23217391.6174                   23217395.1334
        41.0004         22.7504
                                  22685525.969
        39.750
   1668375.53516                  22438660.586
        38.500
   1455858.52717                  22958218.477
        45.000
 19  3  6 23 39 20.0000000  0  2G11G18
                                  22569427.977
        36.500
   1574223.11315                  23216440.555
        32.750
 19  3  6 23 39 30.0000000  0  6G01G17G11G13G30G15
                                  22654396.9384                   22654397.7584
        45.0004         30.0004
                                  21194810.6094                   21194812.4144
        47.0004         36.2504
                                  22568885.3914                   22568887.0164
        43.0004         29.2504
                                  22171539.4694                   22171539.2114
        44.7504         28.5004
                                  22443812.961
        40.500
                                  22954635.3204                   22954638.8164
        44.5004         31.0004
 19  3  6 23 39 35.0000000  0  8G01G17G11G13G18G19G30G15
   1554353.59447    626594.05554  22652121.3054                   22652125.9304
        42.5004         27.2504
   1547658.35247   -550479.56245  21191509.4534                   21191511.6334
        47.5004         33.5004
   1572894.23846   1111053.65253  22568619.9534                   22568621.0984
        41.5004         23.5004
   1578918.30147   1326403.68454  22171937.1644                   22171938.5984
        44.0004         29.0004
                                  23215037.211
        39.000
   1532746.65257   -274804.56254  22660143.6254                   22660144.2154
        42.0004         26.7504
   1590853.73846   1750001.00453  22445103.3674                   22445107.8094
        39.7504         21.5004
   1567932.43447    908878.76254  22953745.3054                   22953747.5784
        45.2504         28.7504
 19  3  6 23 39 40.0000000  0  9G01G17G11G13G18G19G28G30G15
   1542407.42657    617285.31654  22649847.8594                   22649852.9344
        42.7504         26.7504
   1530320.04357   -563989.98055  21188210.0234                   21188211.6954
        46.5004         31.7504
   1571507.47747   1109973.08244  22568355.7814                   22568356.6684
        42.2504         25.7504
   1581017.13347   1328039.12944  22172337.1254                   22172337.9104
        43.2504         27.2504
   1570843.90657   1062094.64553  23214575.4844                   23214576.4224
        42.5004         22.7504
   1506085.54756   -295579.43753  22655070.8914                   22655070.5634
        40.5004         22.7504
   1572107.66957    827680.17756  20842111.7664                   20842110.0984
        45.5004         36.2504
   1597643.71556   1755291.93853  22446395.6884                   22446400.2584
        38.0004         20.2504
   1563268.86757    905244.76254  22952858.3524                   22952860.9304
        45.7504         29.2504
 19  3  6 23 39 45.0000000  0  9G01G17G11G13G18G19G28G30G15
   1530474.05156    607986.60954  22647576.6884                   22647581.6024
        41.2504         24.7504
   1512988.23847   -577495.34845  21184911.4454                   21184912.2814
        46.5004         31.2504
   1570132.16457   1108901.38754  22568093.8204                   22568094.3554
        42.0004         25.7504
   1583123.82057   1329680.70754  22172737.2194                   22172737.6954
        43.7504         27.2504
   1568428.30556   1060212.32853  23214115.9454                   23214117.4694
        41.0004         21.7504
   1479426.55656   -316352.66153  22649997.0784                   22649996.6884
        40.5004         22.7504
   1568303.60557    824715.94555  20841387.7734                   20841386.9024
        45.0004         34.2504
   1604436.26256   1760584.80953  22447688.6804                   22447692.7234
        37.2504         19.5004
   1558615.57457    901618.83255  22951972.7814                   22951974.3134
        46.0004         30.2504
 19  3  6 23 39 50.0000000  0  9G01G17G11G13G18G19G28G30G15
   1518550.50057    599810.34354  22645308.1954                   22645308.5434
        42.0004         29.0004
   1495664.01657   -589914.82855  21181615.3444                   21181613.8484
        47.0004         32.5004
   1568765.71116                  22567833.656
        41.250
   1585238.31657   1331129.91455  22173139.8754                   22173136.2074
        43.7504         30.0004
   1566024.06316                  23213657.695
        40.750
   1452770.43816                  22644925.063
        41.750
   1564501.72747    821753.47745  20840664.2424                   20840664.1134
        45.2504         33.7504
   1579496.92216                  22448980.930
        38.250
   1553974.12157    898290.90654  22951089.6954                   22951090.8484
        45.5004         29.2504
 19  3  6 23 39 55.0000000  0  9G01G17G11G13G18G19G28G30G15
   1506644.96047    590533.27754  22643042.4844                   22643045.3014
        42.2504         28.0004
   1478350.77347   -603405.66845  21178320.2584                   21178320.6054
        47.2504         32.5004
   1567415.52947   1106911.35154  22567576.9844                   22567574.7034
        42.0004         26.7504
   1587365.19147   1332787.24244  22173544.6484                   22173544.5664
        42.7504         29.5004
   1563636.24946   1058273.24353  23213204.2894                   23213205.3054
        41.7504         21.7504
   1426119.99646   -352905.20354  22639852.7734                   22639849.4804
        40.2504         28.0004
   1560705.12947    818795.06545  20839941.7894                   20839941.6884
        45.0004         34.5004
   1586297.60246   1763126.81153  22450276.1254                   22450277.3794
        40.0004         22.5004
   1549345.61347    894684.25044  22950208.7114                   22950209.0084
        44.5004         27.5004
 19  3  6 23 40  0.0000000  0  9G01G17G11G13G18G19G28G30G15
   1494756.72347    581269.71544  22640780.6174                   22640784.0594
        43.0004         27.7504
   1461052.93047   -616884.52745  21175029.1254                   21175029.3554
        46.5004         31.5004
                                  22567323.3364                   22567321.6884
        42.5004         25.0004
   1589508.94247   1334457.67644  22173952.8524                   22173952.7624
        42.0004         28.7504
   1561265.27346   1056425.75043  23212751.9534                   23212754.5744
        39.7504         22.0004
                                  22634783.680
        39.750
   1556917.64147    815843.76245  20839221.0474                   20839220.6374
        45.2504         34.5004
                                  22451571.7194                   22451574.1764
        38.2504         21.2504
                                  22949331.3594                   22949332.3834
        43.5004         29.5004
 19  3  6 23 40  5.0000000  0  9G01G17G11G13G18G19G28G30G15
                                  22638521.0864                   22638522.7384
        43.5004         28.5004
                                  21171738.867
        47.500
                                  22567071.4384                   22567070.3014
        44.5004         35.5004
                                  22174361.5864                   22174362.7154
        44.7504         26.5004
                                  23212304.0474                   23212306.6134
        42.0004         21.7504
                                  22629714.7584                   22629712.7504
        42.5004         25.0004
                                  20838500.9384                   20838501.0434
        46.5004         37.7504
                                  22452867.9304                   22452871.2384
        40.2504         20.7504
                                  22948455.695
        47.250
 19  3  6 23 40 10.0000000  0  6G01G13G18G28G30G15
   1471031.19957    564625.22054  22636264.5084                   22636271.2154
        42.5004         28.0004
   1593822.57057   1337818.65654  22174773.3054                   22174774.2424
        43.7504         29.2504
                                  23211858.063
        41.500
   1549356.11357    810186.62955  20837782.2034                   20837781.3914
        45.0004         34.7504
   1606743.59856   1779058.91053  22454165.7504                   22454169.5044
        40.2504         20.5004
   1535549.47757    884220.10555  22947582.9844                   22947583.9414
        46.0004         30.2504
 19  3  6 23 40 15.0000000  0  8G01G17G11G13G18G28G30G15
   1459185.81357    555395.69154  22634010.7814                   22634015.0234
        43.0004         28.0004
   1554007.48057   -648663.00055  21165162.9774                   21165162.7234
        47.0004         34.5004
   1562204.59416                  22566576.594
        41.750
   1595986.99657   1339370.42654  22175185.9534                   22175184.7344
        43.2504         28.2504
   1572526.64117                  23211414.969
        43.000
   1545573.50457    807474.52355  20837062.9924                   20837062.5984
        45.2504         34.5004
   1613562.25056   1784372.14553  22455463.9844                   22455466.6994
        41.0004         20.5004
   1530968.68457    880936.86354  22946712.3444                   22946714.3094
        46.0004         29.2504
 19  3  6 23 40 20.0000000  0  8G01G17G11G13G18G28G30G15
   1447350.63347    546173.46144  22631758.2504                   22631763.8794
        42.0004         27.5004
   1536742.68847   -662116.05545  21161877.9774                   21161878.4144
        47.2504         34.5004
   1560917.71546   1102664.68853  22566331.7034                   22566331.9844
        41.0004         23.7504
   1598167.19947   1341069.27344  22175601.6484                   22175601.6454
        43.7504         28.0004
   1570208.00446   1051976.96954  23210974.1254                   23210975.3674
        41.0004         24.0004
   1541798.14547    804532.69945  20836344.5864                   20836344.9654
        45.2504         34.0004
   1620385.60946   1789689.10543  22456761.0394                   22456766.2384
        36.2504         20.0004
   1526404.42647    877380.35244  22945843.8524                   22945846.3094
        46.5004         29.5004
 19  3  6 23 40 25.0000000  0  7G17G11G13G18G19G28G15
                                  21158594.1884                   21158594.4774
        43.2504         32.2504
                                  22566088.5944                   22566089.1454
        39.5004         22.7504
                                  22176018.3914                   22176018.8594
        38.5004         27.5004
                                  23210535.1334                   23210536.8204
        35.7504         22.5004
                                  22609446.742
        37.500
                                  20835625.8204                   20835626.8164
        41.2504         31.5004
                                  22944977.4304                   22944979.4654
        42.2504         28.2504
 19  3  6 23 40 35.0000000  0  9G01G17G11G13G18G19G28G30G15
   1412398.10257    522983.50255  22625017.7274                   22625017.3874
        44.0004         30.5004
                                  21152031.7114                   21152029.4924
        46.7504         33.0004
                                  22565611.1414                   22565606.7034
        44.0004         33.0004
   1578495.07017                  22176856.570
        42.500
                                  23209665.789
        41.500
                                  22599316.867
        40.500
   1530381.17257    797908.82156  20834193.0944                   20834191.9844
        45.5004         37.0004
   1582526.81316                  22460662.086
        39.750
                                  22943250.8594                   22943247.7154
        43.7504         29.0004
 19  3  6 23 40 40.0000000  0  2G01G18
                                  22622775.9224                   22622778.9884
        38.0004         25.0004
                                  23209235.3754                   23209236.6644
        34.7504         19.7504
 19  3  6 23 40 45.0000000  0  4G17G18G30G15
                                  21145477.2274                   21145475.1054
        44.0004         29.7504
                                  23208805.930
        37.750
                                  22463266.070
        34.250
                                  22941533.508
        41.750
 19  3  6 23 40 50.0000000  0  8G01G17G11G13G18G19G28G15
   1566489.39157    502437.07055  22618300.1024                   22618299.1804
        43.7504         33.0004
   1562345.12557   -726567.40055  21142201.7504                   21142200.4024
        46.7504         34.0004
                                  22564910.992
        44.500
   1577138.12557   1345413.17255  22178129.7974                   22178128.1804
        43.2504         30.7504
   1573720.62957   1046087.10355  23208380.2974                   23208377.9184
        44.2504         30.7504
   1555194.45716                  22584129.641
        39.500
   1568221.83257    790352.14555  20832048.0784                   20832049.3404
        46.0004         35.5004
   1572020.93857    861544.71555  22940679.7424                   22940677.6644
        46.0004         33.2504
 19  3  6 23 40 55.0000000  0  5G17G11G18G19G28
                                  21138929.2424                   21138930.7464
        46.7504         31.0004
                                  22564683.3754                   22564683.0594
        42.5004         33.2504
                                  23207957.0784                   23207959.6334
        41.0004         22.0004
                                  22579069.1254                   22579068.8754
        39.2504         24.2504
   1564476.84057    787434.04355  20831336.0234                   20831338.1134
        44.2504         32.5004
 19  3  6 23 41  0.0000000  0  8G01G17G11G13G18G19G28G15
                                  22613838.445
        40.500
                                  21135658.9694                   21135663.2854
        47.0004         32.2504
                                  22564459.2344                   22564460.5744
        40.5004         25.2504
                                  22178988.7664                   22178991.4344
        43.2504         27.2504
                                  23207538.453
        37.500
                                  22574010.023
        40.000
                                  20830624.2814                   20830624.5904
        44.0004         35.7504
                                  22938977.7664                   22938980.3754
        45.0004         30.0004
 19  3  6 23 41  5.0000000  0  9G01G17G11G13G18G19G28G30G15
                                  22611613.008
        40.750
                                  21132392.5164                   21132394.7504
        45.5004         33.5004
                                  22564238.336
        40.000
                                  22179422.672
        42.500
                                  23207122.930
        39.500
                                  22568953.3364                   22568957.5904
        40.2504         23.0004
                                  20829914.4454                   20829919.8244
        43.0004         33.0004
                                  22468489.992
        38.500
                                  22938131.4534                   22938134.1994
        44.2504         30.5004
 19  3  6 23 41 15.0000000  0  7G01G17G11G13G18G19G15
                                  22607172.563
        41.750
   1562391.57857   -775740.13755  21125867.2274                   21125869.2424
        47.5004         32.2504
                                  22563805.813
        41.000
   1577725.75457   1350305.62654  22180300.9774                   22180299.0044
        43.2504         27.0004
   1573399.75816                  23206302.648
        38.250
                                  22558846.406
        41.250
                                  22936451.0554                   22936450.7384
        45.7504         27.5004
 19  3  6 23 41 20.0000000  0  3G11G13G19
                                  22563595.3834                   22563592.6644
        43.5004         29.2504
   1580036.34356   1352105.91453  22180741.4694                   22180742.0394
        41.2504         21.5004
   1559488.38116                  22553794.336
        39.000
 19  3  6 23 41 25.0000000  0  6G01G17G18G19G28G30
                                  22602743.578
        44.000
                                  21119360.0474                   21119366.3014
        45.7504         25.7504
                                  23205494.055
        43.500
                                  22548740.8984                   22548743.1804
        41.2504         22.0004
                                  20827090.0554                   20827092.6054
        45.5004         34.7504
   1583135.53916                  22473737.680
        40.000
 19  3  6 23 41 35.0000000  0  7G01G17G11G18G19G28G15
                                  22598324.6174                   22598329.5084
        42.2504         27.5004
                                  21112834.5634                   21112836.7974
        47.5004         34.7504
                                  22562969.914
        41.500
                                  23204693.352
        42.250
                                  22538639.188
        42.000
                                  20825680.4694                   20825679.2704
        45.5004         35.5004
                                  22933108.8674                   22933109.5984
        45.7504         29.7504
 19  3  6 23 41 40.0000000  0  9G01G17G11G13G18G19G28G30G15
   1550367.06647    444290.62144  22596121.5634                   22596126.8754
        44.0004         29.0004
   1540525.83647   -824195.62555  21109581.9454                   21109584.0274
        47.7504         32.5004
   1573208.47347   1095026.37954  22562768.2344                   22562769.5234
        42.7504         26.0004
   1578148.10557   1355454.01654  22182520.2034                   22182521.6564
        44.2504         29.2504
   1571247.25847   1041118.30954  23204299.5164                   23204299.8714
        42.0004         25.7504
   1531845.41846   -525422.14554  22533590.5784                   22533589.9844
        41.5004         25.7504
   1567437.77047    774505.97356  20824977.8834                   20824978.4694
        46.5004         36.2504
   1583771.73816                  22477685.063
        39.250
   1566158.07047    840856.96944  22932278.5164                   22932280.1334
        45.5004         26.7504
 19  3  6 23 41 45.0000000  0  9G01G17G11G13G18G19G28G30G15
   1538796.04357    435274.44155  22593919.1724                   22593925.0744
        44.5004         30.5004
   1523436.27747   -837512.16845  21106329.8284                   21106331.9384
        46.7504         31.2504
   1572153.80547   1094204.49644  22562567.8594                   22562568.6334
        43.5004         27.2504
   1580504.29746   1357290.03944  22182969.4304                   22182970.6454
        41.5004         24.0004
   1569178.31357   1039506.08254  23203904.7584                   23203906.6334
        42.0004         26.5004
   1505313.17246   -546096.65244  22528541.3834                   22528541.1914
        40.2504         24.2504
   1563743.96557    771627.66455  20824275.3834                   20824275.8444
        46.5004         35.5004
   1590695.50046   1804014.34853  22479003.0474                   22479005.9224
        39.0004         21.0004
   1561798.38747    837459.74244  22931448.6484                   22931450.9304
        43.5004         26.0004
 19  3  6 23 41 50.0000000  0  3G18G28G15
                                  23203513.0944                   23203514.7624
        40.5004         22.2504
                                  20823555.320
        43.500
                                  22930621.0634                   22930623.3484
        44.2504         27.2504
 19  3  6 23 41 55.0000000  0  9G01G17G11G13G18G19G28G30G15
                                  22589521.1174                   22589525.9264
        43.2504         27.5004
                                  21099829.2274                   21099829.2774
        47.5004         36.2504
                                  22562171.7344                   22562170.6724
        43.5004         28.0004
                                  22183870.3444                   22183869.9104
        44.5004         32.7504
                                  23203123.297
        41.750
                                  22518444.609
        43.500
                                  20822811.906
        43.250
                                  22481637.2114                   22481641.6094
        40.5004         26.0004
   1553119.65657    830697.35254  22929797.2034                   22929798.7664
        46.2504         28.2504
 19  3  6 23 42  0.0000000  0  4G01G17G13G30
                                  22587327.0704                   22587315.4454
        46.2504         37.5004
                                  21096582.2664                   21096581.1884
        48.0004         32.5004
                                  22184324.867
        43.000
                                  22482956.883
        39.500
 19  3  6 23 42  5.0000000  0  6G01G13G18G19G28G15
                                  22585135.297
        41.750
                                  22184779.6174                   22184785.1414
        41.0004         23.7504
                                  23202354.367
        40.000
                                  22508350.805
        39.500
                                  20821468.8594                   20821469.5204
        43.0004         34.5004
                                  22928154.0474                   22928153.3594
        43.7504         30.0004
 19  3  6 23 42 10.0000000  0  6G17G11G13G19G28G15
   1565243.36758   -881993.97356  21090092.7034                   21090090.0944
        49.0004         37.0004
   1574841.60957   1091734.40055  22561597.1804                   22561592.8364
        43.0004         33.5004
                                  22185238.8054                   22185238.3364
        45.5004         35.2504
   1559523.42657   -569250.01655  22503306.3524                   22503305.3134
        43.2504         32.5004
                                  20820768.9774                   20820765.9804
        45.5004         37.0004
                                  22927337.5944                   22927334.3524
        47.2504         37.5004
 19  3  6 23 42 15.0000000  0  9G01G17G11G13G18G19G28G30G15
   1561621.30957    396845.11254  22580761.3284                   22580766.4144
        43.5004         26.0004
   1548220.23858   -895258.84855  21086853.8444                   21086857.4654
        48.0004         31.7504
   1573869.64857   1091006.73053  22561412.6254                   22561410.3444
        42.2504         22.2504
   1579314.29757   1362449.87954  22185700.7894                   22185704.7704
        44.2504         26.0004
   1573839.09016                  23201597.383
        40.750
   1533030.10946   -589894.22354  22498265.1334                   22498267.4414
        41.7504         26.5004
   1569552.19547    763077.56355  20820072.9384                   20820075.7274
        45.2504         32.7504
   1582106.14116                  22486919.875
        40.000
   1568587.58657    822954.55554  22926525.0394                   22926529.6764
        45.5004         28.7504
 19  3  6 23 42 20.0000000  0  2G11G18
                                  22561229.3754                   22561232.3164
        41.5004         21.5004
                                  23201224.109
        39.250
 19  3  6 23 42 25.0000000  0  9G01G17G11G13G18G19G28G30G15
                                  22576398.2894                   22576404.0824
        43.7504         30.5004
                                  21080378.6254                   21080379.5084
        48.2504         35.7504
   1571962.44957   1089520.45353  22561048.9064                   22561052.8794
        42.5004         23.0004
                                  22186668.406
        41.250
                                  23200852.469
        40.000
                                  22488182.992
        43.500
                                  20818681.0004                   20818682.9454
        45.5004         35.2504
                                  22489566.664
        40.750
   1570611.66057    818025.21554  22924908.1724                   22924912.8794
        45.2504         29.2504
 19  3  6 23 42 35.0000000  0  8G01G17G11G13G18G19G28G15
                                  22572043.5004                   22572044.9574
        43.0004         31.2504
                                  21073908.5554                   21073909.7664
        47.0004         33.5004
                                  22560692.578
        43.000
                                  22187565.2584                   22187564.7344
        44.5004         34.2504
                                  23200115.305
        42.750
                                  22478103.1724                   22478100.1024
        43.5004         28.2504
                                  20817289.6724                   20817289.1684
        45.2504         34.0004
                                  22923297.1724                   22923296.6604
        47.0004         35.5004
 19  3  6 23 42 40.0000000  0  9G01G17G11G13G18G19G28G30G15
   1557784.84847    361527.80154  22569870.9534                   22569877.1024
        43.0004         28.7504
   1544920.87257   -941990.08455  21070675.6884                   21070680.3444
        46.5004         30.0004
   1574018.20747   1088213.43954  22560517.1804                   22560519.1994
        42.5004         25.2504
   1579811.97357   1365892.44753  22188034.0394                   22188038.2234
        42.2504         23.7504
   1572496.94157   1032187.08654  23199749.6564                   23199746.3524
        42.0004         27.0004
   1530964.09816                  22473063.555
        40.500
   1569298.91747    751118.24245  20816594.1804                   20816596.0514
        46.0004         34.2504
   1582647.44116                  22493538.828
        37.000
   1567802.50857    811182.25054  22922494.8134                   22922498.3204
        45.0004         26.2504
 19  3  6 23 42 45.0000000  0  9G01G17G11G13G18G19G28G30G15
   1546377.82447    352639.23844  22567701.3594                   22567705.7114
        43.5004         29.7504
   1527942.55948   -955219.87145  21067445.2584                   21067446.9264
        48.0004         32.7504
   1573110.38547   1087534.06954  22560345.6174                   22560341.5744
        43.0004         26.7504
   1582291.20747   1367824.36744  22188507.3914                   22188508.5044
        43.5004         27.0004
   1570591.39047   1030702.24953  23199388.2814                   23199387.6914
        42.5004         22.2504
   1504487.52346   -666660.61754  22468026.0864                   22468023.1564
        41.5004         27.5004
   1565651.18847    748275.91845  20815901.1954                   20815901.6254
        46.2504         34.5004
   1589612.77046   1815503.81353  22494865.5394                   22494868.6094
        40.0004         21.0004
   1563599.69947    807907.39144  22921695.8594                   22921697.4304
        44.7504         28.5004
 19  3  6 23 42 50.0000000  0  9G01G17G11G13G18G19G28G30G15
   1534995.54747    343769.91444  22565535.3134                   22565540.3794
        43.5004         27.0004
   1510982.59047   -968435.46145  21064217.6414                   21064220.0084
        47.0004         30.2504
   1572225.51247   1086844.56644  22560176.4614                   22560175.9734
        43.0004         24.0004
   1584788.40647   1369770.23443  22188982.3524                   22188983.8054
        43.0004         22.7504
   1568710.21946   1029236.39143  23199029.4534                   23199030.4454
        41.0004         21.5004
   1478024.05146   -687281.52343  22462989.8674                   22462988.1214
        41.0004         22.2504
   1562017.29747    745444.27745  20815209.1254                   20815210.1994
        46.0004         33.5004
   1596591.65246   1820941.88343  22496193.3204                   22496197.5824
        37.2504         19.7504
   1559417.40247    804648.43444  22920900.0084                   22920902.3014
        44.5004         26.5004
 19  3  6 23 42 55.0000000  0  9G01G17G11G13G18G19G28G30G15
   1523626.42247    335619.87855  22563371.6954                   22563378.6294
        43.7504         32.0004
   1494036.30547   -979527.31055  21060993.0474                   21060996.7304
        47.5004         32.7504
   1571353.01347   1086273.73354  22560010.4844                   22560005.3164
        43.0004         27.2504
   1587303.94547   1371573.40954  22189460.4384                   22189458.7344
        44.5004         29.0004
   1566843.21247   1028071.54454  23198674.8444                   23198677.0124
        43.2504         26.5004
   1451570.94947   -700473.31554  22457955.6094                   22457952.9884
        42.0004         25.0004
   1558389.77347    743295.63256  20814519.1024                   20814520.6134
        46.0004         36.7504
                                  22497522.180
        40.000
   1555257.87147    801407.35243  22920108.5554                   22920112.8324
        46.5004         22.2504
 19  3  6 23 43  0.0000000  0  9G01G17G11G13G18G19G28G30G15
   1512277.63747    326776.65244  22561211.8594                   22561219.3244
        42.0004         27.5004
   1477098.01247   -992197.92854  21057770.5234                   21057771.4264
        45.2504         29.5004
   1570497.512 6                  22559847.961
        41.250
   1589821.96546   1373535.61753  22189940.2894                   22189941.5554
        41.5004         21.5004
   1564993.641 6                  23198322.211
        39.750
   1425119.805 6                  22452922.086
        40.500
   1554766.84447    740698.53955  20813829.4694                   20813830.4454
        44.5004         33.0004
   1610564.527 6                  22498852.875
        38.500
   1551100.26247    798167.58644  22919317.6564                   22919322.2274
        43.0004         24.5004
 19  3  6 23 43  5.0000000  0  9G01G17G11G13G18G19G28G30G15
   1500937.48047    317940.19544  22559054.4384                   22559060.8754
        44.0004         27.7504
   1460166.44548  -1005391.42645  21054548.0314                   21054551.1524
        48.0004         32.5004
   1569650.22347   1084998.84054  22559686.8984                   22559685.1294
        42.0004         25.5004
                                  22190420.9534                   22190423.6764
        43.5004         24.2504
   1563154.50846   1025255.27353  23197972.1564                   23197974.4064
        40.2504         20.7504
   1398671.36346   -740044.75454  22447889.0784                   22447887.6414
        41.5004         25.5004
                                  20813140.1174                   20813142.2814
        45.7504         33.7504
                                  22500182.8984                   22500186.1804
        39.2504         20.2504
   1546959.05547    794940.65244  22918529.3134                   22918534.5664
        45.7504         27.5004
 19  3  6 23 43 10.0000000  0  9G01G17G11G13G18G19G28G30G15
   1489617.49257    309119.34053  22556898.7194                   22556907.3444
        42.5004         22.7504
   1443248.09057  -1018574.67654  21051327.6254                   21051332.2774
        45.5004         28.2504
   1568818.73457   1084350.60553  22559527.8754                   22559529.0474
        42.0004         22.7504
   1594890.63357   1377485.28553  22190903.3914                   22190907.7274
        43.2504         23.2504
   1561333.36317                  23197625.188
        42.250
   1372231.36356   -760647.40654  22442857.3284                   22442857.8444
        40.5004         24.0004
   1547530.09457    735059.50055  20812451.8284                   20812454.5864
        45.7504         31.7504
   1624555.05156   1830319.02753  22501514.4534                   22501519.6484
        38.0004         20.0004
   1542826.60557    791720.49254  22917741.9144                   22917747.6954
        46.5004         28.0004
 19  3  6 23 43 15.0000000  0  9G01G17G11G13G18G19G28G30G15
   1478306.27347    300305.43444  22554747.2194                   22554754.6094
        44.0004         27.0004
   1426335.02047  -1031753.62544  21048109.6174                   21048115.0744
        46.5004         29.5004
   1567994.13347   1083708.14843  22559371.1564                   22559373.9924
        43.5004         22.7504
   1597434.24647   1379467.29743  22191387.6804                   22191391.9304
        43.2504         23.0004
   1559517.60247   1022874.57054  23197279.8204                   23197277.5704
        43.0004         26.0004
   1345793.02046   -781248.68043  22437826.8754                   22437827.8834
        40.7504         21.5004
   1543913.11747    732241.10945  20811763.8364                   20811767.1684
        46.5004         33.2504
   1631557.78546   1835775.78543  22502847.3054                   22502852.6994
        38.5004         20.2504
   1538699.07847    788504.27344  22916957.2584                   22916962.1254
        45.5004         24.0004
 19  3  6 23 43 20.0000000  0  9G01G17G11G13G18G19G28G30G15
   1467001.99247    291496.94544  22552596.5394                   22552604.1174
        43.7504         27.5004
   1409428.68447  -1044927.35945  21044893.4844                   21044897.5084
        47.7504         32.0004
   1567175.71947   1083070.42243  22559215.8834                   22559218.3594
        42.5004         22.2504
   1599988.44147   1381457.62544  22191874.2274                   22191878.3634
        43.2504         25.0004
   1557709.81646   1021465.86753  23196936.6644                   23196937.4224
        41.0004         21.7504
   1319357.35546   -801847.86743  22432796.7344                   22432797.8984
        41.5004         22.7504
   1540296.44947    729422.95745  20811075.9064                   20811079.4344
        45.7504         34.5004
   1638557.33246   1841229.98043  22504179.5084                   22504185.5044
        38.7504         19.7504
   1534586.95747    785300.05144  22916174.9454                   22916180.2384
        45.5004         25.2504
 19  3  6 23 43 25.0000000  0  9G01G17G11G13G18G19G28G30G15
   1455720.74247    282706.37944  22550449.9774                   22550456.6764
        43.7504         27.2504
   1392537.49247  -1058089.30945  21041678.4304                   21041682.0474
        47.5004         32.5004
   1566379.27747   1082449.84044  22559064.2974                   22559067.2344
        42.2504         24.5004
   1602557.01247   1383458.94944  22192363.4454                   22192367.6604
        43.0004         26.2504
   1555925.86747   1020075.78943  23196596.3204                   23196599.2894
        42.5004         21.5004
   1292930.59446   -822440.13344  22427767.6884                   22427769.0784
        41.5004         25.7504
   1536691.60947    726613.86345  20810390.3754                   20810393.8284
        46.0004         34.7504
   1645565.81346   1846691.12943  22505514.2194                   22505519.0594
        39.5004         19.7504
   1530494.08647    782110.82044  22915396.1414                   22915400.9264
        45.0004         26.7504
 19  3  6 23 43 30.0000000  0  9G01G17G11G13G18G19G28G30G15
   1444456.52047    273929.03944  22548305.8594                   22548313.8014
        43.5004         25.5004
   1375658.19147  -1071242.02045  21038466.9224                   21038470.3134
        47.7504         31.7504
   1565597.62147   1081840.74643  22558915.6414                   22558918.3164
        42.2504         22.5004
   1605137.66057   1385469.77054  22192854.3594                   22192858.6994
        43.7504         24.5004
   1554157.80546   1018698.06343  23196260.4844                   23196263.1214
        40.7504         22.0004
                                  22422740.1724                   22422742.8444
        42.0004         26.0004
   1533091.81357    723808.60255  20809705.2034                   20809709.5394
        45.5004         33.5004
   1652582.41846   1852158.62143  22506847.7194                   22506854.3794
        38.5004         20.0004
   1526414.86347    778932.19144  22914620.1254                   22914624.6414
        45.7504         28.2504
 19  3  6 23 43 35.0000000  0  7G17G11G13G18G19G28G30
                                  21035255.6724                   21035261.3954
        46.0004         28.5004
                                  22558768.1884                   22558771.4104
        42.5004         22.0004
                                  22193347.1804                   22193352.8204
        42.0004         22.2504
                                  23195925.4534                   23195929.3594
        42.7504         21.2504
                                  22417713.6334                   22417716.9534
        40.7504         22.5004
                                  20809019.8984                   20809025.1524
        45.5004         32.2504
                                  22508184.0314                   22508190.3444
        36.5004         19.0004
 19  3  6 23 43 40.0000000  0  9G01G17G11G13G18G19G28G30G15
   1421961.78557    256400.82053  22544025.7894                   22544034.7114
        44.0004         22.7504
   1341917.35947  -1097533.90644  21032046.2034                   21032052.5314
        47.5004         29.0004
   1564061.58947   1080643.74543  22558623.1174                   22558627.6254
        42.5004         21.5004
   1610321.94547   1389509.60243  22193840.8364                   22193846.4064
        43.2504         22.0004
   1550653.37947   1015967.25443  23195593.3674                   23195597.4454
        43.5004         19.7504
   1213681.85247   -884192.27143  22412687.1564                   22412689.6294
        42.0004         22.0004
   1525895.58947    718200.94445  20808336.0234                   20808342.7704
        46.7504         31.0004
   1666615.91846   1863093.46942  22509519.4614                   22509525.8674
        37.0004         17.7504
   1518285.69557    772597.68454  22913073.0394                   22913079.4884
        45.7504         24.0004
 19  3  6 23 43 45.0000000  0  9G01G17G11G13G18G19G28G30G15
   1410731.66447    247650.08243  22541888.2664                   22541896.4654
        44.5004         22.7504
   1325059.93448  -1110669.52044  21028838.3984                   21028844.0234
        48.2504         29.2504
   1563308.36747   1080056.84443  22558480.0784                   22558483.5394
        42.2504         21.2504
   1612927.35247   1391539.80543  22194336.4694                   22194341.0514
        43.7504         22.7504
   1548917.73446   1014614.80943  23195262.2584                   23195267.3594
        40.7504         19.2504
   1187272.50847   -904770.93743  22407661.2424                   22407663.9414
        42.5004         22.0004
   1522300.69947    715399.80145  20807651.7664                   20807656.4344
        45.7504         30.5004
   1673636.71146   1868564.19543  22510855.3444                   22510861.9534
        41.5004         20.0004
   1514238.43057    769443.98854  22912302.8284                   22912308.5234
        45.7504         24.5004
 19  3  6 23 43 50.0000000  0  9G01G17G11G13G18G19G28G30G15
   1399517.05547    238911.43443  22539753.9304                   22539763.1644
        44.0004         23.0004
   1308212.98048  -1123797.02345  21025632.3914                   21025637.1094
        48.0004         30.5004
   1562569.76247   1079481.28943  22558339.2894                   22558342.5314
        43.0004         21.5004
   1615544.23447   1393578.93043  22194834.4064                   22194839.1414
        43.5004         22.0004
   1547198.42946   1013275.07943  23194935.8284                   23194940.7154
        41.0004         19.0004
   1160868.05146   -925345.85543  22402636.8524                   22402639.1764
        41.5004         22.7504
   1518712.30557    712603.64855  20806969.2114                   20806972.6374
        46.2504         31.2504
   1680660.15246   1874037.05943  22512191.6094                   22512198.7114
        41.7504         21.7504
   1510207.30547    766302.85244  22911535.5164                   22911540.9264
        44.5004         24.0004
 19  3  6 23 43 55.0000000  0  8G01G17G11G13G18G28G30G15
                                  22537623.6484                   22537632.6684
        43.0004         22.2504
                                  21022428.9844                   21022435.8594
        47.0004         27.7504
                                  22558200.6094                   22558205.0314
        40.7504         22.0004
                                  22195334.4064                   22195338.9844
        42.2504         21.5004
                                  23194611.9454                   23194616.9964
        38.5004         18.5004
                                  20806287.1954                   20806291.4534
        44.7504         28.7504
                                  22513529.6094                   22513537.5594
        41.5004         22.0004
                                  22910770.9454                   22910777.0434
        45.2504         22.0004
 19  3  6 23 44  0.0000000  0  9G01G17G11G13G18G19G28G30G15
                                  22535494.3444                   22535504.7584
        43.5004         22.7504
   1274547.59447  -1150029.52744  21019225.1414                   21019230.9494
        47.5004         28.5004
                                  22558065.3834                   22558069.4264
        42.5004         21.0004
                                  22195834.1724                   22195840.3014
        43.2504         21.5004
                                  23194289.1724                   23194295.8634
        40.2504         17.7504
                                  22392589.7584                   22392592.1174
        42.0004         22.2504
                                  20805604.9774                   20805609.1334
        45.5004         29.7504
                                  22514868.3134                   22514875.3484
        39.5004         21.0004
                                  22910005.7974                   22910012.3094
        46.2504         24.0004
 19  3  6 23 44  5.0000000  0  9G01G17G11G13G18G19G28G30G15
                                  22533368.6644                   22533378.6134
        42.0004         21.5004
                                  21016023.2424                   21016029.2154
        49.0004         29.2504
   1560426.656 6                  22557930.922
        41.500
                                  22196335.4614                   22196341.5554
        43.7504         21.0004
                                  23193968.0634                   23193975.7114
        39.5004         17.7504
   1081674.77947   -985409.67543  22387566.6564                   22387568.7934
        43.5004         22.2504
                                  20804922.7114                   20804925.9384
        44.0004         29.7504
                                  22516206.4384                   22516214.7234
        40.7504         19.5004
                                  22909242.6484                   22909249.2544
        42.2504         23.0004
 19  3  6 23 44 10.0000000  0  9G01G17G11G13G18G19G28G30G15
   1354804.77347    204070.46544  22531245.3754                   22531252.5354
        43.2504         25.2504
   1240908.56647  -1176242.03145  21012824.7344                   21012826.7194
        47.5004         31.7504
   1559737.17647   1077360.03154  22557799.8594                   22557796.9534
        42.0004         25.7504
   1626079.36347   1401787.98843  22196839.0704                   22196842.7274
        43.5004         22.7504
   1540452.22346   1008018.24643  23193651.6174                   23193657.9574
        41.0004         19.5004
   1055287.18856  -1005971.43754  22382544.9454                   22382545.5594
        41.2504         24.2504
   1504388.19947    701442.23045  20804242.7814                   20804242.4344
        45.7504         34.0004
   1708800.45346   1895964.28543  22517546.1644                   22517553.4614
        38.2504         19.7504
   1494163.92247    753801.53944  22908482.0234                   22908485.7664
        46.5004         28.2504
 19  3  6 23 44 15.0000000  0  9G01G17G11G13G18G19G28G30G15
   1343658.11757    195384.84054  22529123.8284                   22529130.6294
        44.7504         27.5004
   1224108.69547  -1189332.73045  21009626.7274                   21009629.7544
        46.5004         31.5004
   1559053.56347   1076827.44954  22557669.9304                   22557669.8204
        44.0004         24.0004
   1628740.46756   1403861.55153  22197345.6804                   22197349.2544
        40.5004         22.5004
   1538792.18056   1006724.78953  23193335.7584                   23193341.5984
        41.7504         19.5004
   1028908.78156  -1026525.92253  22377525.5704                   22377526.1254
        36.7504         22.0004
   1500814.07047    698657.21945  20803561.7274                   20803563.3134
        46.5004         32.7504
   1715847.22356   1901455.36353  22518887.8204                   22518893.9574
        41.5004         20.2504
   1490183.41857    750699.88754  22907724.5554                   22907728.8094
        45.0004         24.5004
 19  3  6 23 44 20.0000000  0  9G01G17G11G13G18G19G28G30G15
   1332535.48857    186717.88354  22527008.1484                   22527011.8484
        43.7504         29.0004
   1207316.73848  -1202417.38345  21006433.3444                   21006432.4344
        48.0004         33.0004
   1558390.37557   1076310.44554  22557544.9384                   22557544.1454
        43.0004         25.5004
   1631400.98047   1405934.66043  22197852.9224                   22197854.8754
        43.7504         21.2504
   1537153.52057   1005447.90253  23193024.5394                   23193028.4774
        43.5004         21.5004
   1002530.19546  -1047080.72743  22372506.2894                   22372505.2734
        41.2504         22.0004
   1497246.68857    695877.23456  20802884.3284                   20802883.1214
        46.7504         36.0004
   1722904.47346   1906954.43844  22520231.3754                   22520235.1374
        41.5004         26.5004
   1486201.17648    747596.74644  22906967.7114                   22906969.1454
        48.0004         28.5004
 19  3  6 23 44 25.0000000  0  9G01G17G11G13G18G19G28G30G15
   1321423.69957    178059.38754  22524893.2114                   22524898.6294
        43.5004         28.2504
                                  21003237.6094                   21003239.3524
        48.0004         31.7504
                                  22557420.6564                   22557420.4064
        42.2504         21.7504
                                  22198358.8984                   22198361.2544
        43.5004         22.0004
                                  23192714.2194                   23192717.9924
        41.0004         21.0004
                                  22367486.0944                   22367486.2584
        42.5004         21.7504
                                  20802205.4384                   20802205.8984
        46.7504         33.0004
                                  22521573.813
        40.250
                                  22906210.6484                   22906213.1804
        46.2504         28.0004
 19  3  6 23 44 30.0000000  0  9G01G17G11G13G18G19G28G30G15
   1310324.59047    169410.66444  22522781.3754                   22522786.3134
        43.0004         26.0004
   1173751.68448  -1228571.99245  21000046.1804                   21000046.2664
        48.7504         34.7504
                                  22557298.1414                   22557298.9264
        41.5004         22.7504
                                  22198869.9924                   22198870.4064
        44.5004         26.7504
                                  23192408.0554                   23192410.0164
        40.0004         21.2504
                                  22362468.8284                   22362467.1994
        43.2504         28.0004
                                  20801527.7504                   20801527.2274
        45.5004         35.7504
                                  22522917.6024                   22522919.1764
        39.2504         22.0004
   1478269.12547    741415.96944  22905458.5634                   22905459.8164
        46.7504         29.7504
 19  3  6 23 44 35.0000000  0  2G19G30
                                  22357452.1024                   22357457.0634
        45.5004         25.2504
                                  22524262.727
        41.750
 19  3  6 23 44 40.0000000  0  2G11G15
                                  22557061.719
        41.500
                                  22903960.5394                   22903958.4804
        42.5004         25.7504
 19  3  6 23 44 45.0000000  0  8G01G17G11G18G19G28G30G15
                                  22516461.102
        42.750
   1124834.43457  -1255656.96356  20990479.6884                   20990483.0274
        47.5004         38.0004
                                  22556944.469
        41.250
   1529054.71916                  23191501.031
        40.000
    870715.83657  -1143222.83654  22347419.6484                   22347420.4804
        42.0004         28.0004
   1479101.57857    683393.32356  20799498.0394                   20799499.2504
        45.2504         36.7504
   1758218.53116                  22526951.359
        37.750
   1566940.75057    734626.72655  22903216.2974                   22903216.9654
        46.2504         32.7504
 19  3  6 23 44 50.0000000  0  9G01G17G11G13G18G19G28G30G15
   1555507.82657    156576.75254  22514357.4224                   22514359.4494
        44.5004         28.2504
   1108092.37547  -1268702.78955  20987294.0634                   20987294.3134
        47.0004         32.7504
   1573773.21517                  22556830.203
        42.000
                                  22200930.7114                   22200929.4534
        43.0004         27.5004
   1527480.18056   1001486.51553  23191201.7974                   23191201.0864
        39.0004         20.7504
                                  22342405.625
        41.250
   1475545.92257    680622.62555  20798822.1804                   20798821.6884
        45.7504         34.5004
                                  22528294.633
        39.000
   1563042.16457    731588.85954  22902473.9924                   22902475.0164
        43.5004         26.5004
 19  3  6 23 44 55.0000000  0  9G01G17G11G13G18G19G28G30G15
   1544470.08647    147975.92644  22512257.3674                   22512260.5124
        43.0004         25.7504
   1091359.32848  -1281741.53145  20984109.7584                   20984109.8984
        48.0004         34.2504
   1573182.59447   1074002.11353  22556717.3594                   22556716.5004
        42.0004         22.2504
   1586751.17247   1417972.50844  22201448.2114                   22201449.0274
        45.2504         29.0004
   1525923.34846   1000273.37143  23190904.9614                   23190905.0554
        40.7504         19.5004
    818016.09447  -1182644.57054  22337390.8594                   22337390.5004
        42.5004         29.0004
   1471995.65247    677856.19145  20798146.4454                   20798145.5944
        46.0004         34.5004
   1772350.859 6                  22529640.617
        36.500
   1559147.80147    728554.28144  22901733.1884                   22901734.0274
        47.0004         27.7504
 19  3  6 23 45  0.0000000  0  9G01G17G11G13G18G19G28G30G15
   1533441.05547    139381.83244  22510158.5784                   22510161.8834
        43.2504         25.2504
   1074637.32848  -1294771.67245  20980928.0084                   20980927.8204
        48.5004         34.2504
   1572597.26246   1073546.01643  22556605.8134                   22556605.7384
        41.2504         22.5004
   1589491.03947   1420107.45344  22201970.3914                   22201970.4454
        45.0004         29.0004
   1524371.85547    999064.45343  23190609.5554                   23190610.3794
        42.0004         19.7504
    791677.48447  -1203168.18444  22332379.2734                   22332377.9494
        43.0004         29.7504
   1468445.53147    675089.84445  20797470.8284                   20797470.2934
        46.2504         35.0004
   1779426.84846   1924137.82853  22530986.7344                   22530988.4024
        40.7504         22.0004
   1555265.46547    725529.04344  22900994.8524                   22900995.2934
        47.2504         29.0004
 19  3  6 23 45  5.0000000  0  4G01G17G28G15
                                  22508059.328
        40.750
                                  20977746.0164                   20977751.3134
        47.7504         33.0004
                                  20796793.6174                   20796797.1844
        45.2504         26.5004
                                  22900256.078
        45.000
 19  3  6 23 45 15.0000000  0  8G01G17G11G13G19G28G30G15
   1569701.24216                  22503869.281
        39.500
   1562065.02758  -1320810.47556  20971389.9534                   20971386.3444
        48.5004         36.0004
   1575103.94116                  22556275.430
        39.000
   1577301.35257   1424691.72755  22203543.1334                   22203543.6564
        45.5004         30.2504
   1560682.46157  -1241792.84755  22317349.4774                   22317346.9104
        43.5004         33.5004
   1573056.13757    669332.78156  20795440.9534                   20795440.7934
        44.2504         36.5004
   1578823.71116                  22535030.625
        40.000
   1572633.57857    719721.77755  22898784.9064                   22898785.7194
        45.5004         31.2504
 19  3  6 23 45 20.0000000  0  8G01G17G11G13G19G28G30G15
   1558719.55116                  22501778.945
        38.750
   1545386.89148  -1333806.39155  20968216.3444                   20968217.0474
        48.7504         34.2504
   1574551.92647   1073145.76253  22556170.0634                   22556169.3984
        42.0004         20.5004
   1580084.00047   1426860.01654  22204072.4534                   22204074.1644
        46.7504         28.0004
   1534376.80947  -1262290.70354  22312344.0864                   22312343.0554
        44.0004         29.7504
   1569513.51647    666572.36355  20794766.6564                   20794766.9844
        46.0004         32.5004
   1585926.746 6                  22536382.742
        41.500
   1568790.58247    716727.26254  22898053.4774                   22898055.9574
        46.7504         29.5004
 19  3  6 23 45 25.0000000  0  7G17G11G18G19G28G30G15
                                  20965045.547
        45.500
                                  22556068.188
        39.000
                                  23189152.406
        33.000
                                  22307341.1954                   22307340.2584
        41.5004         28.7504
                                  20794094.1644                   20794094.2734
        43.7504         32.0004
                                  22537736.6024                   22537741.5084
        37.7504         22.7504
                                  22897325.5704                   22897328.0704
        43.0004         28.5004
 19  3  6 23 45 30.0000000  0  9G01G17G11G13G18G19G28G30G15
   1566212.57016                  22497608.891
        40.250
   1560767.66458  -1352495.53555  20961876.7814                   20961875.8324
        49.0004         34.5004
   1573489.89116                  22555967.164
        41.000
   1577770.94557   1430237.28754  22205139.6954                   22205138.3524
        46.0004         28.5004
                                  23188868.563
        37.500
   1550188.26657  -1292611.75955  22302337.6724                   22302335.3794
        44.5004         30.0004
   1562441.66057    661061.63755  20793421.7814                   20793423.4884
        46.5004         32.7504
   1600166.53956   1944273.20753  22539090.8914                   22539097.0744
        41.7504         23.0004
   1561143.69957    711006.16454  22896598.8444                   22896601.2074
        46.5004         28.7504
 19  3  6 23 45 35.0000000  0  9G01G17G11G13G18G19G28G30G15
   1555282.55156    121927.57453  22495528.6254                   22495535.6134
        38.0004         20.2504
                                  20958710.4384                   20958711.6804
        48.5004         35.0004
   1572981.12156   1072166.36753  22555870.7584                   22555869.1914
        41.5004         21.0004
                                  22205675.7424                   22205677.1054
        46.0004         28.0004
                                  23188588.695
        38.750
   1523908.26657  -1313089.71554  22297337.3984                   22297337.5044
        43.5004         28.7504
   1558917.05957    658315.10955  20792751.1954                   20792753.0474
        46.0004         33.0004
   1607293.16856   1949826.17653  22540446.7114                   22540453.9104
        40.0004         21.5004
   1557339.44157    708278.81455  22895874.8054                   22895877.5274
        46.5004         30.7504
 19  3  6 23 45 40.0000000  0  9G01G17G11G13G18G19G28G30G15
   1544364.87546    113420.32043  22493451.6484                   22493457.1334
        37.5004         19.5004
   1527496.69548  -1378420.81245  20955545.2344                   20955543.6884
        48.0004         32.0004
   1572482.15646   1071777.54343  22555775.3914                   22555774.3874
        38.7504         20.0004
   1583413.49247   1434634.01644  22206213.1804                   22206212.2304
        47.0004         27.7504
   1571293.22746    997369.18453  23188310.6024                   23188309.2854
        38.0004         20.0004
   1497631.66447  -1333564.98844  22292336.5634                   22292334.6054
        43.5004         27.7504
   1555395.23857    655570.73054  20792081.1334                   20792081.1094
        43.7504         27.0004
   1614423.86746   1955382.60243  22541803.9454                   22541809.2504
        37.2504         19.7504
   1553543.04747    705320.58245  22895152.3284                   22895151.8874
        46.7504         31.5004
 19  3  6 23 45 45.0000000  0  9G01G17G11G13G18G19G28G30G15
   1533459.28916                  22491376.656
        40.250
   1510875.31658  -1390336.38956  20952382.7814                   20952379.3794
        48.7504         36.5004
   1571990.98417                  22555682.133
        42.750
   1586249.91457   1436667.19555  22206753.2664                   22206745.1644
        46.0004         32.7504
   1569838.62556    996235.75852  23188034.6804                   23188033.3134
        38.2504         17.2504
   1471363.75057  -1352396.46655  22287339.4844                   22287330.0004
        43.5004         32.0004
   1551874.38357    653155.13955  20791411.2894                   20791401.9414
        45.7504         34.5004
   1621561.01617                  22543162.500
        42.000
   1549758.28157    702725.37655  22894432.5634                   22894424.6884
        46.2504         35.5004
 19  3  6 23 45 55.0000000  0  9G01G17G11G13G18G19G28G30G15
   1566289.41016                  22487235.008
        39.250
   1477663.42657  -1414662.33755  20946061.8444                   20946060.0664
        46.2504         33.7504
   1575034.58216                  22555503.430
        36.250
                                  22207837.0704                   22207835.2464
        45.5004         23.0004
   1566992.70316                  23187490.281
        39.000
   1418837.18057  -1391689.73053  22277343.4844                   22277340.0044
        42.0004         22.5004
   1544853.26657    647902.32054  20790075.1884                   20790072.7034
        43.7504         28.0004
   1635843.12116                  22545879.492
        40.000
                                  22892999.6884                   22893000.2814
        45.7504         27.0004
 19  3  6 23 46  0.0000000  0  1G28
                                  20789412.375
        38.500
 19  3  6 23 46  5.0000000  0  8G01G17G11G13G19G28G30G15
                                  22483110.1094                   22483110.2774
        41.5004         27.7504
                                  20939752.9224                   20939751.5514
        49.5004         37.0004
                                  22555339.734
        40.000
                                  22208933.203
        47.000
                                  22267316.336
        43.500
                                  20788745.6254                   20788745.8014
        45.2504         32.5004
   1650169.28756   1965189.16854  22548604.5004                   22548607.8444
        41.5004         26.0004
                                  22891579.2584                   22891578.0824
        46.0004         31.7504
 19  3  6 23 46 10.0000000  0  8G01G17G11G13G19G28G30G15
   1545106.41846     98205.91043  22481052.0634                   22481053.5864
        40.5004         22.0004
   1533574.51248  -1432887.48846  20936601.1254                   20936599.5784
        48.5004         37.0004
   1574696.64546   1071636.37553  22555262.7344                   22555261.6604
        37.0004         19.5004
   1582122.73847   1443351.19154  22209483.1414                   22209481.8834
        46.5004         26.0004
                                  22262280.906
        41.500
   1534387.45347    639964.91845  20788083.5234                   20788081.3984
        45.2504         31.2504
   1657342.48047   1970778.66844  22549970.0634                   22549972.0204
        42.0004         24.2504
   1568688.14847    691430.86745  22890872.3984                   22890870.9384
        46.7504         30.2504
 19  3  6 23 46 15.0000000  0  9G01G17G11G13G18G19G28G30G15
   1534307.47346     89791.16443  22478996.7504                   22478999.4264
        41.0004         22.0004
   1517017.67648  -1445788.91045  20933449.0554                   20933448.9454
        48.2504         35.7504
   1574301.36756   1071328.35552  22555185.7584                   22555187.3954
        36.0004         17.2504
   1585018.16047   1445607.35944  22210032.1024                   22210032.7854
        45.0004         24.0004
                                  23186445.156
        35.000
   1313284.46957  -1420396.76255  22257370.3284                   22257367.6214
        44.7504         31.7504
   1530906.38347    637252.37545  20787419.6254                   20787418.2074
        45.5004         32.0004
   1664511.22747   1976364.66844  22551332.9064                   22551336.1994
        42.7504         25.5004
   1564982.81647    688543.59844  22890165.6884                   22890166.2814
        45.2504         28.5004
 19  3  6 23 46 20.0000000  0  7G01G17G13G19G28G30G15
   1523529.64845     81392.85943  22476947.0944                   22476949.4654
        33.0004         22.0004
   1500467.66346  -1458684.98945  20930300.7504                   20930301.5594
        40.0004         33.5004
   1587915.83646   1447865.25043  22210585.1094                   22210585.3754
        37.2504         22.5004
                                  22252379.5864                   22252377.3404
        37.0004         25.7504
   1527432.03546    634545.14144  20786759.8834                   20786758.8324
        37.2504         28.2504
   1671683.38745   1981953.39543  22552698.4384                   22552702.2154
        32.2504         23.2504
   1561284.03846    685661.44144  22889463.6414                   22889464.5004
        38.5004         26.2504
 19  3  6 23 46 25.0000000  0  1G01
                                  22474895.922
        37.500
 19  3  6 23 46 30.0000000  0  9G01G17G11G13G18G19G28G30G15
                                  22472850.883
        41.000
   1467410.93458  -1471049.49656  20924009.7194                   20924012.6764
        49.2504         38.0004
                                  22554977.289
        38.750
                                  22211696.3984                   22211699.1564
        46.0004         25.0004
                                  23185694.016
        39.000
                                  22242400.5474                   22242400.0864
        45.5004         32.7504
                                  20785438.6644                   20785437.7814
        45.2504         32.0004
                                  22555432.6174                   22555437.0084
        43.5004         26.5004
                                  22888064.0784                   22888066.5984
        46.0004         28.5004
 19  3  6 23 46 35.0000000  0  9G01G17G11G13G18G19G28G30G15
   1491285.18447     75033.32453  22470810.8054                   22470817.9884
        42.0004         21.5004
   1450890.30948  -1483922.44945  20920866.4844                   20920867.6644
        50.2504         35.5004
                                  22554915.711
        40.000
   1596682.887 7                  22212253.617
        45.500
   1568308.348 6                  23185452.367
        39.000
   1208391.84047  -1499679.70745  22237411.5944                   22237410.5234
        45.5004         30.0004
   1517037.41847    626878.17245  20784782.0234                   20784781.9614
        45.7504         31.0004
   1693240.17647   1993150.77744  22556800.3364                   22556804.3954
        45.2504         29.5004
   1550275.37147    677083.42643  22887367.9924                   22887372.3794
        43.5004         22.0004
 19  3  6 23 46 40.0000000  0  9G01G17G11G13G18G19G28G30G15
   1480584.21547     66694.90643  22468774.1484                   22468779.7774
        42.0004         22.0004
   1434395.72348  -1496775.40246  20917727.4304                   20917726.8444
        49.0004         36.2504
   1572566.828 6                  22554856.438
        38.750
   1599636.23847   1452348.87553  22212814.9774                   22212816.3094
        45.5004         22.0004
   1567056.590 6                  23185213.422
        36.500
   1182194.19547  -1520093.46545  22232426.2664                   22232424.2464
        44.0004         30.0004
   1513597.41447    624197.69945  20784127.0944                   20784126.2624
        46.2504         31.0004
   1700443.09846   1998763.41043  22558170.3754                   22558173.5354
        41.5004         22.7504
   1546645.54347    674255.02744  22886677.2664                   22886679.2304
        46.0004         28.2504
 19  3  6 23 46 45.0000000  0  9G01G17G11G13G18G19G28G30G15
   1469887.40246     58359.68443  22466738.9064                   22466743.5984
        41.2504         21.5004
   1417901.08648  -1509628.42245  20914588.6254                   20914588.3364
        48.2504         35.5004
   1572260.46946   1070890.44153  22554798.6094                   22554792.8984
        38.5004         19.5004
   1602586.85547   1454647.94944  22213376.9144                   22213377.7664
        45.5004         24.5004
   1565805.656 6                  23184975.766
        39.250
   1155991.99247  -1540510.80144  22227439.4774                   22227438.0394
        44.5004         27.5004
   1510150.60547    621511.78145  20783470.9614                   20783469.7034
        45.5004         31.0004
   1707641.59446   2004372.48843  22559540.5234                   22559543.6804
        41.0004         22.5004
   1543012.79347    671424.27044  22885985.6094                   22885986.7934
        47.0004         29.7504
 19  3  6 23 46 50.0000000  0  9G01G17G11G13G18G19G28G30G15
   1459192.75046     50026.23443  22464703.3134                   22464707.6724
        41.0004         22.0004
   1401395.79748  -1522489.64546  20911447.7034                   20911447.5824
        49.5004         37.7504
   1571954.79346   1070652.32043  22554740.4144                   22554736.3954
        41.0004         19.7504
   1605523.99647   1456936.67244  22213935.7344                   22213936.4494
        45.7504         25.7504
   1564557.531 6                  23184738.758
        37.000
   1129772.57047  -1560941.47745  22222450.7814                   22222449.0514
        45.7504         32.2504
   1506691.97747    618816.80145  20782812.7194                   20782811.4614
        45.5004         32.5004
   1714825.44957   2009970.20754  22560907.8204                   22560910.7424
        42.0004         27.0004
   1539371.37547    668586.84444  22885293.1414                   22885294.0434
        47.0004         27.5004
 19  3  6 23 46 55.0000000  0  9G01G17G11G13G18G19G28G30G15
   1448506.88346     41699.59843  22462670.1024                   22462674.2664
        40.7504         22.0004
   1384901.43048  -1535342.38746  20908309.3594                   20908308.5634
        49.5004         37.5004
   1571654.44946   1070418.29343  22554683.8444                   22554680.0474
        40.5004         18.5004
   1608473.52347   1459235.01644  22214497.0634                   22214497.5004
        46.5004         26.2504
   1563314.93815                  23184501.273
        35.500
   1103562.18447  -1581365.13745  22217462.1174                   22217460.9574
        45.5004         30.5004
   1503233.96947    616122.25445  20782154.9454                   20782153.5704
        46.0004         33.0004
   1722014.32847   2015571.94944  22562275.8914                   22562279.0394
        42.2504         25.7504
   1535742.19147    665758.93444  22884602.9064                   22884603.0824
        46.5004         28.5004
 19  3  6 23 47  0.0000000  0  9G01G17G11G13G18G19G28G30G15
   1437841.78546     33389.15243  22460640.1804                   22460644.2034
        40.0004         21.0004
   1368415.97748  -1548188.17245  20905171.9224                   20905171.8244
        48.5004         35.0004
   1571373.28546   1070199.16443  22554629.3284                   22554626.8634
        39.2504         18.5004
   1611429.43447   1461538.34044  22215059.9694                   22215060.3204
        47.0004         24.5004
   1562093.660 5                  23184270.117
        31.000
   1077354.28947  -1601786.84444  22212476.0704                   22212473.3754
        44.5004         29.2504
   1499783.26647    613433.43045  20781498.2114                   20781496.6374
        46.0004         30.2504
   1729207.57046   2021177.06343  22563644.6484                   22563647.8164
        37.0004         22.0004
   1532124.18047    662939.71144  22883913.8054                   22883914.3404
        47.2504         29.5004
 19  3  6 23 47  5.0000000  0  9G01G17G11G13G18G19G28G30G15
   1427195.11746     25093.00843  22458614.6644                   22458617.8054
        41.7504         23.7504
   1351946.46948  -1561021.56246  20902037.8834                   20902037.7344
        49.2504         38.0004
   1571107.73046   1069992.25843  22554579.6804                   22554577.0004
        38.2504         18.2504
   1614401.18847   1463853.96144  22215625.2734                   22215625.4804
        46.5004         26.5004
   1560889.62514                  23184040.359
        28.500
   1051158.62547  -1622199.05145  22207491.1024                   22207488.8874
        46.5004         31.7504
   1496341.32847    610751.36745  20780843.4694                   20780841.9384
        46.0004         33.2504
   1736410.47346   2026789.73444  22565014.9924                   22565018.2034
        40.0004         24.5004
   1528523.63347    660134.05944  22883228.8134                   22883229.3284
        46.0004         29.5004
 19  3  6 23 47 10.0000000  0  9G01G17G11G13G18G19G28G30G15
   1416569.30546     16813.17243  22456592.6334                   22456595.9694
        40.7504         22.5004
   1335500.21948  -1573836.83246  20898908.5944                   20898907.5554
        49.7504         37.0004
   1570859.82446   1069799.10242  22554531.6484                   22554529.9804
        37.5004         17.7504
   1617398.34847   1466189.40644  22216194.7894                   22216195.8324
        45.2504         24.0004
   1559703.32015                  23183813.813
        35.750
   1024984.60547  -1642594.40245  22202510.1804                   22202507.7734
        46.7504         30.2504
   1492912.29347    608079.39145  20780190.1804                   20780189.6134
        46.0004         32.2504
   1743629.89846   2032415.25044  22566388.6254                   22566391.7034
        40.7504         25.7504
   1524948.93447    657348.57444  22882548.0394                   22882548.9104
        45.2504         28.2504
 19  3  6 23 47 15.0000000  0  9G01G17G11G13G18G19G28G30G15
   1405968.48846      8552.70743  22454574.5394                   22454580.1954
        40.5004         22.2504
   1319078.08648  -1586633.36345  20895782.6334                   20895786.8874
        48.0004         34.2504
   1570633.71146   1069622.80943  22554488.0234                   22554488.2814
        39.7504         19.5004
   1620420.17247   1468544.02043  22216769.9224                   22216772.1524
        44.2504         22.5004
   1558539.043 5                  23183592.016
        35.000
    998832.11847  -1662973.02044  22197532.4774                   22197532.7114
        45.0004         27.2504
   1489498.76247    605419.43445  20779540.8444                   20779542.4884
        44.5004         30.0004
   1750867.72846   2038055.09344  22567765.3594                   22567770.4064
        40.5004         24.0004
   1521399.58247    654582.77744  22881872.0944                   22881875.0434
        45.5004         25.7504
 19  3  6 23 47 20.0000000  0  9G01G17G11G13G18G19G28G30G15
   1395388.84046       308.74243  22452561.1884                   22452568.1954
        41.5004         22.0004
   1302669.98848  -1599418.98446  20892659.5704                   20892665.8444
        48.7504         36.0004
   1570426.05946   1069460.96143  22554448.1254                   22554449.6684
        39.7504         18.5004
   1623453.82047   1470907.80144  22217346.0944                   22217350.1024
        43.5004         24.0004
   1557394.277 6                  23183373.219
        41.250
    972688.59847  -1683344.68744  22192557.7894                   22192559.5274
        45.2504         29.7504
   1486094.48447    602766.65645  20778892.0474                   20778895.3054
        45.5004         32.0004
   1758115.27047   2043702.35545  22569144.6884                   22569150.5594
        46.2504         30.0004
   1517864.12947    651827.79344  22881199.3914                   22881203.4184
        45.0004         25.0004
 19  3  6 23 47 25.0000000  0  9G01G17G11G13G18G19G28G30G15
   1384825.65647     -7922.29743  22450550.5394                   22450558.3364
        42.0004         22.7504
   1286272.08248  -1612196.55945  20889538.9534                   20889544.0164
        48.5004         35.5004
   1570232.36346   1069310.00843  22554410.9144                   22554413.1644
        40.5004         20.0004
   1626496.16447   1473278.48043  22217925.3204                   22217929.4774
        43.5004         22.0004
   1556264.73246    995102.16353  23183158.7664                   23183155.3984
        39.7504         21.7504
    946550.59447  -1703711.94544  22187583.3674                   22187585.7974
        45.2504         29.0004
   1482695.36347    600118.00445  20778244.8914                   20778248.7344
        45.5004         30.7504
   1765367.78546   2049353.52744  22570523.9694                   22570531.9104
        38.0004         28.0004
   1514339.87547    649081.62944  22880528.5234                   22880533.5004
        45.5004         24.7504
 19  3  6 23 47 30.0000000  0  9G01G17G11G13G18G19G28G30G15
   1374277.33247    -16141.64544  22448544.1564                   22448552.5664
        42.7504         24.2504
   1269888.25448  -1624963.03546  20886422.4774                   20886426.8324
        49.5004         37.0004
   1570049.98846   1069168.18043  22554377.4844                   22554378.9144
        40.2504         19.7504
   1629551.30947   1475659.24643  22218507.8914                   22218511.3954
        44.7504         22.7504
   1555145.68846    994230.21543  23182946.7034                   23182943.5634
        38.5004         20.2504
    920423.91847  -1724070.27745  22182613.5164                   22182614.8284
        46.2504         30.0004
   1479301.23447    597473.34445  20777599.9694                   20777603.1094
        45.5004         31.7504
   1772630.99647   2055013.66045  22571907.6724                   22571914.6644
        45.5004         31.2504
   1510826.91447    646344.39144  22879861.3204                   22879865.6254
        45.0004         27.0004
 19  3  6 23 47 35.0000000  0  9G01G17G11G13G18G19G28G30G15
   1363741.35247    -24351.45744  22446539.7194                   22446546.3834
        43.5004         28.2504
   1253514.39548  -1637721.87146  20883307.0704                   20883309.7344
        50.0004         38.7504
   1569875.90256   1069032.36353  22554344.5944                   22554346.3984
        41.5004         22.0004
   1632616.05547   1478047.35543  22219091.6724                   22219094.5354
        44.0004         22.5004
   1554036.75046    993366.18043  23182735.7194                   23182734.1334
        41.0004         20.0004
    894303.79347  -1744423.58245  22177642.4774                   22177644.3484
        43.7504         31.2504
   1475909.52747    594830.48045  20776954.6954                   20776955.6844
        46.5004         35.0004
   1779898.35957   2060676.42654  22573290.2344                   22573296.8674
        43.0004         28.0004
   1507324.81647    643615.49644  22879194.8594                   22879198.8444
        43.5004         27.2504
 19  3  6 23 47 40.0000000  0  9G01G17G11G13G18G19G28G30G15
   1353229.00857    -32542.93055  22444539.4924                   22444544.8794
        44.5004         30.5004
   1237148.16158  -1650474.80156  20880192.1174                   20880196.3404
        48.5004         36.0004
   1569723.24256   1068913.43053  22554315.0704                   22554317.3094
        41.7504         22.2504
   1635681.55357   1480436.02053  22219674.6724                   22219677.9494
        42.0004         22.0004
   1552949.96156    992519.32453  23182529.4304                   23182529.2854
        39.2504         20.7504
    868183.71557  -1764776.90254  22172671.8134                   22172673.1334
        42.2504         28.5004
   1472525.32057    592193.40455  20776310.1724                   20776313.2194
        45.7504         33.0004
   1787171.39157   2066343.55454  22574674.4844                   22574681.0314
        42.5004         28.0004
   1503825.74657    640888.92653  22878528.8674                   22878532.1094
        43.2504         22.7504
 19  3  6 23 47 45.0000000  0  9G01G17G11G13G18G19G28G30G15
   1342732.44947    -40722.13744  22442541.6094                   22442547.0314
        45.0004         29.0004
   1220783.41448  -1663226.63346  20877077.7894                   20877079.8984
        49.0004         37.5004
   1569585.84447   1068806.27043  22554289.7894                   22554291.7304
        43.0004         22.7504
   1638746.87947   1482824.51643  22220257.6414                   22220260.7424
        43.2504         21.0004
   1551881.66446    991686.78943  23182326.1174                   23182326.8444
        39.7504         20.0004
    842057.78147  -1785134.84044  22167700.3204                   22167701.0904
        44.0004         28.7504
   1469143.20747    589557.91445  20775667.1174                   20775668.3244
        46.5004         33.0004
   1794440.49647   2072007.75445  22576058.1564                   22576063.5204
        45.2504         30.0004
   1500334.39847    638168.29743  22877864.7344                   22877867.9264
        44.0004         22.0004
 19  3  6 23 47 50.0000000  0  9G01G17G11G13G18G19G28G30G15
   1332243.79747    -48895.07445  22440545.3674                   22440549.9964
        45.2504         31.0004
   1204420.89548  -1675976.60946  20873964.5234                   20873965.3014
        48.7504         36.2504
   1569451.80147   1068701.84444  22554263.8754                   22554265.0514
        43.5004         24.2504
   1641809.82046   1485211.23443  22220840.5164                   22220843.5824
        41.7504         19.7504
   1550816.34447    990856.74243  23182123.0784                   23182123.9494
        42.0004         20.5004
    815929.93847  -1805494.16844  22162728.6724                   22162728.5514
        43.0004         25.2504
   1465756.28147    586918.79345  20775022.4064                   20775022.0664
        47.0004         33.2504
   1801710.80947   2077672.92244  22577441.3524                   22577445.7074
        44.2504         27.0004
   1496838.32047    635444.13743  22877199.1334                   22877202.0634
        43.7504         22.0004
 19  3  6 23 47 55.0000000  0  9G01G17G11G13G18G19G28G30G15
   1321767.86747    -57058.14545  22438552.6804                   22438556.2384
        46.5004         33.2504
   1188062.19148  -1688723.68446  20870852.3054                   20870852.0354
        48.7504         37.2504
   1569328.69547   1068605.89544  22554240.8754                   22554241.1764
        43.7504         27.5004
   1644875.39847   1487599.97743  22221424.6094                   22221426.3404
        42.2504         20.0004
   1549763.96946    990036.66043  23181922.8834                   23181924.5864
        40.5004         20.7504
    789800.70347  -1825854.60244  22157756.2274                   22157754.9024
        43.7504         29.0004
   1462369.78547    584279.93045  20774379.1954                   20774377.6254
        47.2504         35.0004
   1808979.41047   2083336.76645  22578825.2274                   22578827.5084
        45.2504         32.7504
   1493349.42647    632725.48043  22876535.4774                   22876538.0084
        42.2504         21.5004
 19  3  6 23 48  0.0000000  0  9G01G17G11G13G18G19G28G30G15
   1311301.44947    -65213.82845  22436560.0704                   22436566.0434
        46.0004         31.0004
   1171701.19948  -1701472.54345  20867737.9304                   20867740.8634
        48.2504         34.2504
   1569212.73847   1068515.50044  22554218.1884                   22554219.7544
        45.0004         27.7504
   1647934.84846   1489983.92643  22222005.7584                   22222009.5274
        40.5004         19.2504
   1548720.18847    989223.24243  23181723.7344                   23181726.1214
        44.2504         22.2504
    763663.03946  -1846221.68043  22152781.8754                   22152782.2424
        40.7504         23.0004
   1458978.80147    581637.55945  20773732.5314                   20773733.7934
        47.7504         33.2504
   1816242.57847   2088996.30544  22580206.3364                   22580211.4384
        42.7504         26.2504
   1489857.418 6                  22875870.617
        39.250
 19  3  6 23 48  5.0000000  0  9G01G17G11G13G18G19G28G30G15
                                  22434571.7734                   22434577.8054
        46.0004         26.5004
                                  20864626.2034                   20864629.4924
        48.7504         32.5004
                                  22554198.5234                   22554200.0234
        44.2504         23.2504
                                  22222590.0704                   22222593.4574
        42.0004         18.5004
                                  23181528.6884                   23181531.2274
        41.2504         21.5004
                                  22147808.5704                   22147808.6604
        43.0004         23.2504
                                  20773088.7974                   20773090.6134
        47.0004         31.7504
                                  22581588.0234                   22581594.3364
        43.7504         26.5004
                                  22875208.836
        42.250
 19  3  6 23 48 10.0000000  0  9G01G17G11G13G18G19G28G30G15
   1290401.66047    -81499.09445  22432584.0234                   22432588.7584
        46.5004         31.7504
   1139005.10248  -1726949.98445  20861516.5234                   20861517.7584
        48.0004         35.0004
   1569010.15247   1068357.64844  22554179.5084                   22554180.6604
        43.7504         27.2504
   1654089.68446   1494779.93843  22223177.6804                   22223180.3714
        41.7504         19.0004
   1546669.76247    987625.58643  23181334.6564                   23181336.5904
        42.2504         21.7504
    711401.58647  -1886944.84444  22142837.3754                   22142836.6254
        42.5004         24.5004
   1452205.35947    576359.60545  20772444.6414                   20772444.2624
        47.5004         34.5004
   1830761.19147   2100309.59444  22582969.5164                   22582974.3164
        42.2504         26.7504
   1482929.25847    629472.94954  22874552.5314                   22874548.5594
        43.0004         27.0004
 19  3  6 23 48 15.0000000  0  9G01G17G11G13G18G19G28G30G15
   1279972.50847    -89625.73845  22430598.6484                   22430603.4454
        46.5004         31.7504
   1122675.73448  -1739674.15245  20858409.4144                   20858410.2584
        48.5004         35.5004
   1568928.30547   1068293.89844  22554164.3284                   22554165.2544
        43.5004         29.0004
   1657190.83646   1497196.41443  22223767.9304                   22223770.6254
        41.7504         18.5004
   1545667.54746    986844.63743  23181143.2734                   23181145.8984
        41.7504         22.5004
    685284.44947  -1907295.83644  22137867.3204                   22137866.4534
        43.0004         26.2504
   1448827.64547    573727.61345  20771801.5084                   20771801.6484
        47.0004         34.7504
   1838023.44147   2105968.46144  22584351.4614                   22584355.9414
        42.0004         27.5004
   1479497.977 7                  22873899.625
        43.000
 19  3  6 23 48 20.0000000  0  9G01G17G11G13G18G19G28G30G15
   1269555.75047    -97742.68045  22428616.9694                   22428621.0274
        46.5004         32.2504
   1106353.92648  -1752392.44545  20855302.9534                   20855304.5744
        48.0004         35.2504
   1568856.26647   1068237.76644  22554151.1174                   22554151.8364
        43.7504         28.0004
   1660298.83246   1499618.21542  22224359.4694                   22224362.1454
        41.7504         17.2504
   1544676.50847    986072.41843  23180954.9844                   23180957.4414
        42.0004         22.0004
    659170.73447  -1927644.16844  22132898.0554                   22132897.2544
        42.2504         26.0004
   1445451.60947    571096.93445  20771158.9774                   20771159.2664
        47.2504         35.2504
   1845287.40247   2111628.69144  22585733.6024                   22585738.2974
        42.0004         27.7504
   1476076.09047    627445.75854  22873248.7034                   22873246.7624
        44.0004         25.0004
 19  3  6 23 48 25.0000000  0  9G01G17G11G13G18G19G28G30G15
   1259148.84447   -105851.96145  22426636.2424                   22426640.4304
        46.7504         32.2504
   1090037.15248  -1765106.81645  20852198.7974                   20852199.1954
        48.7504         35.2504
   1568791.43047   1068187.23444  22554138.1954                   22554138.7624
        43.7504         28.0004
   1663411.12946   1502043.41443  22224951.3284                   22224954.0084
        41.5004         18.2504
   1543693.92246    985306.73043  23180767.8204                   23180770.0394
        41.5004         22.0004
    633057.96147  -1947991.77744  22127928.9064                   22127927.9844
        42.5004         26.5004
   1442074.66047    568465.54345  20770516.4614                   20770516.3984
        47.2504         35.2504
   1852550.36747   2117288.10544  22587116.0004                   22587119.5784
        42.7504         27.5004
   1472661.07047    624784.70344  22872598.6884                   22872598.5004
        44.0004         24.5004
 19  3  6 23 48 30.0000000  0  9G01G17G11G13G18G19G28G30G15
   1248751.82047   -113953.53945  22424657.5944                   22424662.1094
        46.0004         31.7504
   1073725.38348  -1777817.28945  20849094.0554                   20849095.5004
        48.2504         35.5004
   1568733.90647   1068142.42644  22554127.5234                   22554127.6884
        44.0004         28.2504
   1666527.69547   1504471.85942  22225545.4924                   22225547.2704
        42.0004         17.2504
   1542719.83246    984547.74243  23180582.5944                   23180584.7544
        41.2504         22.5004
    606946.18447  -1968338.62144  22122959.4924                   22122958.9574
        42.2504         26.2504
   1438696.85547    565833.49245  20769873.6024                   20769874.2814
        47.2504         35.0004
   1859812.41847   2122946.86344  22588497.5634                   22588502.0314
        42.0004         27.7504
   1469252.96947    622128.98843  22871950.2114                   22871950.8634
        44.2504         23.5004
 19  3  6 23 48 35.0000000  0  9G01G17G11G13G18G19G28G30G15
   1238365.98447   -122046.39845  22422681.3984                   22422685.9574
        46.7504         32.5004
   1057419.95748  -1790522.80945  20845991.8914                   20845992.6994
        48.5004         35.0004
   1568684.90647   1068104.22344  22554118.0784                   22554118.8484
        43.7504         28.5004
   1669649.81347   1506904.66843  22226139.0004                   22226141.2304
        42.0004         18.2504
   1541755.55147    983796.35243  23180399.6414                   23180401.4144
        42.2504         22.0004
    580836.55947  -1988683.74644  22117992.5944                   22117990.7074
        43.5004         27.0004
   1435319.43447    563201.73045  20769231.0554                   20769231.0744
        47.2504         34.7504
   1867074.82847   2128605.84444  22589880.1484                   22589884.0634
        42.5004         27.7504
   1465853.00047    619479.64843  22871303.4924                   22871304.0394
        42.2504         22.2504
 19  3  6 23 48 40.0000000  0  9G01G17G11G13G18G19G28G30G15
   1227991.92247   -130130.07445  22420707.2114                   22420711.9384
        46.2504         31.2504
   1041121.50448  -1803222.89846  20842890.3444                   20842890.8954
        49.5004         36.7504
   1568645.04747   1068073.16444  22554110.2734                   22554111.2664
        43.0004         27.0004
   1672778.176 5                  22226735.211
        35.000
   1540801.73447    983053.09843  23180217.6954                   23180220.2384
        42.0004         21.0004
    554729.75847  -2009026.71143  22113023.0944                   22113022.4184
        42.5004         23.2504
   1431943.02747    560570.76645  20768588.5554                   20768588.4344
        46.5004         34.5004
   1874338.20747   2134265.63344  22591262.4614                   22591266.2274
        43.0004         27.0004
   1462462.04746    616837.41843  22870657.9144                   22870659.4344
        39.5004         19.5004
 19  3  6 23 48 45.0000000  0  9G01G17G11G13G18G19G28G30G15
   1217629.27057   -138205.27354  22418733.2424                   22418743.3244
        44.2504         28.7504
   1024830.57058  -1815917.25855  20839788.1564                   20839794.4924
        48.5004         34.5004
   1568614.89157   1068049.59854  22554103.3364                   22554106.8164
        42.2504         25.5004
   1675913.07416                  22227328.313
        37.500
   1539858.85956    982318.30553  23180035.4614                   23180041.7464
        40.2504         20.7504
    528626.56357  -2029367.02054  22108054.5554                   22108056.8364
        42.0004         25.2504
   1428568.25057    557940.94155  20767945.2114                   20767949.1414
        47.5004         32.2504
   1881601.10517                  22592643.133
        42.000
   1459080.08215                  22870015.250
        33.500
 19  3  6 23 48 50.0000000  0  9G01G17G11G13G18G19G28G30G15
   1207280.96547   -146268.78944  22416765.7344                   22416778.2154
        45.5004         27.2504
   1008548.25448  -1828604.76645  20836691.0234                   20836700.1954
        48.7504         33.5004
   1568595.49247   1068034.47343  22554100.9454                   22554104.7894
        43.5004         23.0004
   1679055.910 5                  22227928.586
        35.750
   1538927.93846    981592.96943  23179860.4614                   23179865.8404
        41.5004         19.7504
    502527.74247  -2049703.66844  22103089.3524                   22103092.0204
        43.0004         24.0004
   1425196.00447    555313.26645  20767304.0234                   20767310.8714
        47.0004         30.7504
   1888868.55147   2139926.44954  22594028.0634                   22594035.6054
        43.0004         25.2504
   1455708.699 6                  22869373.039
        39.750
 19  3  6 23 48 55.0000000  0  9G01G17G11G13G18G19G28G30G15
   1196947.09058   -154321.17655  22414799.1484                   22414811.5084
        48.0004         30.0004
    992274.47758  -1841285.80155  20833594.1174                   20833603.7304
        48.5004         33.0004
   1568587.78957   1068028.48054  22554099.4384                   22554104.0634
        43.5004         24.5004
   1682205.52316                  22228526.938
        37.750
   1538010.99257    980878.52053  23179685.4384                   23179692.3914
        43.7504         20.2504
    476433.44957  -2070037.06253  22098124.0004                   22098127.0434
        43.7504         23.7504
   1421828.47358    552689.30555  20766662.4384                   20766671.1484
        49.0004         31.5004
   1896137.64557   2145590.60254  22595411.0394                   22595419.3984
        45.5004         26.5004
                                  22868732.883
        37.000
 19  3  6 23 49  0.0000000  0  9G01G17G11G13G18G19G28G30G15
   1186627.77047   -162362.26644  22412835.6254                   22412851.2034
        45.7504         28.5004
    976011.32448  -1853958.55545  20830499.3444                   20830516.4104
        48.5004         30.7504
   1568591.96147   1068031.68044  22554100.2114                   22554105.6844
        44.5004         25.0004
   1685365.816 6                  22229129.883
        39.750
   1537106.16847    980173.60243  23179514.1254                   23179521.1764
        42.5004         20.0004
    450345.84847  -2090365.19544  22093160.3674                   22093165.5634
        44.7504         26.7504
   1418463.59048    550067.39145  20766023.4304                   20766032.9534
        48.0004         31.5004
   1903412.340 7                  22596795.727
        43.750
   1449000.37916                  22868096.320
        37.750
 19  3  6 23 49  5.0000000  0  8G01G17G11G13G18G19G28G30
   1176322.84847   -170392.10944  22410874.9774                   22410896.4534
        46.2504         27.7504
    959757.77048  -1866623.77045  20827406.8204                   20827430.6524
        49.7504         32.2504
   1568607.82047   1068044.03544  22554103.1254                   22554111.4304
        44.0004         24.0004
   1688534.828 5                  22229732.539
        33.500
   1536214.34447    979478.62143  23179343.4144                   23179352.7734
        42.2504         20.2504
    424263.64847  -2110688.95343  22088196.7734                   22088204.6564
        45.0004         22.7504
   1415102.37547    547448.17645  20765383.2424                   20765398.6454
        47.0004         30.5004
   1910690.56347   2150808.16054  22598180.6024                   22598189.3914
        43.0004         26.5004
 19  3  6 23 49 10.0000000  0  9G01G17G11G13G18G19G28G30G15
   1166031.91847   -178410.89144  22408917.0164                   22408932.2664
        46.2504         28.2504
    943513.37947  -1879281.55944  20824315.8984                   20824335.1094
        47.7504         28.5004
   1568634.95747   1068065.26244  22554108.6884                   22554114.1564
        43.7504         25.5004
   1691712.203 6                  22230338.313
        37.500
   1535335.01647    978793.50043  23179176.5164                   23179184.3524
        42.5004         21.2504
    398186.61347  -2131008.64844  22083234.2424                   22083240.0704
        42.5004         25.2504
   1411744.35247    544831.69945  20764744.8054                   20764751.1334
        47.0004         32.7504
   1917971.92646   2156482.01644  22599565.8204                   22599573.8754
        41.7504         26.7504
   1442340.91417                  22866828.516
        42.750
 19  3  6 23 49 15.0000000  0  9G01G17G11G13G18G19G28G30G15
   1155754.86747   -186418.93744  22406961.2894                   22406970.5394
        45.5004         29.5004
    927277.94148  -1891932.47745  20821226.1174                   20821235.5274
        48.5004         32.0004
   1568673.26647   1068095.10944  22554115.7814                   22554119.6764
        44.2504         27.5004
   1694897.602 6                  22230944.055
        36.000
   1534468.08246    978117.98843  23179011.3284                   23179018.1414
        40.5004         21.5004
    372114.58247  -2151324.48044  22078272.8364                   22078276.2154
        43.7504         25.5004
   1408389.34047    542217.43845  20764106.2034                   20764108.3714
        47.0004         31.7504
   1925256.29347   2162158.12944  22600952.1094                   22600958.9304
        42.7504         27.0004
   1439025.422 6                  22866197.445
        37.750
 19  3  6 23 49 20.0000000  0  9G01G17G11G13G18G19G28G30G15
   1145491.87547   -194416.05545  22405008.3444                   22405014.9384
        46.7504         33.2504
    911051.72347  -1904576.23846  20818137.9224                   20818142.1844
        47.5004         37.0004
   1568722.85247   1068133.73845  22554125.2814                   22554127.8404
        43.0004         30.0004
   1698091.246 6                  22231551.633
        37.500
   1533613.68846    977452.20743  23178849.2894                   23178854.8984
        41.5004         22.5004
    346047.67647  -2171636.36745  22073312.3754                   22073314.1174
        43.5004         30.2504
   1405037.59847    539605.68845  20763467.9384                   20763469.6094
        46.2504         35.0004
   1932543.74646   2167836.65644  22602338.1484                   22602344.9344
        40.0004         28.0004
   1435721.102 6                  22865568.273
        41.000
 19  3  6 23 49 25.0000000  0  9G01G17G11G13G18G19G28G30G15
   1135242.78947   -202402.35545  22403057.9224                   22403063.8594
        46.2504         31.5004
    894834.63748  -1917212.91446  20815052.3914                   20815054.5704
        48.7504         36.0004
   1568783.66047   1068181.14144  22554136.6884                   22554138.7624
        44.5004         28.5004
   1701293.168 6                  22232160.531
        38.000
   1532771.76246    976796.18043  23178689.8524                   23178694.3404
        41.0004         22.2504
    319985.92647  -2191944.19544  22068353.0784                   22068354.0394
        44.2504         29.0004
   1401688.99247    536996.39145  20762830.8834                   20762832.1684
        47.0004         33.5004
   1939834.28546   2173517.61344  22603725.5164                   22603732.2234
        41.0004         26.2504
   1432427.488 7                  22864941.789
        44.000
 19  3  6 23 49 30.0000000  0  9G01G17G11G13G18G19G28G30G15
   1125007.73447   -210377.73045  22401110.4384                   22401115.7814
        45.7504         32.2504
    878626.67248  -1929842.51646  20811967.9844                   20811970.9024
        48.0004         37.7504
   1568855.69947   1068237.27345  22554150.6484                   22554152.2544
        44.7504         31.5004
   1704503.355 6                  22232770.539
        36.750
   1531942.37547    976149.89544  23178531.3914                   23178535.8794
        43.5004         24.0004
    293929.27747  -2212248.07444  22063395.2504                   22063395.1604
        43.2504         29.0004
   1398343.53947    534389.52345  20762194.5314                   20762195.7974
        47.7504         35.5004
   1947127.87147   2179200.88744  22605113.9144                   22605120.1174
        42.0004         25.7504
   1429144.586 5                  22864316.258
        35.750
 19  3  6 23 49 35.0000000  0  9G01G17G11G13G18G19G28G30G15
   1114787.18447   -218341.82045  22399165.1884                   22399171.6644
        45.7504         32.5004
    862428.40647  -1942464.54346  20808884.9924                   20808889.3554
        47.0004         37.0004
   1568939.46547   1068302.53145  22554166.3754                   22554168.3834
        44.2504         31.2504
   1707722.219 6                  22233383.313
        38.000
   1531125.98447    975513.71544  23178375.6254                   23178380.6174
        43.0004         24.7504
    267878.28147  -2232547.57044  22058436.9844                   22058438.0514
        42.5004         29.7504
   1395001.77347    531785.53546  20761558.6724                   20761560.4064
        47.5004         36.0004
   1954425.03547   2184887.00844  22606503.0164                   22606508.4534
        42.5004         29.5004
   1425873.227 5                  22863693.953
        31.500
 19  3  6 23 49 40.0000000  0  9G01G17G11G13G18G19G28G30G15
   1104580.98447   -226294.68745  22397223.0474                   22397229.4534
        46.2504         32.5004
    846239.62147  -1955079.15246  20805805.3284                   20805808.1294
        47.7504         37.0004
   1569034.78147   1068376.84845  22554184.5944                   22554186.4264
        44.7504         31.5004
   1710949.547 6                  22233997.656
        38.000
   1530322.35947    974887.55144  23178222.9384                   23178228.0634
        42.0004         25.5004
    241832.79747  -2252842.72744  22053481.3594                   22053481.6724
        43.7504         27.7504
   1391663.47348    529184.30145  20760923.5084                   20760924.6764
        48.2504         35.7504
   1961725.59847   2190575.71544  22607891.8914                   22607897.6914
        43.0004         29.2504
   1422613.070 6                  22863074.156
        36.000
 19  3  6 23 49 45.0000000  0  9G01G17G11G13G18G19G28G30G15
   1094389.05147   -234236.45345  22395283.5314                   22395289.9924
        46.5004         31.2504
    830060.31648  -1967686.39146  20802726.7894                   20802729.3244
        48.2504         36.5004
   1569141.57447   1068460.05544  22554205.3674                   22554206.7034
        44.5004         29.7504
   1714185.367 6                  22234613.641
        38.250
   1529531.46946    974271.28144  23178073.0004                   23178077.1604
        41.7504         24.2504
    215792.75447  -2273133.68044  22048525.7424                   22048526.4064
        42.7504         28.2504
   1388328.62548    526585.72345  20760288.6254                   20760289.8594
        48.2504         34.7504
   1969029.47747   2196267.06344  22609282.5394                   22609287.3244
        43.5004         26.5004
   1419364.133 6                  22862456.266
        36.000
 19  3  6 23 49 50.0000000  0  9G01G17G11G13G18G19G28G30G15
   1084211.55947   -242166.96545  22393346.9534                   22393352.5664
        46.5004         33.5004
    813890.59447  -1980286.18046  20799649.4454                   20799652.3874
        47.7504         36.7504
   1569259.97747   1068552.29745  22554227.4144                   22554229.3794
        44.5004         30.7504
   1717429.777 6                  22235231.484
        38.500
   1528753.50846    973665.06643  23177924.6724                   23177928.9534
        41.7504         23.7504
    189758.33647  -2293420.22744  22043572.2424                   22043572.6134
        42.7504         28.7504
   1384997.32848    523989.89846  20759654.3984                   20759656.1454
        48.2504         36.2504
   1976336.82847   2201961.08644  22610672.8524                   22610677.5944
        43.7504         29.2504
   1416126.527 5                  22861840.164
        35.500
 19  3  6 23 49 55.0000000  0  9G01G17G11G13G18G19G28G30G15
   1074048.51247   -250086.24245  22391413.0864                   22391418.2424
        46.0004         32.5004
    797730.48447  -1992878.48046  20796574.0704                   20796577.2974
        47.7504         37.0004
   1569390.05147   1068653.66045  22554252.2114                   22554253.8874
        45.0004         30.7504
   1720682.793 6                  22235851.023
        38.000
   1527988.45347    973068.91844  23177779.1884                   23177782.7464
        43.5004         25.5004
    163729.51647  -2313702.41844  22038618.6954                   22038619.4454
        42.5004         29.0004
   1381669.62948    521396.87946  20759021.5784                   20759022.8794
        48.0004         36.5004
   1983647.63347   2207657.83245  22612064.4774                   22612068.8444
        44.0004         30.2504
   1412900.164 5                  22861226.727
        34.750
 19  3  6 23 50  0.0000000  0  9G01G17G11G13G18G19G28G30G15
   1063899.94947   -257994.20745  22389481.7814                   22389487.0984
        46.0004         32.5004
    781580.03148  -2005463.25046  20793501.1414                   20793503.3714
        48.7504         37.0004
   1569531.81647   1068764.11745  22554279.7274                   22554280.8404
        44.5004         31.0004
   1723944.473 6                  22236471.313
        39.000
   1527236.29347    972482.82444  23177635.6724                   23177639.4654
        42.2504         25.2504
    137706.43047  -2333980.15244  22033666.7664                   22033666.7234
        43.2504         29.2504
   1378345.60948    518806.73046  20758388.9844                   20758390.1294
        48.0004         36.5004
   1990961.93047   2213357.29745  22613455.9064                   22613460.3134
        44.0004         30.7504
   1409685.211 5                  22860614.578
        35.000
 19  3  6 23 50  5.0000000  0  9G01G17G11G13G18G19G28G30G15
   1053765.75047   -265890.97345  22387553.4924                   22387559.2034
        46.5004         32.0004
    765439.18848  -2018040.53146  20790429.1954                   20790432.5944
        48.0004         36.2504
   1569685.07447   1068883.53144  22554308.0554                   22554310.0124
        44.5004         29.7504
   1727214.566 6                  22237092.961
        38.750
   1526496.96147    971906.72344  23177495.1564                   23177498.7814
        42.5004         24.5004
    111688.84847  -2354253.55944  22028715.7734                   22028716.0904
        43.5004         28.2504
   1375025.05148    516219.28545  20757757.3594                   20757758.0234
        48.0004         35.5004
   1998279.59447   2219059.34445  22614848.5084                   22614853.1914
        44.0004         30.7504
   1406481.445 5                  22860005.055
        34.500
 19  3  6 23 50 10.0000000  0  9G01G17G11G13G18G19G28G30G15
   1043646.19147   -273776.35545  22385627.5394                   22385633.1214
        46.2504         32.7504
    749308.12547  -2030610.18446  20787359.5314                   20787362.6884
        47.2504         37.0004
   1569850.12947   1069012.15645  22554340.1024                   22554341.4104
        44.0004         31.0004
   1730493.445 6                  22237717.289
        38.000
   1525770.68047    971340.78144  23177357.0864                   23177360.5704
        42.0004         25.0004
     85677.13347  -2374522.42244  22023766.2504                   22023765.8284
        43.0004         29.0004
   1371708.32448    513634.82446  20757125.9924                   20757127.2344
        48.0004         36.0004
   2005600.89147   2224764.27744  22616242.1334                   22616246.8364
        43.5004         29.0004
   1403289.063 5                  22859397.445
        34.750
 19  3  6 23 50 15.0000000  0  9G01G17G11G13G18G19G28G30G15
   1033541.09047   -281650.46545  22383704.7664                   22383710.0274
        46.5004         33.0004
    733186.66447  -2043172.36346  20784292.0864                   20784294.6214
        47.5004         36.0004
   1570026.75047   1069149.77044  22554373.4694                   22554374.6294
        44.0004         29.5004
   1733780.836 6                  22238342.469
        38.750
   1525057.22347    970784.83644  23177220.8134                   23177224.9884
        43.2504         24.7504
     59671.11347  -2394786.85544  22018816.9384                   22018817.3134
        42.7504         28.0004
   1368395.16848    511053.12545  20756495.3364                   20756497.0514
        48.0004         35.7504
   2012925.63747   2230471.85945  22617635.6174                   22617640.5204
        43.0004         30.7504
   1400107.980 5                  22858792.469
        34.500
 19  3  6 23 50 20.0000000  0  9G01G17G11G13G18G19G28G30G15
   1023450.78547   -289513.04745  22381784.4924                   22381790.5664
        46.2504         32.5004
    717075.13747  -2055726.78545  20781226.1024                   20781229.0204
        47.5004         35.7504
   1570215.31647   1069296.69944  22554409.1254                   22554411.0084
        44.5004         29.5004
   1737077.063 6                  22238970.695
        39.000
   1524357.00046    970239.20344  23177087.8524                   23177091.8834
        41.5004         24.5004
     33671.10547  -2415046.60244  22013869.7734                   22013869.5824
        43.0004         28.0004
   1365085.91848    508474.49245  20755866.0474                   20755866.6604
        48.0004         35.5004
   2020254.12947   2236182.34444  22619029.5784                   22619034.9924
        42.5004         29.2504
   1396938.500 5                  22858188.367
        34.500
 19  3  6 23 50 25.0000000  0  9G01G17G11G13G18G19G28G30G15
   1013375.06347   -297364.25445  22379867.0704                   22379873.1884
        46.0004         31.7504
    700973.37148  -2068273.62146  20778161.9224                   20778164.6254
        48.0004         36.7504
   1570415.59447   1069452.77744  22554447.2584                   22554448.8284
        44.5004         29.2504
   1740381.945 6                  22239598.695
        38.500
   1523669.76647    969703.71144  23176956.7814                   23176961.0824
        42.7504         25.5004
      7676.93847  -2435301.77744  22008922.4924                   22008923.1644
        43.0004         27.7504
   1361780.38347    505898.77745  20755236.6484                   20755238.0234
        47.5004         35.5004
   2027586.20347   2241895.66444  22620424.5474                   22620430.0864
        42.0004         27.0004
   1393780.414 5                  22857587.688
        35.500
 19  3  6 23 50 30.0000000  0  9G01G17G11G13G18G19G28G30G15
   1003313.81347   -305204.20745  22377952.3754                   22377958.5204
        46.2504         33.5004
    684881.20347  -2080812.98046  20775099.3204                   20775102.7154
        47.7504         37.7504
   1570627.47747   1069617.85545  22554487.7344                   22554489.6094
        45.0004         31.5004
   1743695.332 6                  22240229.992
        40.000
   1522995.33247    969178.17644  23176829.1254                   23176832.3834
        44.0004         27.0004
    -18311.47347  -2455552.50044  22003976.8674                   22003977.6174
        43.2504         29.5004
   1358478.44148    503325.82046  20754608.4304                   20754609.6684
        48.0004         37.2504
   2034921.69947   2247611.59844  22621821.0234                   22621826.5394
        43.2504         29.5004
   1390633.531 5                  22856988.938
        34.250
 19  3  6 23 50 35.0000000  0  9G01G17G11G13G18G19G28G30G15
    993267.43047   -313032.55545  22376041.0474                   22376047.0004
        46.2504         34.0004
    668799.03548  -2093344.52046  20772039.6644                   20772041.9144
        48.0004         37.5004
   1570851.29347   1069792.26245  22554530.6954                   22554531.8204
        44.7504         30.7504
   1747017.637 6                  22240862.320
        39.000
   1522334.15247    968662.97344  23176703.2734                   23176706.5044
        42.7504         26.2504
    -44293.81647  -2475798.46144  21999033.4384                   21999033.6214
        43.2504         29.5004
   1355180.47747    500755.96946  20753980.9614                   20753982.1724
        47.5004         36.7504
   2042260.97347   2253330.50844  22623217.1414                   22623222.8914
        42.0004         28.5004
   1387498.223 5                  22856391.680
        34.250
 19  3  6 23 50 40.0000000  0  9G01G17G11G13G18G19G28G30G15
    983235.55547   -320849.60245  22374131.8134                   22374137.5634
        46.7504         34.2504
    652726.58247  -2105868.52346  20768980.6954                   20768984.2034
        47.7504         37.7504
   1571086.71547   1069975.70745  22554574.8134                   22554576.6374
        44.5004         31.2504
   1750348.445 6                  22241495.469
        39.250
   1521685.88347    968157.81644  23176579.5634                   23176583.1374
        43.0004         26.2504
    -70270.31647  -2496039.88344  21994090.1094                   21994090.1994
        43.5004         29.7504
   1351886.16448    498188.97346  20753353.7664                   20753355.2704
        48.2504         37.0004
   2049603.72347   2259052.10944  22624614.9304                   22624619.8134
        42.5004         28.2504
   1384374.258 5                  22855797.570
        34.250
 19  3  6 23 50 45.0000000  0  9G01G17G11G13G18G19G28G30G15
    973218.57047   -328655.05145  22372225.5394                   22372232.0124
        46.2504         34.2504
    636664.09448  -2118384.73846  20765924.6724                   20765927.1764
        48.2504         37.0004
   1571334.04347   1070168.42645  22554621.9454                   22554623.6564
        44.5004         31.2504
   1753688.113 6                  22242131.820
        39.000
   1521050.78547    967662.93044  23176458.4224                   23176462.3094
        42.7504         26.7504
    -96240.72347  -2516276.55545  21989147.8674                   21989148.5314
        43.0004         30.0004
   1348595.83248    495625.05946  20752728.1724                   20752729.0124
        48.0004         36.5004
   2056950.22747   2264776.64844  22626012.5314                   22626018.1954
        42.2504         28.2504
   1381261.801 5                  22855205.711
        35.250
 19  3  6 23 50 50.0000000  0  9G01G17G11G13G18G19G28G30G15
    963216.40647   -336448.93745  22370322.4304                   22370328.5944
        46.5004         34.0004
    620611.65247  -2130893.14846  20762869.2194                   20762872.7304
        47.5004         37.0004
   1571593.34447   1070370.47745  22554671.6804                   22554673.0164
        44.5004         30.0004
   1757036.668 6                  22242768.641
        39.000
   1520428.84847    967178.30944  23176340.8364                   23176343.9614
        42.2504         26.5004
   -122204.94547  -2536508.43744  21984206.4844                   21984207.1644
        43.0004         29.5004
   1345309.48847    493064.28546  20752102.2344                   20752103.4734
        47.7504         37.0004
   2064300.52747   2270504.14544  22627412.0394                   22627416.8284
        42.2504         28.2504
   1378161.031 5                  22854616.195
        34.750
 19  3  6 23 50 55.0000000  0  9G01G17G11G13G18G19G28G30G15
    953229.02747   -344231.31245  22368421.8914                   22368428.2274
        46.5004         34.7504
    604569.08248  -2143393.83646  20759816.8914                   20759819.9224
        48.0004         36.7504
   1571864.39147   1070581.68445  22554723.1094                   22554724.9064
        44.2504         30.5004
   1760393.879 6                  22243407.359
        39.000
   1519819.99246    966703.87144  23176224.4844                   23176228.0704
        41.7504         25.2504
   -148163.19547  -2556735.60245  21979268.0394                   21979267.7814
        43.5004         30.0004
   1342027.03147    490506.51646  20751477.8204                   20751479.2664
        47.5004         37.0004
   2071654.44947   2276234.46544  22628811.4924                   22628816.5434
        43.5004         29.2504
   1375071.703 5                  22854026.594
        34.500
 19  3  6 23 51  0.0000000  0  9G01G17G11G13G18G19G28G30G15
    943256.60547   -352002.00845  22366524.5634                   22366530.4454
        46.5004         32.0004
    588536.69948  -2155886.58245  20756765.9454                   20756768.7934
        48.5004         35.0004
   1572147.51647   1070802.32844  22554776.9454                   22554778.4734
        44.5004         29.0004
   1763760.043 6                  22244048.203
        39.500
   1519224.41847    966239.82444  23176111.0784                   23176114.2664
        42.0004         25.7504
   -174115.11347  -2576957.87544  21974328.6334                   21974328.8984
        43.0004         28.5004
   1338748.64548    487951.96545  20750854.3134                   20750855.2384
        48.5004         35.0004
   2079012.25847   2281967.85544  22630211.3134                   22630216.5124
        43.0004         27.2504
   1371994.113 5                  22853441.609
        33.250
 19  3  6 23 51  5.0000000  0  9G01G17G11G13G18G19G28G30G15
    933299.12947   -359761.09845  22364629.4454                   22364635.8404
        46.2504         32.0004
    572514.41847  -2168371.48445  20753717.0004                   20753719.5474
        47.7504         35.2504
   1572442.58247   1071032.24244  22554832.9384                   22554834.9494
        44.0004         28.2504
   1767135.066 6                  22244690.320
        39.500
   1518642.05547    965786.02343  23176000.2664                   23176004.0394
        42.5004         22.5004
   -200060.75447  -2597175.26244  21969392.3284                   21969391.6724
        44.0004         27.2504
   1335474.19548    485400.44145  20750231.1954                   20750232.1334
        48.0004         35.0004
   2086373.87947   2287704.18044  22631612.0474                   22631617.2154
        43.2504         26.5004
   1368928.152 5                  22852857.938
        33.500
 19  3  6 23 51 10.0000000  0  9G01G17G11G13G18G19G28G30G15
    923356.52347   -367508.57445  22362737.4304                   22362743.5164
        46.5004         32.0004
    556502.17248  -2180848.54745  20750670.3984                   20750672.7384
        48.0004         35.5004
   1572749.51247   1071271.41844  22554891.3594                   22554893.1334
        44.2504         27.2504
   1770518.891 6                  22245333.633
        39.250
   1518072.86347    965342.49644  23175891.9774                   23175895.2774
        42.2504         25.5004
   -226000.27747  -2617387.84044  21964456.4454                   21964455.8364
        43.2504         28.0004
   1332203.71148    482852.00445  20749608.5394                   20749609.7814
        48.0004         34.7504
   2093739.20347   2293443.41844  22633013.5554                   22633018.5004
        43.5004         27.2504
   1365873.762 5                  22852277.602
        34.000
 19  3  6 23 51 15.0000000  0  9G01G17G11G13G18G19G28G30G15
    913428.94147   -375244.37145  22360847.7734                   22360854.4384
        45.7504         33.0004
    540500.13348  -2193317.68046  20747624.9304                   20747627.4614
        48.0004         36.7504
   1573068.50047   1071519.95745  22554951.9224                   22554953.5984
        44.2504         30.0004
   1773911.664 6                  22245979.852
        37.750
   1517517.00047    964909.32844  23175786.1644                   23175789.4184
        42.7504         25.7504
   -251933.38747  -2637595.48844  21959520.2974                   21959520.4964
        42.7504         28.5004
   1328937.31347    480306.75446  20748987.0394                   20748987.9924
        47.5004         36.0004
   2101108.43447   2299185.63744  22634416.0084                   22634420.6914
        43.2504         27.5004
   1362831.340 5                  22851698.234
        34.000
 19  3  6 23 51 20.0000000  0  9G01G17G11G13G18G19G28G30G15
    903516.27747   -382968.50445  22358962.0864                   22358967.9264
        45.5004         31.2504
    524508.21148  -2205778.93446  20744581.5314                   20744584.6844
        49.2504         38.0004
   1573399.41847   1071777.79744  22555015.1954                   22555016.3954
        44.0004         28.2504
   1777313.148 6                  22246626.422
        39.000
   1516974.39146    964486.50443  23175682.7424                   23175686.3204
        41.5004         22.7504
   -277860.22347  -2657798.18044  21954587.0784                   21954587.4024
        43.2504         29.0004
   1325674.94147    477764.64545  20748366.0164                   20748367.5634
        47.5004         35.2504
   2108481.44547   2304930.89144  22635818.8754                   22635823.8014
        43.7504         28.5004
   1359800.629 5                  22851120.477
        33.750
 19  3  6 23 51 25.0000000  0  9G01G17G11G13G18G19G28G30G15
    893618.52047   -390681.04745  22357077.7814                   22357084.6914
        44.7504         31.5004
    508526.37948  -2218232.32046  20741540.3054                   20741543.8834
        48.7504         38.2504
   1573742.22347   1072044.91044  22555080.2894                   22555081.9844
        43.5004         29.0004
   1780723.547 6                  22247275.961
        39.500
   1516444.89547    964073.90244  23175582.9384                   23175585.6604
        42.0004         25.0004
   -303780.77047  -2677996.03144  21949653.7424                   21949654.5944
        42.5004         29.2504
   1322416.52747    475225.61345  20747745.9924                   20747747.6054
        47.0004         35.2504
   2115858.20347   2310679.03544  22637223.2504                   22637227.4964
        44.0004         29.5004
   1356781.254 5                  22850546.648
        32.500
 19  3  6 23 51 30.0000000  0  9G01G17G11G13G18G19G28G30G15
    883735.82847   -398381.84445  22355198.1094                   22355203.8364
        45.7504         32.0004
    492554.79348  -2230677.69546  20738501.1254                   20738504.2234
        48.2504         37.0004
   1574097.03547   1072321.39844  22555148.0164                   22555149.8484
        44.0004         29.0004
   1784142.867 6                  22247926.375
        38.000
   1515928.72747    963671.69943  23175484.1174                   23175487.5594
        42.5004         22.7504
   -329694.99647  -2698188.93444  21944723.1254                   21944723.4144
        43.5004         29.5004
   1319162.26647    472689.81645  20747127.0004                   20747127.9774
        47.2504         35.0004
   2123238.85547   2316430.14844  22638627.2274                   22638632.1524
        43.2504         29.5004
   1353773.598 5                  22849974.805
        35.750
 19  3  6 23 51 35.0000000  0  9G01G17G11G13G18G19G28G30G15
   2449290.36747    821530.78945  22653112.7584                   22653118.6684
        45.5004         32.2504
   2052016.78948  -1015512.51646  21035256.7734                   21035260.0204
        49.0004         38.5004
   3149883.98047   2300207.33644  22855010.3914                   22855011.8324
        44.0004         28.2504
   3362990.543 6                  22548371.180
        38.750
   3090846.04346   2190880.00843  23475180.3054                   23475184.6644
        41.2504         22.2504
   1219822.54747  -1490772.65244  22239585.7114                   22239586.7704
        43.7504         29.5004
   2891332.89148   1697757.84845  21046301.1254                   21046302.4884
        48.0004         34.7504
   3706042.09047   3549783.31344  22939824.8284                   22939829.6414
        43.5004         27.5004
   2926198.195 4                  23149197.711
        29.500
 19  3  6 23 51 40.0000000  0  9G01G17G11G13G18G19G28G30G15
   2439438.16047    813853.73445  22651237.4224                   22651244.2734
        45.5004         31.5004
   2036066.07448  -1027941.64846  21032221.4224                   21032224.8714
        49.2504         38.5004
   3150263.27747   2300502.89544  22855082.7274                   22855084.4804
        44.2504         28.5004
   3366428.074 6                  22549025.297
        38.500
   3090356.85547   2190498.83643  23475087.4064                   23475091.2934
        42.0004         23.7504
   1193921.57847  -1510955.21544  22234657.8444                   22234657.5594
        43.0004         29.0004
   2888087.34847   1695228.84445  21045682.9224                   21045685.1844
        47.0004         35.5004
   3713430.86347   3555540.79744  22941230.6024                   22941235.7894
        44.2504         29.0004
   2923214.32415                  23148629.703
        35.000
 19  3  6 23 51 45.0000000  0  9G01G17G11G13G18G19G28G30G15
   2429601.03147    806188.45744  22649365.8054                   22649372.5824
        45.7504         29.0004
   2020125.57448  -1040362.78545  21029188.5474                   21029191.7304
        48.5004         34.5004
   3150654.55947   2300807.78944  22855157.1484                   22855158.5744
        44.2504         27.7504
   3369874.535 6                  22549680.750
        39.500
   3089880.89547   2190127.96143  23474996.9614                   23475001.0784
        42.0004         22.5004
   1168027.02047  -1531132.82444  22229729.2894                   22229730.5314
        44.0004         29.5004
   2884845.87147   1692703.02045  21045066.7664                   21045067.8794
        46.5004         33.5004
   3720823.49647   3561301.28544  22942637.4144                   22942642.5474
        43.7504         28.0004
   2920242.105 5                  23148063.641
        35.000
 19  3  6 23 51 50.0000000  0  9G01G17G11G13G18G19G28G30G15
   2419779.31347    798535.14845  22647496.2424                   22647503.6484
        44.7504         31.2504
   2004195.64148  -1052775.71945  21026156.8364                   21026160.1484
        48.7504         35.0004
   3151058.17647   2301122.28944  22855233.2424                   22855235.4224
        44.5004         28.5004
   3373330.102 6                  22550338.883
        38.500
   3089418.59047   2189767.71943  23474908.7424                   23474913.2154
        42.7504         23.5004
   1142139.23047  -1551305.09845  22224804.1094                   22224803.9414
        45.0004         31.5004
   2881608.83247   1690180.64845  21044450.4144                   21044452.3594
        47.0004         35.0004
   3728220.33247   3567065.02044  22944045.0234                   22944050.8284
        42.2504         28.5004
   2917281.777 5                  23147500.445
        34.000
 19  3  6 23 51 55.0000000  0  9G01G17G11G13G18G19G28G30G15
   2409973.09847    790893.95745  22645630.9844                   22645636.7934
        46.0004         30.5004
   1988276.46148  -1065180.29746  21023127.7504                   21023130.0704
        48.5004         37.2504
   3151474.23047   2301446.48044  22855312.9304                   22855314.3874
        43.5004         28.5004
   3376795.000 6                  22550998.727
        37.500
   3088969.97747   2189418.15243  23474824.0864                   23474827.8054
        42.2504         23.0004
   1116258.34847  -1571472.01244  22219878.7424                   22219879.6134
        43.5004         28.5004
   2878376.34047   1687661.82445  21043835.4304                   21043837.0594
        47.2504         35.7504
   3735621.46147   3572832.13744  22945453.6414                   22945458.8204
        44.0004         29.2504
   2914333.695 6                  23146939.531
        39.500
 19  3  6 23 52  0.0000000  0  9G01G17G11G13G18G19G28G30G15
   2400182.12147    783264.60245  22643767.4694                   22643773.8674
        45.7504         31.5004
   1972367.60248  -1077576.78545  21020100.2584                   21020103.3134
        48.0004         35.5004
   3151902.42647   2301780.13744  22855394.4144                   22855396.1334
        44.2504         29.5004
   3380269.016 6                  22551659.211
        39.750
   3088534.79346   2189078.99243  23474740.5164                   23474744.6334
        41.5004         23.2504
   1090384.10547  -1591633.77345  22214954.7344                   22214955.4144
        44.7504         30.5004
   2875148.07847   1685146.28146  21043221.0164                   21043222.1334
        47.0004         36.0004
   3743026.58647   3578602.34045  22946862.0634                   22946868.2344
        44.0004         30.0004
   2911397.469 6                  23146380.234
        38.750
 19  3  6 23 52  5.0000000  0  9G01G17G11G13G18G19G28G30G15
   2390406.50847    775647.26645  22641907.1024                   22641914.0234
        45.5004         31.2504
   1956469.37148  -1089965.03145  21017074.7194                   21017078.0634
        48.0004         34.7504
   3152342.87547   2302123.35544  22855477.9614                   22855479.8134
        44.5004         28.7504
   3383752.160 6                  22552321.125
        38.750
   3088113.12147   2188750.46143  23474660.4304                   23474664.3204
        42.5004         22.5004
   1064516.64847  -1611790.21545  22210032.4614                   22210032.9184
        44.5004         31.0004
   2871924.20747   1682634.18445  21042607.1954                   21042609.5234
        46.5004         35.0004
   3750435.86347   3584375.79344  22948272.0314                   22948278.4184
        43.2504         29.0004
   2908473.098 6                  23145824.000
        36.750
 19  3  6 23 52 10.0000000  0  9G01G17G11G13G18G19G28G30G15
   2380646.12547    768041.76245  22640050.1024                   22640056.8324
        46.0004         31.2504
   1940581.52048  -1102345.14845  21014051.7974                   21014054.3634
        48.2504         35.5004
   3152795.39847   2302475.98844  22855564.2274                   22855566.0394
        45.2504         29.5004
   3387244.203 6                  22552986.492
        39.250
   3087704.85947   2188432.34843  23474583.3984                   23474587.0314
        43.5004         22.2504
   1038655.84847  -1631941.48445  22205111.2894                   22205111.8054
        44.5004         30.7504
   2868704.59447   1680125.41845  21041995.0394                   21041996.7734
        46.2504         34.2504
   3757849.08247   3590152.32044  22949683.6334                   22949689.1094
        44.2504         29.0004
   2905560.520 5                  23145270.633
        33.500
 19  3  6 23 52 15.0000000  0  9G01G17G11G13G18G19G28G30G15
   2370901.25847    760448.34845  22638195.7504                   22638202.1994
        46.0004         31.5004
   1924704.40247  -1114716.93746  21011030.0394                   21011033.1374
        47.5004         36.5004
   3153260.34447   2302838.27044  22855652.8754                   22855654.2194
        44.7504         29.0004
   3390745.652 6                  22553652.641
        37.500
   3087310.29747   2188124.86743  23474507.8594                   23474511.7234
        44.2504         23.0004
   1012802.00447  -1652087.30144  22200192.1954                   22200192.0314
        43.5004         27.7504
   2865489.53947   1677620.17245  21041383.2194                   21041384.5944
        47.2504         34.5004
   3765266.55947   3595932.16844  22951094.4224                   22951100.3364
        43.7504         28.5004
   2902659.72315                  23144717.219
        32.750
 19  3  6 23 52 20.0000000  0  9G01G17G11G13G18G19G28G30G15
   2361171.89847    752867.04345  22636344.5164                   22636351.1094
        45.5004         30.5004
   1908838.09848  -1127080.28945  21008010.8674                   21008014.0744
        48.2504         34.7504
   3153737.68047   2303210.21144  22855743.7344                   22855745.4024
        44.0004         26.0004
   3394256.238 5                  22554320.914
        35.000
   3086929.41046   2187828.08243  23474435.0944                   23474439.5004
        41.5004         22.2504
    986955.12547  -1672227.70344  22195273.5084                   22195273.5824
        43.0004         27.0004
   2862279.01647   1675118.49245  21040772.2584                   21040773.9264
        46.2504         32.7504
   3772688.32847   3601715.34044  22952507.1174                   22952512.3984
        44.0004         27.0004
   2899771.668 6                  23144169.852
        36.000
 19  3  6 23 52 25.0000000  0  9G01G17G11G13G18G19G28G30G15
   2351457.62147    745297.49245  22634496.1724                   22634502.6564
        45.7504         31.2504
   1892981.99247  -1139435.69945  21004993.5554                   21004996.4574
        47.5004         33.5004
   3154226.90247   2303591.43444  22855836.6414                   22855838.4774
        45.5004         28.5004
   3397775.383 6                  22554991.320
        41.000
   3086561.65647   2187541.52743  23474365.4454                   23474369.3524
        42.0004         21.5004
    961114.79347  -1692363.04744  22190356.0864                   22190356.2584
        44.2504         29.5004
   2859072.53547   1672619.92245  21040162.0474                   21040163.3364
        46.7504         33.5004
   3780113.85947   3607501.46544  22953919.8914                   22953925.8984
        44.5004         28.5004
   2896895.094 6                  23143620.930
        39.250
 19  3  6 23 52 30.0000000  0  9G01G17G11G13G18G19G28G30G15
   2341758.68447    737739.85245  22632649.7814                   22632658.0984
        45.0004         31.0004
   1877136.32447  -1151782.99245  21001978.0474                   21001982.4384
        45.7504         34.2504
   3154728.31347   2303982.16445  22855931.9774                   22855934.9064
        45.0004         30.0004
   3401303.703 6                  22555661.781
        40.000
   3086207.28947   2187265.38343  23474297.3674                   23474301.9774
        43.0004         22.0004
    935281.21547  -1712493.09844  22185439.1954                   22185441.2384
        43.5004         29.2504
   2855870.44547   1670124.80545  21039552.1564                   21039555.2704
        45.2504         33.0004
   3787543.41847   3613290.75044  22955333.6564                   22955340.0984
        45.2504         28.5004
   2894030.227 6                  23143074.953
        40.500
 19  3  6 23 52 35.0000000  0  9G01G17G11G13G18G19G28G30G15
   2332075.59447    730194.57845  22630807.1564                   22630817.1414
        45.2504         30.7504
   1861301.63748  -1164121.71946  20998964.7894                   20998970.6094
        48.5004         36.5004
   3155242.37547   2304382.68844  22856029.8364                   22856032.8984
        44.7504         27.7504
   3404841.590 6                  22556335.141
        37.500
   3085866.91047   2187000.15243  23474233.0634                   23474238.4654
        43.2504         23.7504
    909454.98447  -1732617.44544  22180524.9694                   22180527.4454
        44.5004         29.0004
   2852673.13747   1667633.35245  21038943.6884                   21038948.0784
        46.2504         33.5004
   3794977.49247   3619083.52044  22956748.8054                   22956755.5594
        45.7504         28.5004
   2891177.926 5                  23142532.656
        32.000
 19  3  6 23 52 40.0000000  0  9G01G17G11G13G18G19G28G30G15
   2322408.03147    722661.40245  22628967.7504                   22628978.2344
        46.0004         31.0004
   1845477.75848  -1176452.01646  20995953.8284                   20995960.9104
        48.2504         36.0004
   3155768.85547   2304792.93444  22856129.8984                   22856134.1334
        45.0004         28.7504
   3408388.762 5                  22557009.602
        33.750
   3085540.21146   2186745.57043  23474170.8754                   23474176.8914
        40.7504         21.5004
    883635.77047  -1752736.30545  22175611.7584                   22175615.3714
        43.7504         30.5004
   2849480.51647   1665145.59445  21038336.4304                   21038342.0004
        46.0004         34.0004
   3802415.84047   3624879.63344  22958164.0004                   22958172.0704
        44.5004         29.5004
   2888337.629 6                  23141992.250
        36.000
 19  3  6 23 52 45.0000000  0  9G01G17G11G13G18G19G28G30G15
   2312756.01647    715140.34045  22627130.8594                   22627142.0354
        45.0004         30.0004
   1829664.60248  -1188773.95346  20992944.1334                   20992951.2894
        48.5004         36.0004
   3156307.66047   2305212.77044  22856232.1954                   22856236.9924
        44.5004         27.2504
   3411945.066 6                  22557686.547
        39.750
   3085227.15247   2186501.64543  23474110.9844                   23474117.5234
        42.2504         22.7504
    857823.53547  -1772849.75044  22170699.5784                   22170703.6954
        43.0004         28.7504
   2846292.36747   1662661.31645  21037729.7814                   21037734.9964
        46.5004         34.5004
   3809858.41447   3630679.02744  22959580.5554                   22959589.1994
        44.0004         27.0004
   2885509.344 5                  23141453.906
        34.250
 19  3  6 23 52 50.0000000  0  9G01G17G11G13G18G19G28G30G15
   2303119.57047    707631.41845  22625297.4844                   22625308.7774
        45.7504         31.5004
   1813862.21547  -1201087.49646  20989937.1724                   20989944.9264
        47.7504         37.0004
   3156858.84847   2305642.29344  22856336.9534                   22856342.6414
        44.5004         28.7504
   3415510.598 5                  22558364.703
        34.750
   3084927.74247   2186268.33643  23474054.3054                   23474061.0904
        42.2504         23.7504
    832018.32447  -1792957.67244  22165790.0554                   22165793.2234
        43.0004         27.0004
   2843108.81347   1660180.63745  21037123.9064                   21037129.8554
        47.0004         34.5004
   3817305.25847   3636481.76244  22960997.2034                   22961006.4454
        44.0004         27.0004
   2882692.859 5                  23140917.617
        34.250
 19  3  6 23 52 55.0000000  0  9G01G17G11G13G18G19G28G30G15
   2293498.71947    700134.65645  22623466.2584                   22623478.0744
        46.0004         31.2504
   1798070.56647  -1213392.67646  20986932.7504                   20986940.1054
        47.5004         36.7504
   3157422.41847   2306081.43444  22856444.8054                   22856449.5474
        44.5004         28.0004
   3419085.457 5                  22559045.883
        35.750
   3084641.95747   2186045.63344  23474000.0704                   23474007.2154
        42.0004         24.7504
    806220.23847  -1813060.08644  22160880.4924                   22160883.9574
        42.7504         27.2504
   2839929.86347   1657703.53545  21036519.5864                   21036524.6604
        47.0004         34.2504
   3824756.31347   3642287.78544  22962415.5864                   22962424.2464
        44.2504         27.7504
   2879888.742 5                  23140384.703
        32.500
 19  3  6 23 53  0.0000000  0  9G01G17G11G13G18G19G28G30G15
   2283893.65247    692650.20344  22621638.6644                   22621649.8634
        45.5004         29.7504
   1782289.88748  -1225689.30546  20983929.4304                   20983936.3324
        48.2504         36.2504
   3157998.55547   2306530.40644  22856554.3444                   22856559.6294
        44.7504         27.5004
   3422669.633 6                  22559728.016
        36.500
   3084370.05147   2185833.78943  23473948.2814                   23473955.8874
        42.5004         22.5004
    780429.45747  -1833156.80144  22155972.2814                   22155976.0864
        43.0004         25.5004
   2836755.68447   1655230.17245  21035914.6414                   21035920.5234
        46.0004         32.5004
   3832211.80547   3648097.25044  22963833.6334                   22963842.9414
        44.0004         25.5004
   2877096.863 5                  23139853.992
        32.500
 19  3  6 23 53  5.0000000  0  9G01G17G11G13G18G19G28G30G15
   2274304.10947    685177.80545  22619814.0864                   22619824.4064
        46.2504         33.2504
   1766519.98447  -1237977.53546  20980928.9384                   20980935.1214
        47.7504         37.7504
   3158587.00047   2306988.88344  22856666.3054                   22856671.0314
        44.0004         27.7504
   3426262.895 5                  22560411.797
        34.500
   3084111.73447   2185632.48843  23473899.5704                   23473906.8284
        42.2504         22.0004
    754645.70347  -1853247.98844  22151066.4304                   22151069.8014
        43.0004         28.7504
   2833586.05147   1652760.30545  21035312.6564                   21035316.5394
        46.2504         35.2504
   3839671.46947   3653909.97744  22965253.5234                   22965262.6054
        43.0004         27.0004
   2874317.125 6                  23139324.141
        40.000
 19  3  6 23 53 10.0000000  0  9G01G17G11G13G18G19G28G30G15
   2264729.99247    677717.43445  22617991.9144                   22618003.6914
        46.2504         30.2504
   1750760.69948  -1250257.56645  20977929.0554                   20977938.9774
        48.0004         35.7504
   3159187.64147   2307456.88744  22856779.8754                   22856786.3634
        44.0004         27.7504
   3429865.08615                  22561096.961
        34.500
   3083866.87947   2185441.60543  23473852.6414                   23473860.8364
        43.0004         21.5004
    728868.96947  -1873333.83244  22146160.0164                   22146164.7344
        42.2504         25.0004
   2830420.87147   1650293.87145  21034709.4844                   21034716.5204
        47.5004         32.2504
   3847135.25847   3659725.87543  22966672.9144                   22966682.9574
        42.2504         22.2504
   2871548.05916                  23138797.094
        41.250
 19  3  6 23 53 15.0000000  0  9G01G17G11G13G18G19G28G30G15
   2255171.422 7                  22616172.820
        44.000
   1735012.17648  -1262529.18045  20974933.3914                   20974945.6604
        48.0004         31.0004
   3159800.61747   2307934.51243  22856897.3204                   22856904.8554
        44.0004         23.7504
   3433476.328 5                  22561784.070
        33.750
   3083635.652 7                  23473808.391
        42.000
    703099.33247  -1893414.04743  22141257.7814                   22141261.9924
        43.5004         22.7504
   2827260.20748   1647830.99245  21034108.4224                   21034120.4884
        48.0004         30.7504
   3854603.19546   3665545.07843  22968095.1024                   22968105.6844
        41.2504         21.7504
   2868793.05116                  23138272.961
        39.250
 19  3  6 23 53 20.0000000  0  9G01G17G11G13G18G19G28G30G15
   2245628.62947    671165.36355  22614357.0234                   22614363.8324
        46.0004         32.0004
   1719274.58648  -1274792.05546  20971938.3754                   20971940.4534
        49.5004         37.2504
   3160425.96947   2308421.92244  22857015.8524                   22857021.2934
        44.0004         27.0004
   3437096.941 5                  22562472.664
        32.750
   3083418.09446   2185258.01253  23473766.7734                   23473773.0084
        41.7504         21.7504
    677336.96947  -1913488.52044  22136354.2974                   22136357.9804
        42.0004         25.0004
   2824104.25847   1645371.94145  21033507.7664                   21033510.3524
        46.7504         33.5004
   3862075.46947   3671367.71544  22969516.6334                   22969525.2894
        42.0004         24.0004
   2866049.371 6                  23137750.867
        37.000
 19  3  6 23 53 25.0000000  0  8G01G17G11G13G18G19G28G30
   2236101.57847    663741.68445  22612544.6884                   22612550.3954
        46.0004         31.5004
   1703547.91848  -1287046.66046  20968945.9694                   20968947.5554
        49.7504         38.0004
   3161063.85247   2308918.92644  22857138.0944                   22857140.6254
        44.0004         27.0004
   3440726.891 6                  22563163.742
        38.250
   3083214.38346   2185099.30143  23473728.5704                   23473733.6024
        41.7504         21.7504
    651581.98047  -1933557.36344  22131453.3914                   22131455.2544
        44.2504         27.7504
   2820953.01247   1642916.40645  21032908.1564                   21032909.2304
        46.7504         33.7504
   3869552.06647   3677193.58643  22970939.8444                   22970946.4414
        42.7504         22.7504
 19  3  6 23 53 30.0000000  0  8G01G17G11G13G18G19G28G30
   2226590.39847    656330.35545  22610734.5164                   22610739.6524
        45.7504         30.7504
   1687832.27748  -1299292.58645  20965955.2504                   20965956.9454
        49.0004         34.7504
   3161714.32847   2309425.78944  22857261.7034                   22857263.2194
        44.5004         26.0004
   3444366.281 5                  22563856.453
        34.250
   3083024.62147   2184951.38743  23473692.7344                   23473696.9774
        42.5004         21.0004
    625834.39847  -1953620.41044  22126553.6174                   22126554.7974
        42.7504         27.0004
   2817806.62547   1640464.66445  21032309.5084                   21032309.9064
        47.5004         34.7504
   3877033.18847   3683023.06644  22972363.0704                   22972369.2664
        43.0004         24.7504
 19  3  6 23 53 35.0000000  0  9G01G17G11G13G18G19G28G30G15
   2217095.39147    648931.64845  22608927.7274                   22608932.6764
        45.7504         32.0004
   1672128.05147  -1311529.62145  20962966.3364                   20962967.8014
        47.0004         34.7504
   3162377.66047   2309942.68844  22857387.9384                   22857389.1764
        44.5004         27.5004
   3448015.395 6                  22564551.391
        40.000
   3082848.86347   2184814.41843  23473658.7274                   23473662.8444
        43.5004         22.0004
    600094.58247  -1973677.37944  22121656.6094                   22121655.9884
        43.0004         24.7504
   2814665.33247   1638016.91845  21031712.0944                   21031712.1054
        46.7504         34.7504
   3884519.06347   3688856.19144  22973787.7894                   22973792.7584
        43.0004         25.2504
   2857891.86715                  23136198.438
        33.500
 19  3  6 23 53 40.0000000  0  9G01G17G11G13G18G19G28G30G15
   2207616.11747    641545.21145  22607123.9454                   22607128.8484
        46.7504         31.5004
   1656434.71147  -1323758.20345  20959980.2114                   20959981.7344
        47.7504         34.7504
   3163053.45347   2310469.28944  22857516.5004                   22857517.5204
        45.0004         27.5004
   3451673.719 7                  22565246.703
        42.000
   3082686.92647   2184688.26643  23473628.0164                   23473631.7774
        42.0004         22.0004
    574362.07447  -1993728.67244  22116758.9454                   22116759.0204
        42.5004         26.2504
   2811528.76247   1635572.83645  21031114.9774                   21031115.1804
        47.0004         34.2504
   3892009.28547   3694692.74244  22975212.8364                   22975217.7504
        42.7504         26.5004
   2855197.230 7                  23135685.375
        46.000
 19  3  6 23 53 45.0000000  0  9G01G17G11G13G18G19G28G30G15
   2198152.75047    634171.15645  22605323.0004                   22605328.0514
        46.2504         31.0004
   1640752.48047  -1335978.12545  20956995.8914                   20956997.6094
        47.7504         34.5004
   3163741.84847   2311005.68844  22857647.7194                   22857648.1804
        44.0004         26.7504
   3455341.410 6                  22565945.016
        41.250
   3082538.80547   2184572.84443  23473599.9774                   23473603.0824
        42.0004         21.5004
    548637.03547  -2013774.14544  22111864.2194                   22111863.4924
        43.0004         27.0004
   2808397.05947   1633132.55545  21030518.7034                   21030519.5274
        47.0004         34.7504
   3899503.93047   3700532.70344  22976639.7894                   22976643.6134
        43.2504         26.5004
   2852514.934 7                  23135175.523
        43.000
 19  3  6 23 53 50.0000000  0  9G01G17G11G13G18G19G28G30G15
   2188705.37947    626809.57045  22603525.3284                   22603530.2154
        46.2504         31.2504
   1625081.42647  -1348189.32845  20954014.2814                   20954015.4224
        47.7504         35.0004
   3164442.85247   2311551.92644  22857780.8204                   22857781.5554
        43.5004         27.7504
   3459018.50446   2736961.23053  22566644.8984                   22566645.1884
        41.2504         21.2504
   3082404.64847   2184468.32043  23473574.5234                   23473577.8094
        43.0004         22.2504
    522919.55147  -2033813.73044  22106970.5004                   22106969.9144
        43.0004         27.0004
   2805270.31347   1630696.12545  21029924.0704                   21029924.4734
        47.0004         34.2504
   3907003.11347   3706376.23044  22978066.1724                   22978070.7194
        42.2504         26.5004
   2849845.020 7                  23134666.914
        43.500
 19  3  6 23 53 55.0000000  0  9G01G17G11G13G18G19G28G30G15
   2179274.19147    619460.58645  22601730.1174                   22601735.5554
        46.0004         32.0004
   1609421.75447  -1360391.66845  20951033.7504                   20951035.1374
        47.7504         34.5004
   3165156.72347   2312108.19144  22857916.5554                   22857917.4064
        43.2504         26.7504
   3462705.26646   2739834.03143  22567346.7114                   22567346.6134
        41.5004         19.5004
   3082284.63346   2184374.80143  23473551.2664                   23473554.6724
        41.2504         22.0004
    497209.92247  -2053847.20744  22102077.8594                   22102077.3404
        43.0004         26.7504
   2802148.71947   1628263.71945  21029330.3054                   21029330.3834
        47.0004         34.5004
   3914507.07047   3712223.44544  22979494.1724                   22979498.3554
        42.5004         27.0004
   2847187.688 7                  23134161.891
        43.000
 19  3  6 23 54  0.0000000  0  9G01G17G11G13G18G19G28G30G15
   2169859.10947    612124.16045  22599939.0084                   22599944.0314
        45.7504         31.2504
   1593773.35548  -1372585.23045  20948056.2734                   20948057.4064
        48.0004         34.5004
   3165883.36747   2312674.41844  22858054.6884                   22858055.5394
        43.7504         26.5004
   3466401.53946   2742714.22743  22568050.6094                   22568050.1914
        41.5004         19.5004
   3082178.61347   2184292.18443  23473531.6954                   23473533.8874
        42.0004         22.0004
    471507.96547  -2073874.69544  22097186.6644                   22097186.2854
        43.5004         26.0004
   2799032.16847   1625835.23845  21028736.7424                   21028737.1564
        47.0004         34.5004
   3922015.64147   3718074.27744  22980923.4534                   22980927.4144
        43.0004         28.2504
   2844542.773 7                  23133658.930
        44.000
 19  3  6 23 54  5.0000000  0  9G01G17G11G13G18G19G28G30G15
   2160459.98047    604800.17245  22598150.5784                   22598155.0514
        46.2504         32.0004
   1578136.13348  -1384770.07445  20945080.7274                   20945081.8914
        48.0004         34.7504
   3166622.60547   2313250.45744  22858195.9924                   22858196.2424
        43.7504         27.0004
   3470107.21546   2745601.75843  22568755.4454                   22568755.8324
        41.0004         18.5004
   3082086.51247   2184220.39843  23473514.0944                   23473516.8714
        42.5004         22.0004
    445813.59847  -2093896.28144  22092297.0234                   22092296.5634
        43.0004         26.0004
   2795920.53547   1623410.58645  21028144.5554                   21028144.9574
        47.2504         34.5004
   3929528.71947   3723928.62944  22982352.8754                   22982357.1054
        43.7504         27.7504
   2841910.176 7                  23133157.539
        44.000
 19  3  6 23 54 10.0000000  0  9G01G17G11G13G18G19G28G30G15
   2151076.99647    597488.74645  22596364.5784                   22596369.3674
        46.0004         30.7504
   1562510.25048  -1396946.09445  20942106.7814                   20942108.5514
        48.0004         35.0004
   3167374.55547   2313836.36344  22858338.6174                   22858339.2304
        43.7504         27.0004
   3473822.41046   2748496.69943  22569463.0164                   22569462.3954
        41.7504         19.0004
   3082008.46146   2184159.62143  23473498.4534                   23473501.6294
        41.7504         21.2504
    420127.02347  -2113911.80144  22087409.6024                   22087408.6254
        43.0004         26.0004
   2792813.97747   1620989.89145  21027553.3594                   21027553.8054
        47.0004         34.0004
   3937046.43847   3729786.58244  22983783.2274                   22983787.7584
        43.5004         27.2504
   2839290.06647   1841022.12954  23132659.1024                   23132660.9344
        43.5004         25.0004
 19  3  6 23 54 15.0000000  0  9G01G17G11G13G18G19G28G30G15
   2141710.08647    590189.87145  22594582.3984                   22594586.8794
        46.2504         31.5004
   1546895.68047  -1409113.29345  20939135.1804                   20939136.8284
        47.7504         34.5004
   3168139.25047   2314432.25044  22858484.0634                   22858484.6334
        43.7504         26.7504
   3477547.09446   2751399.06643  22570170.6884                   22570171.5594
        41.7504         18.2504
   3081944.39846   2184109.69943  23473486.6334                   23473489.8364
        41.5004         21.2504
    394448.17247  -2133921.28944  22082522.8444                   22082522.1684
        43.2504         26.0004
   2789712.44547   1618573.11745  21026963.5474                   21026964.0004
        47.5004         34.5004
   3944568.74247   3735648.10544  22985214.9844                   22985218.8634
        43.5004         28.0004
   2836682.38347   1838990.10543  23132162.7894                   23132164.3914
        43.0004         22.0004
 19  3  6 23 54 20.0000000  0  9G01G17G11G13G18G19G28G30G15
   2132359.23847    582903.48845  22592802.4534                   22592807.7464
        46.0004         31.2504
   1531292.37948  -1421271.70345  20936166.2584                   20936168.0204
        48.2504         34.7504
   3168916.59847   2315037.97744  22858632.2344                   22858632.6374
        43.7504         26.7504
   3481281.23047   2754308.74642  22570881.5864                   22570882.6334
        42.0004         17.2504
   3081894.29347   2184070.62943  23473477.4534                   23473480.1414
        42.5004         21.5004
    368777.01647  -2153924.76644  22077637.4924                   22077636.8134
        43.0004         25.7504
   2786615.93047   1616160.24645  21026374.0634                   21026374.7304
        47.2504         34.7504
   3952095.62947   3741513.20344  22986647.4144                   22986651.5394
        43.7504         27.5004
   2834087.14847   1836967.85543  23131669.0004                   23131670.7194
        44.0004         22.7504
 19  3  6 23 54 25.0000000  0  9G01G17G11G13G18G19G28G30G15
   2123024.94947    575630.02045  22591026.6024                   22591031.6254
        46.0004         31.0004
   1515700.76248  -1433421.02045  20933199.2974                   20933200.7814
        48.0004         34.7504
   3169707.03547   2315653.88744  22858782.8674                   22858783.6094
        44.0004         27.5004
   3485025.05946   2757226.05142  22571593.4924                   22571594.8954
        41.2504         16.7504
   3081858.51647   2184042.75843  23473470.7584                   23473473.2974
        42.5004         21.5004
    343114.03147  -2173921.90244  22072754.9534                   22072753.4494
        43.7504         26.5004
   2783524.83247   1613751.59845  21025786.0864                   21025786.2544
        47.0004         34.5004
   3959627.68047   3747382.33244  22988080.8984                   22988084.7544
        43.7504         29.5004
   2831504.27346   1834955.24243  23131176.8834                   23131179.4734
        41.5004         22.0004
 19  3  6 23 54 30.0000000  0  9G01G17G11G13G18G19G28G30G15
   2113706.70747    568369.05545  22589253.3984                   22589258.5864
        46.0004         31.7504
   1500120.38748  -1445561.56645  20930234.8284                   20930235.8484
        48.0004         35.0004
   3170510.11747   2316279.66844  22858935.5004                   22858936.3364
        43.5004         27.5004
   3488778.28946   2760150.64542  22572307.2894                   22572309.6604
        41.7504         16.2504
   3081836.61346   2184025.67243  23473466.0314                   23473469.1804
        41.2504         21.0004
    317458.75847  -2193913.00444  22067872.4774                   22067871.6054
        43.7504         26.0004
   2780438.77347   1611346.86345  21025198.6024                   21025199.1024
        47.2504         34.5004
   3967164.27347   3753255.01645  22989514.5164                   22989518.9184
        44.0004         30.5004
   2828933.85246   1832952.28543  23130688.3524                   23130690.6174
        37.5004         19.7504
 19  3  6 23 54 35.0000000  0  9G01G17G11G13G18G19G28G30G15
   2104403.98047    561120.18445  22587482.9304                   22587488.3714
        46.2504         31.7504
   1484550.83248  -1457693.68745  20927271.6334                   20927273.0234
        48.0004         34.5004
   3171325.23047   2316914.82844  22859090.6174                   22859091.2074
        43.5004         28.2504
   3492540.60546   2763082.30142  22573024.3364                   22573025.3484
        40.7504         16.2504
   3081828.23047   2184019.14143  23473465.1804                   23473467.6994
        42.2504         20.5004
    291810.81647  -2213898.44144  22062990.4694                   22062990.8404
        42.0004         25.5004
   2777357.19547   1608945.64545  21024612.0704                   21024612.3284
        47.2504         34.2504
   3974704.69147   3759130.65245  22990949.7194                   22990953.7274
        44.2504         31.0004
   2826375.70745   1830958.89843  23130201.1804                   23130204.0314
        34.7504         18.2504
 19  3  6 23 54 40.0000000  0  9G01G17G11G13G18G19G28G30G15
   2095117.94147    553884.31345  22585715.9534                   22585721.3404
        46.0004         32.2504
   1468993.18848  -1469816.53545  20924311.5704                   20924312.7584
        48.2504         35.0004
   3172153.65647   2317560.34444  22859247.7194                   22859248.8204
        43.7504         27.5004
   3496312.96546   2766021.81342  22573741.2194                   22573743.3594
        41.0004         16.2504
   3081834.39547   2184023.94543  23473465.7664                   23473468.8134
        43.0004         21.2504
    266171.29747  -2233877.27344  22058112.5164                   22058112.1764
        42.5004         26.0004
   2774281.26647   1606548.81345  21024026.9224                   21024027.3014
        47.5004         34.7504
   3982250.32847   3765010.36745  22992385.3364                   22992389.3444
        44.0004         30.5004
   2823830.51246   1828975.65242  23129716.8834                   23129720.5984
        36.5004         16.2504
 19  3  6 23 54 45.0000000  0  9G01G17G11G13G18G19G28G30G15
   2085849.41447    546662.08645  22583952.3054                   22583957.2074
        46.5004         31.5004
   1453448.22748  -1481929.48845  20921353.1884                   20921354.5164
        48.2504         35.5004
   3172996.13347   2318216.82044  22859408.0314                   22859408.7034
        43.7504         27.5004
   3500096.15246   2768969.72742  22574461.7814                   22574463.5204
        40.7504         16.2504
   3081855.96947   2184040.74643  23473470.3364                   23473472.5274
        42.7504         21.2504
    240540.92247  -2253848.96144  22053236.1174                   22053234.5514
        44.5004         25.7504
   2771211.71547   1604156.94545  21023442.7974                   21023443.0824
        47.2504         34.7504
   3989801.87147   3770894.68045  22993822.5864                   22993826.3634
        44.5004         30.2504
   2821299.00445   1827003.05542  23129235.4924                   23129239.1954
        34.7504         16.7504
 19  3  6 23 54 50.0000000  0  9G01G17G11G13G18G19G28G30G15
   2076600.59047    539455.24645  22582191.9534                   22582197.5164
        45.5004         30.7504
   1437916.23448  -1494032.30545  20918397.7424                   20918399.4534
        48.7504         35.5004
   3173854.27047   2318885.53144  22859571.2114                   22859573.0944
        44.0004         28.7504
   3503888.21947   2771924.64542  22575184.0234                   22575185.1994
        42.5004         16.2504
   3081893.84847   2184070.28143  23473477.3364                   23473480.5124
        43.5004         22.0004
    214919.52347  -2273813.70344  22048359.0004                   22048358.6254
        43.0004         26.5004
   2768149.55947   1601770.88745  21022859.6804                   21022860.6644
        46.7504         34.2504
   3997362.11347   3776785.76645  22995260.9614                   22995265.1724
        43.7504         30.5004
   2818777.73047   1825038.45742  23128755.9844                   23128759.5164
        42.2504         16.2504
 19  3  6 23 54 55.0000000  0  9G01G17G11G13G18G19G28G30G15
                                  22580437.4304                   22580444.1374
        45.5004         30.5004
   1422395.74258  -1506126.27355  20915444.2734                   20915451.5314
        48.0004         34.7504
   3174732.38357   2319569.71154  22859738.7974                   22859741.1724
        44.5004         27.0004
   3507681.22357   2774880.13352  22575905.5554                   22575908.1414
        43.0004         15.5004
   3081951.07046   2184114.82443  23473488.6094                   23473492.1484
        41.7504         22.7504
                                  22043485.2114                   22043486.3754
        43.7504         28.0004
   2765096.84447   1599392.08645  21022278.7974                   21022281.8634
        46.5004         33.0004
   4004935.41457   3782687.02354  22996702.5784                   22996707.9774
        43.2504         29.2504
                                  23128275.2114                   23128280.2274
        42.5004         16.2504
 19  3  6 23 55  0.0000000  0  9G01G17G11G13G18G19G28G30G15
   2058169.53147    525093.36745  22578685.2424                   22578689.0314
        46.7504         30.5004
   1406889.22748  -1518209.20345  20912493.7114                   20912493.8984
        48.5004         34.5004
   3175622.62547   2320263.48444  22859908.9224                   22859909.5234
        44.0004         27.0004
   3511486.77747   2777845.57442  22576630.1804                   22576632.1214
        42.0004         16.7504
   3082021.18447   2184169.50043  23473502.3674                   23473505.0394
        42.0004         21.7504
    163698.20747  -2313726.37944  22038612.7814                   22038611.7464
        43.2504         26.2504
   2762050.14547   1597018.09445  21021699.6174                   21021698.6374
        47.0004         33.5004
   4012516.82847   3788594.62144  22998145.2034                   22998149.3134
        44.5004         27.0004
   2813747.05147   1821118.38343  23127798.6094                   23127802.2034
        43.2504         19.5004
 19  3  6 23 55  5.0000000  0  6G01G11G13G28G30G15
                                  22576935.7664                   22576942.5864
        43.5004         29.2504
                                  22860080.3594                   22860082.4304
        40.7504         24.5004
                                  22577354.8054                   22577359.3634
        39.0004         16.2504
                                  21021119.9454                   21021121.4384
        44.0004         31.7504
                                  22999588.7344                   22999593.9574
        38.5004         26.0004
                                  23127323.2814                   23127328.8444
        39.5004         18.2504
 19  3  6 23 55 10.0000000  0  9G01G17G11G13G18G19G28G30G15
   2039813.94957    510790.34854  22575191.7274                   22575195.2384
        46.5004         29.2504
   1375920.08258  -1542340.98855  20906600.0864                   20906599.2344
        48.5004         35.5004
   3177451.84057   2321688.82853  22860256.5394                   22860255.9694
        43.0004         23.2504
   3519135.07817                  22578085.516
        42.000
   3082215.07057   2184320.83653  23473538.8444                   23473542.0204
        42.5004         19.7504
    112519.22357  -2353605.97354  22028874.4064                   22028871.7034
        43.0004         25.5004
   2755979.29757   1592476.09855  21020544.1954                   21020543.7464
        47.0004         33.2504
   4027704.68457   3800429.08254  23001035.6724                   23001038.9494
        42.7504         25.5004
   2808778.94557   1817247.44953  23126852.7344                   23126856.3874
        42.5004         19.0004
 19  3  6 23 55 15.0000000  0 10G01G17G11G13G18G19G24G28G30G15
   2030664.60947    503660.97744  22573451.4844                   22573453.5554
        45.5004         29.0004
   1360456.62948  -1554390.43446  20903657.8594                   20903656.6684
        49.2504         36.0004
   3178389.88347   2322419.78943  22860434.6804                   22860434.1524
        42.2504         22.5004
   3522979.25047   2783335.28953  22578817.0084                   22578815.2194
        42.0004         19.7504
   3082337.21546   2184415.95743  23473562.0864                   23473564.7234
        39.0004         19.2504
     86948.00247  -2373531.58744  22024008.2114                   22024005.7194
        44.2504         27.2504
   2864372.42615                  23451407.773
        34.500
   2752956.49647   1590120.69945  21019969.2034                   21019967.9964
        46.2504         32.7504
   4035309.98047   3806355.32844  23002483.0084                   23002485.5704
        44.0004         28.0004
   2806318.32847   1815330.00443  23126384.7814                   23126387.5314
        44.0004         18.2504
 19  3  6 23 55 20.0000000  0 10G01G17G11G13G18G19G24G28G30G15
   2021545.60247    496555.26644  22571715.8364                   22571718.9574
        45.5004         29.5004
   1345020.51948  -1566418.58145  20900719.8134                   20900718.8014
        49.0004         35.5004
   3179354.00046   2323171.02344  22860618.3594                   22860617.1684
        41.5004         24.5004
   3526847.57947   2786349.58043  22579553.1174                   22579551.1764
        43.0004         18.5004
   3082485.87546   2184531.81343  23473589.8524                   23473592.2664
        38.5004         19.5004
     61400.41447  -2393438.81644  22019146.7974                   22019143.9804
        44.5004         28.0004
   2838925.844 5                  23446565.039
        34.000
   2749953.91447   1587781.00845  21019398.1024                   21019396.3164
        46.0004         32.5004
   4042935.98847   3812297.64144  23003933.8444                   23003936.2424
        43.2504         29.5004
   2803883.23647   1813432.55343  23125921.0164                   23125923.3444
        42.2504         18.5004
 19  3  6 23 55 25.0000000  0 10G01G17G11G13G18G19G24G28G30G15
   2012457.87547    489473.89844  22569986.2194                   22569988.8714
        45.2504         29.5004
   1329608.30148  -1578428.09846  20897787.2894                   20897786.6334
        48.7504         37.2504
   3180346.42247   2323944.34044  22860807.0704                   22860805.9694
        42.2504         25.2504
   3530737.40646   2789380.60242  22580293.1024                   22580291.3324
        41.2504         17.7504
   3082664.59446   2184671.04743  23473623.5944                   23473626.6054
        41.0004         19.5004
     35872.77347  -2413330.48444  22014289.5164                   22014286.6564
        44.2504         29.0004
   2813498.527 5                  23441726.578
        35.000
   2746970.44947   1585456.24645  21018830.4454                   21018828.8674
        46.2504         33.0004
   4050579.28947   3818253.46944  23005388.4844                   23005390.5864
        43.0004         29.5004
   2801473.85547   1811555.09842  23125462.5784                   23125465.0474
        42.2504         17.7504
 19  3  6 23 55 30.0000000  0 10G01G17G11G13G18G19G24G28G30G15
   2003389.03147    482407.28144  22568260.2734                   22568263.1914
        45.5004         29.0004
   1314211.24247  -1590425.78545  20894857.3364                   20894857.0554
        47.2504         33.5004
   3181352.65247   2324728.42643  22860998.4844                   22860996.9574
        43.5004         22.7504
   3534637.76246   2792419.81342  22581035.3594                   22581034.6374
        41.2504         17.7504
   3082856.99147   2184820.98643  23473661.1484                   23473662.6804
        43.0004         20.2504
     10356.55547  -2433213.21544  22009434.0084                   22009431.2504
        42.5004         25.0004
   2788071.59845   2366248.77753  23436888.6414                   23436888.9344
        35.2504         19.2504
   2743995.05147   1583137.76645  21018263.9144                   21018262.5704
        46.7504         32.0004
   4058233.46547   3824217.83644  23006844.6484                   23006846.9884
        44.2504         25.0004
   2799074.25047   1809685.28943  23125006.1484                   23125008.0474
        42.5004         21.5004
 19  3  6 23 55 35.0000000  0 10G01G17G11G13G18G19G24G28G30G15
   1994343.91047    475359.14844  22566539.4844                   22566541.6914
        45.0004         27.2504
   1298834.21547  -1602407.89845  20891930.9454                   20891929.1214
        47.2504         32.7504
   3182379.71547   2325528.73443  22861194.1024                   22861192.4144
        42.0004         23.0004
   3538558.00847   2795474.55942  22581781.0704                   22581780.9414
        42.2504         17.7504
   3083072.12547   2184988.63343  23473701.6644                   23473702.7074
        42.5004         19.5004
    -15142.52747  -2453082.64143  22004580.6884                   22004578.4454
        42.5004         22.7504
   2762661.98445   2346449.12943  23432051.9844                   23432054.0984
        35.5004         18.2504
   2741032.85247   1580829.54345  21017700.2114                   21017697.9064
        46.5004         31.2504
   4065899.04747   3830190.92243  23008304.1414                   23008305.6094
        43.2504         22.5004
   2796699.19547   1807834.60243  23124553.4694                   23124555.4924
        43.0004         19.7504
 19  3  6 23 55 40.0000000  0 10G01G17G11G13G18G19G24G28G30G15
   1985319.45447    468327.12144  22564822.1884                   22564823.7304
        45.5004         29.5004
   1283472.94947  -1614377.69145  20889008.1414                   20889006.1994
        47.5004         33.0004
   3183423.86447   2326342.37743  22861392.9844                   22861391.1174
        43.0004         23.5004
   3542492.12246   2798540.04942  22582530.0234                   22582529.4884
        41.5004         16.7504
   3083305.68446   2185170.63043  23473745.6954                   23473747.3444
        41.7504         19.0004
    -40629.14147  -2472942.30543  21999730.8674                   21999727.5904
        42.5004         22.5004
                                  23427219.3364                   23427220.6524
        34.7504         17.2504
   2738080.11747   1578528.73845  21017138.2114                   21017135.2194
        47.0004         32.0004
   4073573.74646   3836171.22744  23009764.0314                   23009765.6484
        41.7504         24.7504
   2794341.00646   1805997.03343  23124105.7344                   23124107.2704
        38.0004         18.5004
 19  3  6 23 55 45.0000000  0 10G01G17G11G13G18G19G24G28G30G15
   1976308.18047    461305.34845  22563107.5864                   22563108.8834
        46.0004         30.2504
   1268118.86347  -1626341.91045  20886086.2344                   20886083.9804
        47.5004         32.7504
   3184477.62147   2327163.48844  22861593.0704                   22861590.8324
        43.5004         25.2504
   3546431.09046   2801609.41442  22583279.7344                   22583279.8874
        41.0004         16.2504
   3083550.24647   2185361.19143  23473793.0784                   23473792.4774
        42.5004         19.7504
    -66111.98446  -2492799.11743  21994882.0004                   21994878.5594
        41.0004         23.5004
   2711861.89845   2306864.57042  23422386.5394                   23422387.9844
        34.5004         15.5004
   2735128.50047   1576228.76645  21016576.8594                   21016573.8634
        47.0004         32.5004
   4081249.92647   3842152.68844  23011225.5394                   23011225.7934
        44.0004         26.0004
   2791990.477 6                  23123657.891
        40.750
 19  3  6 23 55 50.0000000  0 10G01G17G11G13G18G19G24G28G30G15
   1967313.80947    454296.73844  22561394.8204                   22561396.9534
        45.0004         28.5004
   1252776.76648  -1638296.79745  20883166.5784                   20883164.9064
        48.2504         34.0004
   3185545.18847   2327995.35544  22861796.3054                   22861794.4534
        42.5004         24.7504
   3550379.46546   2804686.09842  22584030.9064                   22584030.9884
        40.7504         15.5004
   3083809.98846   2185563.59443  23473841.8594                   23473841.9184
        41.5004         19.2504
    -91587.20347  -2512649.87944  21990033.9844                   21990031.1804
        43.0004         24.5004
   2686469.141 5                  23417554.078
        33.500
   2732183.26647   1573933.79345  21016016.2424                   21016013.9414
        46.5004         31.5004
   4088929.34447   3848136.60544  23012685.6884                   23012687.4024
        43.0004         25.7504
   2789653.629 6                  23123213.188
        39.750
 19  3  6 23 55 55.0000000  0 10G01G17G11G13G18G19G24G28G30G15
   1958335.73047    447300.83244  22559687.6724                   22559688.8714
        44.5004         28.5004
   1237446.61747  -1650242.36745  20880249.4384                   20880247.0354
        47.5004         32.5004
   3186625.05147   2328836.78143  22862002.2114                   22861999.0784
        43.5004         22.7504
   3554337.91846   2807770.58242  22584783.9454                   22584783.9924
        41.5004         16.7504
   3084083.02347   2185776.30943  23473894.5314                   23473893.8794
        42.5004         18.5004
   -117053.25847  -2532493.55143  21985188.0314                   21985184.5474
        42.5004         23.0004
   2661080.215 5                  23412720.953
        35.250
   2729243.18447   1571642.81345  21015456.9694                   21015453.7704
        46.2504         31.5004
   4096614.99647   3854125.44544  23014149.3204                   23014150.1374
        43.2504         24.0004
   2787328.848 6                  23122770.594
        38.750
 19  3  6 23 56  0.0000000  0 10G01G17G11G13G18G19G24G28G30G15
   1949377.62547    440320.51644  22557983.2504                   22557983.7234
        45.2504         29.5004
   1222131.81347  -1662175.95745  20877335.0004                   20877332.9534
        47.0004         31.0004
   3187721.12547   2329690.89144  22862210.3674                   22862208.0044
        44.0004         25.7504
   3558308.78947   2810864.67242  22585539.0784                   22585539.4654
        42.7504         15.5004
   3084373.36347   2186002.60943  23473948.9454                   23473948.8054
        43.2504         19.5004
   -142507.82447  -2552328.26243  21980344.2034                   21980340.5234
        42.2504         22.7504
   2635698.625 5                  23407892.711
        35.250
   2726312.33647   1569359.03545  21014899.2344                   21014896.1054
        46.7504         32.2504
   4104308.94947   3860120.75443  23015613.1954                   23015613.9924
        43.7504         22.5004
   2785019.133 6                  23122330.453
        40.500
 19  3  6 23 56  5.0000000  0 10G01G17G11G13G18G19G24G28G30G15
   1940443.63347    433358.96144  22556282.5634                   22556283.9414
        46.0004         28.5004
   1206835.32047  -1674095.31645  20874424.5474                   20874421.8874
        47.5004         31.2504
   3188837.80547   2330561.03144  22862423.5314                   22862420.3834
        45.7504         24.5004
   3562295.15647   2813970.98442  22586298.5474                   22586297.5084
        42.2504         14.7504
   3084685.62147   2186245.90243  23474008.4224                   23474007.9654
        45.5004         20.2504
   -167947.92246  -2572151.76243  21975502.9384                   21975498.9224
        40.7504         22.7504
   2610328.949 5                  23403065.102
        33.500
   2723394.12147   1567085.09445  21014344.0864                   21014340.5004
        47.2504         31.0004
   4112014.38247   3866124.94544  23017079.3914                   23017079.6254
        43.2504         24.5004
   2782728.14546   1804632.09453  23121895.4304                   23121892.7074
        39.0004         19.0004
 19  3  6 23 56 10.0000000  0 10G01G17G11G13G18G19G24G28G30G15
   1931523.74657    426408.16054  22554583.6724                   22554588.2664
        44.2504         27.7504
   1191548.69557  -1686006.75855  20871514.6484                   20871513.9844
        47.5004         32.5004
   3189965.84657   2331439.96153  22862636.7194                   22862635.7194
        42.2504         21.2504
   3566288.74616                  22587057.656
        39.750
   3085011.07056   2186499.56653  23474069.3674                   23474070.2774
        39.0004         19.0004
   -193382.59857  -2591970.97753  21970662.2974                   21970659.9064
        42.5004         22.0004
                                  23398236.656
        27.250
   2720479.01657   1564813.57854  21013788.1414                   21013786.7934
        45.2504         29.0004
   4119721.21556   3872130.21953  23018545.0864                   23018547.4304
        41.0004         22.2504
   2780448.21115                  23121460.602
        35.000
 19  3  6 23 56 15.0000000  0 10G01G17G11G13G18G19G24G28G30G15
   1922610.18857    419462.57054  22552889.9774                   22552890.7034
        44.5004         28.7504
   1176262.83647  -1697917.80945  20868606.7734                   20868603.9264
        47.5004         33.5004
   3191097.08247   2332321.52043  22862853.1024                   22862850.4414
        43.7504         22.5004
   3570283.277 7                  22587818.875
        42.500
   3085341.31347   2186756.80143  23474134.5084                   23474133.1254
        42.5004         20.5004
   -218818.35547  -2611791.02044  21965822.9304                   21965819.2114
        42.7504         25.0004
   2559597.02715                  23393411.391
        34.500
   2717559.07047   1562538.31345  21013233.9454                   21013230.2114
        46.2504         31.5004
   4127422.50047   3878131.26643  23020012.0084                   23020012.3134
        43.5004         22.0004
   2778172.91016                  23121028.461
        37.000
