     2.11           OBSERVATION DATA    G (GPS)             RINEX VERSION / TYPE
teqc  2019Feb25     Martin Truffer      20190308 01:04:21UTCPGM / RUN BY / DATE
Linux 2.6.32-573.12.1.x86_64|x86_64|gcc|Linux 64|=+         COMMENT
BIT 2 OF LLI FLAGS DATA COLLECTED UNDER A/S CONDITION       COMMENT
51890631                                                    MARKER NAME
5189                                                        MARKER NUMBER
-Unknown-           -Unknown-                               OBSERVER / AGENCY
0220315189          TRIMBLE 5700        2.30                REC # / TYPE / VERS
-Unknown-           TRM41249.00     NONE                    ANT # / TYPE
 -1794950.5146 -3484299.1434  5017606.8286                  APPROX POSITION XYZ
        0.0530        0.0000        0.0000                  ANTENNA: DELTA H/E/N
     1     1                                                WAVELENGTH FACT L1/2
     7    L1    L2    C1    P1    P2    S1    S2            # / TYPES OF OBSERV
    18                                                      LEAP SECONDS
 SNR is mapped to RINEX snr flag value [0-9]                COMMENT
  L1 & L2: min(max(int(snr_dBHz/6), 0), 9)                  COMMENT
  2019     3     4    21    47   20.0000000     GPS         TIME OF FIRST OBS
                                                            END OF HEADER
 19  3  4 21 47 20.0000000  0  3G08G27G30
     -8589.04757     -2798.15255  22004599.2974                   22004599.0634
        46.0004         35.7504
      9024.70716                  23980627.625
        40.750
    -34234.38757    -10575.19955  20179483.6484                   20179484.4384
        45.0004         32.5004
 19  3  4 21 47 25.0000000  0  3G08G27G30
    -13045.41447     -6270.73046  22003751.2584                   22003752.1334
        46.7504         36.0004
     12758.97346      5468.62154  23981338.3984                   23981338.8834
        40.7504         26.5004
    -47412.68047    -20844.07445  20176976.1884                   20176976.9774
        46.0004         34.5004
 19  3  4 21 47 30.0000000  0  3G08G27G30
    -17579.70747     -9803.91045  22002887.7424                   22002888.9964
        46.2504         35.7504
     16409.20746      8312.95744  23982032.6724                   23982033.4774
        40.0004         26.7504
    -60672.29747    -31176.19945  20174452.4224                   20174453.5204
        45.0004         33.2504
 19  3  4 21 47 35.0000000  0  3G08G27G30
    -22163.06647    -13375.36746  22002015.5234                   22002017.0204
        45.5004         36.0004
     20004.02346     11114.11344  23982716.4614                   23982717.6214
        39.5004         26.2504
    -73984.54347    -41549.39846  20171918.8834                   20171920.2304
        46.7504         37.0004
 19  3  4 21 47 40.0000000  0  3G08G27G30
    -26770.89847    -16965.87546  22001138.8284                   22001140.0784
        46.5004         36.5004
     23568.20746     13891.39544  23983395.1024                   23983395.9844
        40.0004         26.7504
    -87324.62947    -51944.25446  20169380.9774                   20169381.6054
        46.0004         36.7504
 19  3  4 21 47 45.0000000  0  4G07G08G27G30
    -26358.17258    -16296.91055  21019724.4694                   21019722.4224
        48.2504         35.5004
    -31384.34447    -20560.77746  22000260.6414                   22000262.0274
        46.5004         36.7504
     27120.58246     16659.49244  23984070.5864                   23984072.2464
        39.7504         26.7504
   -100673.80547    -62346.21146  20166840.4384                   20166841.0904
        46.2504         36.2504
 19  3  4 21 47 50.0000000  0  6G07G08G13G27G28G30
    -29990.25847    -19127.12145  21019033.8364                   21019032.1604
        47.7504         34.7504
    -35989.87547    -24149.50446  21999385.0234                   21999385.7814
        47.0004         36.5004
   -211918.14856    -62421.43054  22279972.6334                   22279970.9264
        37.5004         26.5004
     30674.57446     19428.83644  23984746.9694                   23984748.5354
        40.2504         26.7504
   -138636.44956    -79747.29753  21084376.7894                   21084374.3244
        38.0004         21.5004
   -114018.55147    -72744.71545  20164301.0634                   20164301.9534
        45.7504         35.5004
 19  3  4 21 47 55.0000000  0  6G07G08G13G27G28G30
    -33610.33648    -21947.95745  21018344.8444                   21018343.0744
        48.0004         35.5004
    -40578.24647    -27724.85546  21998511.4614                   21998512.0904
        47.0004         36.7504
   -236590.66846    -81646.77744  22275278.1724                   22275276.3634
        38.2504         26.7504
     34239.44546     22206.64544  23985425.4304                   23985427.0274
        40.0004         26.7504
   -159452.93746    -95967.92243  21080415.0234                   21080413.0594
        38.7504         21.0004
   -127349.55947    -83132.51246  20161764.4144                   20161765.0514
        46.0004         36.0004
 19  3  4 21 48  0.0000000  0  6G07G08G13G27G28G30
    -37211.87147    -24754.35545  21017658.8444                   21017657.8014
        47.5004         35.2504
    -45142.97747    -31281.79746  21997642.5634                   21997643.8014
        47.0004         36.7504
   -261242.50446   -100856.01644  22270586.7344                   22270585.3754
        37.7504         24.7504
     37821.82046     24998.09044  23986107.1254                   23986108.1684
        40.5004         27.0004
   -180251.16846   -112174.36343  21076457.3444                   21076455.6764
        38.7504         21.2504
   -140660.28947    -93504.51246  20159231.1334                   20159232.1094
        46.0004         36.0004
 19  3  4 21 48  5.0000000  0  6G07G08G13G27G28G30
    -40789.93747    -27542.46545  21016978.3444                   21016976.9344
        47.7504         35.2504
    -49679.03947    -34816.38746  21996779.3364                   21996780.6134
        46.5004         36.5004
   -285868.82446   -120045.33644  22265900.2274                   22265899.3554
        38.0004         24.5004
     41426.58246     27806.98444  23986793.3834                   23986794.4614
        40.7504         27.0004
   -201026.25446   -128362.73043  21072503.7034                   21072501.8674
        38.7504         21.5004
   -153945.77747   -103856.84046  20156703.2504                   20156704.0204
        46.0004         36.0004
 19  3  4 21 48 10.0000000  0  6G07G08G13G27G28G30
    -44341.16047    -30309.64545  21016302.6804                   21016300.6684
        47.7504         35.2504
    -54183.03547    -38326.00046  21995922.4844                   21995923.7504
        47.0004         36.5004
   -310466.15246   -139212.09044  22261220.1024                   22261218.3324
        39.0004         24.5004
     45057.10246     30635.96144  23987483.6954                   23987484.9064
        40.5004         27.5004
   -221774.71546   -144530.36743  21068555.6884                   21068553.9574
        38.7504         21.2504
   -167202.60947   -114186.84445  20154180.5944                   20154181.3634
        46.0004         35.5004
 19  3  4 21 48 15.0000000  0  6G07G08G13G27G28G30
    -47862.89547    -33053.86345  21015632.1884                   21015631.0084
        47.7504         35.2504
    -58652.46547    -41808.66446  21995071.7814                   21995073.1604
        46.7504         36.7504
   -335031.92246   -158354.25044  22256545.1884                   22256543.6724
        38.0004         25.0004
     48715.98846     33487.04344  23988180.0634                   23988181.3284
        40.0004         26.5004
   -242493.96946   -160675.23843  21064612.2894                   21064611.0824
        38.5004         21.7504
   -180428.23847   -124492.52346  20151663.9694                   20151664.6804
        46.0004         36.0004
 19  3  4 21 48 20.0000000  0  6G07G08G13G27G28G30
    -51353.64147    -35773.94145  21014968.0864                   21014966.6914
        47.7504         35.2504
    -63085.73447    -45263.16446  21994228.0634                   21994229.5394
        46.7504         36.5004
   -359564.58246   -177470.60244  22251876.7344                   22251875.3554
        38.0004         24.7504
     52404.75046     36361.39544  23988882.4064                   23988883.4804
        40.5004         27.0004
   -263182.52046   -176796.17643  21060675.9844                   21060674.4224
        38.5004         21.5004
   -193621.07447   -134772.66045  20149153.4224                   20149154.1024
        46.0004         35.5004
 19  3  4 21 48 25.0000000  0  6G07G08G13G27G28G30
    -54811.64547    -38468.47345  21014310.0474                   21014308.4924
        47.7504         35.7504
    -67481.03947    -48688.08246  21993391.8204                   21993393.1414
        47.0004         36.7504
   -384062.32846   -196559.74643  22247215.1954                   22247213.3554
        37.7504         23.5004
     56125.17646     39260.42244  23989590.3914                   23989591.5904
        40.0004         27.0004
   -283838.53546   -192891.78543  21056745.7034                   21056743.5634
        39.2504         22.2504
   -206779.37147   -145025.87946  20146649.5704                   20146650.2034
        46.0004         36.2504
 19  3  4 21 48 30.0000000  0  6G07G08G13G27G28G30
    -58235.70747    -41136.58245  21013658.5634                   21013656.6524
        47.7504         35.7504
    -71837.35547    -52082.60946  21992562.9144                   21992564.0514
        46.7504         36.5004
   -408524.09446   -215620.85543  22242560.6724                   22242558.5124
        38.0004         23.0004
     59878.28546     42184.91444  23990304.5634                   23990305.7664
        40.5004         27.0004
   -304460.94146   -208961.17243  21052820.8364                   21052818.8324
        39.5004         21.5004
   -219902.02047   -155251.32046  20144152.0164                   20144152.8754
        46.0004         36.0004
 19  3  4 21 48 35.0000000  0  6G07G08G13G27G28G30
    -61625.53947    -43778.01645  21013013.6254                   21013011.7344
        47.7504         35.5004
    -76154.23447    -55446.41446  21991741.6024                   21991742.8204
        46.7504         36.5004
   -432949.39146   -234653.55544  22237912.1484                   22237910.7274
        37.7504         24.5004
     63664.55546     45135.25044  23991024.8984                   23991026.2974
        40.2504         26.2504
   -325049.32446   -225004.07443  21048903.3834                   21048901.2344
        39.0004         22.0004
   -232988.55947   -165448.62546  20141661.6334                   20141662.0944
        46.0004         36.0004
 19  3  4 21 48 40.0000000  0  6G07G08G13G27G28G30
    -64980.28147    -46392.10945  21012374.9774                   21012373.6294
        47.7504         35.2504
    -80430.85947    -58778.84846  21990927.5634                   21990928.8134
        46.5004         36.5004
   -457337.38746   -253657.18744  22233271.5784                   22233269.9144
        38.0004         25.7504
     67484.73846     48112.01644  23991751.5784                   23991752.8284
        40.5004         27.5004
   -345602.84846   -241019.81243  21044991.9454                   21044989.9924
        39.0004         22.0004
   -246038.22347   -175617.19546  20139178.6174                   20139179.2854
        46.0004         36.2504
 19  3  4 21 48 45.0000000  0  6G07G08G13G27G28G30
    -68299.50448    -48978.51645  21011743.7424                   21011741.8874
        48.0004         35.0004
    -84666.84047    -62079.61746  21990121.5004                   21990122.6454
        46.5004         36.5004
   -481687.69546   -272631.45744  22228636.9224                   22228635.7624
        38.2504         24.0004
     71339.27346     51115.55144  23992485.3594                   23992486.4884
        40.2504         26.5004
   -366121.09446   -257008.05143  21041087.9774                   21041085.8524
        39.5004         22.2504
   -259050.57047   -185756.68746  20136702.4534                   20136703.1524
        46.0004         36.0004
 19  3  4 21 48 50.0000000  0  6G07G08G13G27G28G30
    -71583.17648    -51537.21545  21011118.7814                   21011116.9574
        48.0004         35.2504
    -88862.19547    -65348.73046  21989323.4454                   21989324.1254
        46.5004         36.2504
   -506000.24646   -291576.29744  22224011.2194                   22224009.2034
        38.5004         24.0004
     75228.16846     54145.84044  23993225.4924                   23993226.9694
        41.0004         26.7504
   -386604.06246   -272968.79343  21037189.6884                   21037187.6214
        39.2504         21.2504
   -272025.57847   -195867.08645  20134233.0944                   20134233.9844
        46.0004         35.5004
 19  3  4 21 48 55.0000000  0  6G07G08G13G27G28G30
    -74830.91848    -54067.93045  21010500.9614                   21010498.7504
        48.0004         34.7504
    -93016.54347    -68585.87946  21988532.8674                   21988533.6174
        46.2504         36.0004
   -530274.68046   -310491.43444  22219391.2974                   22219390.3094
        38.2504         25.5004
     79151.78546     57203.20744  23993972.3594                   23993973.0314
        41.0004         27.0004
   -407051.39546   -288901.78543  21033298.9144                   21033296.6254
        39.7504         21.7504
   -284962.82047   -205948.05946  20131771.4144                   20131771.8754
        46.0004         36.5004
 19  3  4 21 49  0.0000000  0  6G07G08G13G27G28G30
    -78042.24647    -56570.25845  21009889.0784                   21009887.7234
        47.7504         35.5004
    -97129.40647    -71790.70746  21987749.9774                   21987750.8524
        46.5004         36.5004
   -554510.50446   -329376.49244  22214779.9844                   22214778.4534
        38.0004         25.0004
     83110.60946     60287.99644  23994725.3524                   23994726.5354
        40.5004         27.2504
   -427462.53146   -304806.56243  21029414.0314                   21029412.6174
        39.0004         21.5004
   -297861.88747   -215999.27746  20129317.1334                   20129317.4384
        46.0004         36.2504
 19  3  4 21 49  5.0000000  0  6G07G08G13G27G28G30
    -81216.92647    -59044.04345  21009285.1414                   21009283.6254
        47.7504         35.0004
   -101200.51647    -74963.00446  21986975.0164                   21986976.3594
        46.5004         36.5004
   -578707.37946   -348231.21544  22210175.2034                   22210173.8524
        38.0004         25.0004
     87104.85246     63400.39844  23995484.7504                   23995486.4534
        40.0004         26.5004
   -447837.30146   -320683.00443  21025537.4384                   21025535.5944
        39.0004         21.2504
   -310722.44147   -226020.48846  20126869.5784                   20126870.3444
        46.0004         36.0004
 19  3  4 21 49 10.0000000  0  6G07G08G13G27G28G30
    -84355.55948    -61489.72745  21008687.8984                   21008686.6884
        48.0004         35.2504
   -105230.47747    -78103.23846  21986208.2974                   21986209.3324
        46.7504         37.0004
   -602865.91446   -367056.05144  22205578.1804                   22205576.5514
        37.7504         25.0004
     91133.92246     66539.93844  23996252.1334                   23996253.0394
        41.0004         26.7504
   -468176.28146   -336531.57043  21021667.6884                   21021664.5904
        39.7504         21.5004
   -323545.13747   -236012.20746  20124429.4304                   20124430.1684
        46.2504         36.0004
 19  3  4 21 49 15.0000000  0  6G07G08G13G27G28G30
    -87458.02748    -63907.24245  21008098.0944                   21008096.1724
        48.2504         35.2504
   -109219.24247    -81211.35546  21985449.6884                   21985450.6644
        46.7504         37.0004
   -626986.09846   -385850.98844  22200988.3754                   22200987.0204
        38.2504         26.0004
     95197.91846     69706.66844  23997025.8284                   23997026.4924
        40.7504         27.2504
   -488479.30546   -352352.09443  21017803.8284                   21017801.3094
        39.5004         22.0004
   -336329.83647   -245974.29345  20121996.4774                   20121997.1684
        46.0004         35.7504
 19  3  4 21 49 20.0000000  0  6G07G08G13G27G28G30
    -90524.18748    -66296.46545  21007515.0554                   21007512.4694
        48.2504         35.5004
   -113166.55947    -84287.19146  21984698.2114                   21984699.4024
        46.5004         36.5004
   -651067.60246   -404615.82444  22196405.9064                   22196404.2304
        38.0004         25.0004
     99296.98446     72900.75444  23997805.1024                   23997806.9694
        40.5004         27.0004
   -508746.25046   -368144.53143  21013946.8594                   21013944.8634
        39.2504         22.2504
   -349076.37547   -255906.68046  20119571.1564                   20119571.5004
        46.0004         36.5004
 19  3  4 21 49 25.0000000  0  6G07G08G13G27G28G30
    -93554.10948    -68657.44145  21006938.1024                   21006935.9654
        48.2504         35.5004
   -117072.59047    -87330.85546  21983954.7344                   21983956.3204
        46.0004         36.5004
   -675110.69546   -423350.66444  22191830.3914                   22191828.5744
        38.7504         24.7504
    103430.99646     76122.05144  23998592.2274                   23998593.1524
        39.7504         27.7504
   -528977.20746   -383908.91443  21010096.8134                   21010095.0554
        39.2504         22.0004
   -361784.89147   -265809.41446  20117152.7504                   20117153.6454
        46.7504         36.7504
 19  3  4 21 49 30.0000000  0  6G07G08G13G27G28G30
    -96548.30548    -70990.59045  21006368.2664                   21006366.4184
        48.0004         35.5004
   -120937.79747    -90342.70746  21983219.2664                   21983220.4454
        46.5004         36.7504
   -699115.69546   -442055.87543  22187262.2814                   22187260.8954
        38.0004         23.7504
    107599.44546     79370.18044  23999385.1174                   23999386.5084
        40.0004         27.7504
   -549172.65246   -399645.62543  21006254.2274                   21006251.7304
        38.7504         21.2504
   -374455.79747   -275682.84446  20114741.4144                   20114742.4024
        46.0004         36.5004
 19  3  4 21 49 35.0000000  0  6G07G08G13G27G28G30
    -99506.89148    -73295.97745  21005805.4224                   21005802.7344
        48.0004         35.7504
   -124762.33647    -93322.87146  21982491.5474                   21982493.1174
        46.7504         37.0004
   -723082.73846   -460731.48044  22182701.2034                   22182700.0594
        38.2504         25.5004
    111802.24246     82645.07844  24000185.1954                   24000187.0204
        40.5004         27.0004
   -569332.64546   -415354.71543  21002417.8134                   21002415.4774
        38.7504         22.0004
   -387089.25047   -285527.09846  20112337.5474                   20112338.1884
        46.0004         36.7504
 19  3  4 21 49 40.0000000  0  6G07G08G13G27G28G30
   -102429.85248    -75573.60945  21005249.1024                   21005247.0704
        48.2504         35.7504
   -128546.13747    -96271.28946  21981771.7034                   21981772.9924
        47.0004         37.5004
   -747011.83646   -479377.52744  22178147.8364                   22178146.3714
        38.0004         24.0004
    116039.41846     85946.78144  24000991.6334                   24000993.0474
        41.0004         27.7504
   -589457.26246   -431036.22343  20998587.7814                   20998585.8284
        39.2504         22.2504
   -399685.19547   -295342.12546  20109940.5704                   20109941.1454
        46.5004         36.7504
 19  3  4 21 49 45.0000000  0  6G07G08G13G27G28G30
   -105317.25047    -77823.52745  21004699.8524                   21004697.8594
        47.7504         35.7504
   -132289.41847    -99188.12146  21981059.4064                   21981060.2704
        46.7504         37.0004
   -770903.07046   -497994.06644  22173601.6174                   22173599.6724
        38.5004         25.0004
    120310.74646     89275.08644  24001804.5474                   24001805.5354
        40.7504         27.7504
   -609546.53946   -446690.21943  20994765.3754                   20994763.2034
        39.0004         22.7504
   -412243.76647   -305128.01246  20107550.8364                   20107551.5944
        46.2504         36.5004
 19  3  4 21 49 50.0000000  0  6G07G08G13G27G28G30
   -108169.66847    -80046.19545  21004156.8834                   21004154.7464
        47.5004         34.7504
   -135992.75447   -102073.83646  21980354.5234                   21980355.6334
        46.5004         36.0004
   -794756.94546   -516581.50844  22169062.2734                   22169060.5824
        38.2504         25.5004
    124615.77046     92629.62544  24002623.4694                   24002624.4384
        41.0004         27.0004
   -629601.07446   -462317.12543  20990949.3754                   20990947.3914
        39.5004         23.7504
   -424765.48847   -314885.19946  20105167.9454                   20105168.5124
        46.2504         36.2504
 19  3  4 21 49 55.0000000  0  6G07G08G13G27G28G30
   -110987.03947    -82241.55945  21003620.2504                   21003618.5434
        47.5004         35.0004
   -139655.91447   -104928.25446  21979657.2584                   21979658.5704
        46.0004         36.2504
   -818573.37546   -535139.76244  22164530.3524                   22164528.3674
        38.7504         25.5004
    128954.52746     96010.48444  24003448.9924                   24003450.3754
        40.5004         26.5004
   -649620.74246   -477916.86743  20987139.8914                   20987137.4104
        40.0004         22.0004
   -437250.28547   -324613.62146  20102792.3054                   20102792.5394
        46.2504         36.5004
 19  3  4 21 50  0.0000000  0  6G07G08G13G27G28G30
   -113769.84848    -84409.97745  21003091.0944                   21003088.7274
        48.0004         35.0004
   -143279.51247   -107751.82846  21978968.2194                   21978969.0944
        46.0004         36.0004
   -842352.83646   -553669.21144  22160005.5394                   22160003.7664
        38.2504         25.5004
    133326.49646     99417.20344  24004281.4614                   24004282.3284
        40.5004         26.2504
   -669606.04746   -493489.82843  20983336.5084                   20983333.9694
        39.7504         21.5004
   -449698.62147   -334313.62546  20100423.4924                   20100424.0664
        46.2504         36.7504
 19  3  4 21 50  5.0000000  0  6G07G08G13G27G28G30
   -116518.40647    -86551.72745  21002567.8204                   21002566.0984
        47.5004         35.5004
   -146863.79747   -110544.78546  21978285.8284                   21978287.2234
        46.0004         36.5004
   -866095.65246   -572170.10944  22155487.1414                   22155485.2274
        38.5004         24.5004
    137731.37546    102849.57044  24005119.5314                   24005120.5004
        40.7504         27.2504
   -689557.27046   -509036.23043  20979539.6724                   20979537.5634
        40.0004         22.0004
   -462110.84447   -343985.48046  20098061.2814                   20098061.8594
        46.0004         36.5004
 19  3  4 21 50 10.0000000  0  6G07G08G13G27G28G30
   -119232.80947    -88666.84045  21002051.4694                   21002049.7584
        47.7504         34.5004
   -150408.94547   -113307.24245  21977611.4534                   21977612.3834
        46.0004         35.5004
   -889801.91046   -590642.50044  22150976.2504                   22150974.3204
        38.7504         24.0004
    142169.07046    106307.52044  24005963.7814                   24005964.8554
        40.5004         27.0004
   -709474.57446   -524556.21143  20975749.6024                   20975747.2734
        40.0004         22.5004
   -474487.02747   -353629.26246  20095706.3914                   20095706.8324
        46.0004         36.2504
 19  3  4 21 50 15.0000000  0  6G07G08G13G27G28G30
   -121913.44148    -90755.63745  21001541.2424                   21001539.4774
        48.0004         34.7504
   -153915.37147   -116039.51646  21976944.3984                   21976945.1094
        46.5004         36.2504
   -913471.90246   -609086.67244  22146471.3054                   22146470.1134
        37.2504         25.7504
    146639.13346    109790.69144  24006814.5784                   24006815.6804
        40.2504         25.2504
   -729358.18446   -540049.90643  20971965.8134                   20971963.8204
        37.5004         22.0004
   -486827.57447   -363245.29346  20093357.8204                   20093358.7154
        46.5004         37.0004
 19  3  4 21 50 20.0000000  0  6G07G08G13G27G28G30
   -124560.45348    -92818.27045  21001037.2034                   21001035.7584
        48.2504         35.2504
   -157383.12947   -118741.66846  21976283.5784                   21976285.5394
        45.7504         36.0004
   -937105.95746   -627502.75443  22141974.1644                   22141972.8014
        37.7504         22.7504
    151141.40246    113298.93844  24007670.9384                   24007672.2194
        39.7504         26.0004
   -749208.36345   -555517.57843  20968188.2664                   20968186.3914
        35.7504         21.0004
   -499132.57047   -372833.59046  20091016.3984                   20091016.9964
        46.5004         36.2504
 19  3  4 21 50 25.0000000  0  6G07G08G13G27G28G30
   -127174.25448    -94854.98845  21000539.9774                   21000538.2704
        48.0004         35.5004
   -160812.67647   -121414.04346  21975631.1954                   21975632.8834
        45.7504         36.2504
   -960704.25046   -645891.11744  22137483.4694                   22137482.1844
        39.0004         26.0004
    155675.54746    116832.01644  24008534.0864                   24008535.2384
        40.0004         27.0004
   -769025.61746   -570959.60543  20964417.0554                   20964415.1644
        38.2504         20.7504
   -511402.45747   -382394.54346  20088681.4614                   20088682.3594
        46.5004         37.0004
 19  3  4 21 50 30.0000000  0  6G07G08G13G27G28G30
   -129755.01648    -96865.96545  21000048.8204                   21000047.2344
        48.0004         35.0004
   -164204.27347   -124056.85945  21974986.1334                   21974987.3324
        46.0004         35.5004
   -984267.04346   -664251.66843  22132999.8754                   22132998.2704
        38.5004         22.7504
    160241.22746    120389.69544  24009403.2114                   24009403.8164
        40.5004         26.2504
   -788810.21946   -586376.17243  20960652.4844                   20960650.5394
        41.0004         20.2504
   -523637.42247   -391928.28946  20086353.4384                   20086353.7704
        47.5004         37.7504
 19  3  4 21 50 35.0000000  0  6G07G08G13G27G28G30
   -132302.94948    -98851.36345  20999564.1884                   20999562.1604
        48.2504         34.5004
   -167558.12147   -126670.23046  21974348.0634                   21974348.8364
        46.5004         36.7504
  -1007794.37946   -682584.71144  22128523.4144                   22128521.2624
        38.7504         26.0004
    164838.35946    123971.87144  24010278.0474                   24010279.0984
        41.2504         27.0004
   -808561.82046   -601766.96943  20956893.9144                   20956891.8554
        36.5004         18.5004
   -535837.61747   -401434.93445  20084031.4144                   20084032.3404
        46.2504         35.5004
 19  3  4 21 50 40.0000000  0  5G07G08G27G28G30
   -134818.82847   -100811.79345  20999085.1804                   20999083.8914
        47.7504         34.7504
   -170874.76247   -129254.63746  21973716.7194                   21973717.7234
        46.7504         36.7504
    169466.18046    127577.96144  24011158.1884                   24011159.2704
        41.2504         27.5004
   -828281.77746   -617133.25843  20953140.8054                   20953139.4344
        38.7504         19.0004
   -548003.91847   -410915.19145  20081716.3364                   20081717.2274
        44.5004         34.0004
 19  3  4 21 50 45.0000000  0  6G07G08G13G27G28G30
   -137302.86747   -102747.41045  20998612.8754                   20998610.8634
        47.2504         35.0004
   -174154.66047   -131810.34445  21973092.4064                   21973093.9024
        45.2504         35.5004
  -1054745.67655   -719170.22753  22119589.0554                   22119587.2304
        35.0004         18.5004
    174124.36346    131207.70344  24012044.6484                   24012045.8484
        39.5004         25.5004
   -847969.91446   -632474.63343  20949394.6414                   20949392.6174
        38.7504         20.0004
   -560136.37147   -420369.01645  20079407.4384                   20079408.9304
        45.7504         34.7504
 19  3  4 21 50 50.0000000  0  6G07G08G13G27G28G30
   -139755.28547   -104658.39145  20998146.0634                   20998144.5124
        47.5004         34.5004
   -177397.96947   -134337.61745  21972475.1174                   21972476.4774
        45.5004         35.0004
  -1078170.15246   -737422.99642  22115130.9454                   22115129.9924
        36.0004         17.7504
    178812.66846    134860.92644  24012936.9614                   24012938.2814
        40.0004         25.7504
   -867626.66846   -647791.60243  20945654.8054                   20945652.2344
        37.5004         19.7504
   -572235.31247   -429796.77045  20077105.0784                   20077106.2154
        45.5004         34.2504
 19  3  4 21 50 55.0000000  0  6G07G08G13G27G28G30
   -142176.61348   -106545.13745  20997685.6564                   20997683.4694
        48.5004         35.2504
   -180605.19947   -136836.80545  21971864.8754                   21971866.2074
        46.2504         35.2504
  -1101561.02346   -755649.57044  22110679.9224                   22110678.2934
        39.0004         24.7504
    183530.68446    138537.29344  24013834.7664                   24013835.8674
        40.5004         25.0004
   -887252.20746   -663084.19943  20941919.1484                   20941917.5904
        36.7504         18.2504
   -584301.21947   -439198.79345  20074809.3754                   20074809.9844
        45.7504         33.0004
 19  3  4 21 51  0.0000000  0  6G07G08G13G27G28G30
   -144566.70747   -108407.55545  20997230.6174                   20997228.7624
        47.7504         35.2504
   -183776.30147   -139307.78546  21971261.3834                   21971262.8054
        46.2504         36.0004
  -1124918.05546   -773849.90244  22106235.0944                   22106233.4694
        39.2504         27.0004
    188278.36746    142236.82044  24014738.3444                   24014739.6134
        40.7504         26.5004
   -906846.92646   -678352.83243  20938190.2194                   20938188.7424
        36.5004         18.5004
   -596333.98847   -448574.95745  20072519.3524                   20072520.0314
        45.0004         32.5004
 19  3  4 21 51  5.0000000  0  6G07G08G13G27G28G30
   -146926.12948   -110246.08645  20996781.5704                   20996779.7274
        48.0004         35.5004
   -186911.74647   -141750.98046  21970665.0554                   21970665.7194
        45.7504         36.0004
  -1148241.82046   -792024.25844  22101796.4534                   22101794.9184
        38.5004         26.0004
    193055.27046    145959.03944  24015647.3984                   24015648.4224
        39.7504         25.5004
   -926411.04746   -693597.62142  20934468.2344                   20934465.9064
        37.0004         17.7504
   -608334.14547   -457925.73445  20070236.3284                   20070236.9224
        44.2504         32.0004
 19  3  4 21 51 10.0000000  0  6G07G08G13G27G28G30
   -149255.30548   -112061.01645  20996338.7894                   20996336.1644
        49.2504         35.0004
   -190011.94147   -144166.72745  21970074.8674                   21970076.2734
        46.0004         35.2504
  -1171532.72346   -810173.00044  22097364.8054                   22097362.6174
        39.5004         26.7504
    197860.98046    149703.75444  24016562.2424                   24016562.7114
        40.2504         25.0004
   -945945.13345   -708818.98042  20930751.5234                   20930748.6764
        35.0004         17.7504
   -620302.05947   -467251.39145  20067958.6334                   20067959.2424
        46.2504         34.7504
 19  3  4 21 51 15.0000000  0  6G07G08G13G27G28G30
   -151554.40648   -113852.50845  20995900.9064                   20995898.7894
        48.2504         34.5004
   -193077.27047   -146555.30545  21969491.8674                   21969492.9304
        46.2504         35.2504
  -1194790.98046   -828296.33244  22092938.5634                   22092936.6564
        40.7504         27.0004
    202695.19146    153470.67244  24017481.9144                   24017482.4654
        40.5004         26.7504
   -965449.23446   -724016.96142  20927039.3284                   20927037.2154
        38.5004         17.2504
   -632238.04347   -476552.17246  20065687.3524                   20065688.1484
        46.7504         36.0004
 19  3  4 21 51 20.0000000  0  6G07G08G13G27G28G30
   -153824.02348   -115621.07845  20995468.7664                   20995467.1914
        48.0004         35.5004
   -196108.30147   -148917.12945  21968914.6024                   21968916.0554
        45.7504         35.5004
  -1218017.16046   -846394.64544  22088518.5784                   22088517.1454
        38.5004         27.5004
    207557.34446    157259.34444  24018407.1804                   24018407.6914
        40.2504         26.2504
   -984924.11746   -739192.20342  20923333.2584                   20923331.3244
        37.7504         17.2504
   -644142.54747   -485828.38745  20063422.1414                   20063422.8634
        44.5004         32.0004
 19  3  4 21 51 25.0000000  0  6G07G08G13G27G28G30
   -156064.34048   -117366.77045  20995042.1644                   20995040.5784
        48.2504         35.7504
   -199105.03547   -151252.24646  21968344.5234                   21968345.6024
        45.7504         36.0004
  -1241211.41446   -864468.09844  22084105.1484                   22084103.2034
        39.5004         27.2504
    212447.28546    161069.68444  24019337.5084                   24019338.4384
        40.0004         26.0004
  -1004369.77346   -754344.66043  20919633.4694                   20919630.8554
        38.0004         18.2504
   -656015.80547   -495080.27745  20061162.3754                   20061163.2344
        44.7504         32.5004
 19  3  4 21 51 30.0000000  0  6G07G08G13G27G28G30
   -158275.37548   -119089.61745  20994621.7664                   20994620.3794
        48.0004         34.7504
   -202067.55547   -153560.69146  21967780.9304                   21967782.0594
        46.5004         36.2504
  -1264373.69946   -882516.59444  22079696.8594                   22079695.2464
        39.0004         25.5004
    217365.01646    164901.71544  24020273.0554                   24020274.4924
        40.0004         26.7504
  -1023786.47747   -769474.52343  20915937.5944                   20915936.1684
        44.0004         21.5004
   -667857.75047   -504307.74646  20058908.5864                   20058909.7934
        46.7504         37.0004
 19  3  4 21 51 35.0000000  0  6G07G08G13G27G28G30
   -160457.43448   -120789.94945  20994206.5704                   20994205.1884
        48.0004         35.0004
   -204996.18447   -155842.76646  21967223.4304                   21967225.1484
        46.2504         36.0004
  -1287504.39846   -900540.53144  22075295.6884                   22075294.4304
        38.0004         25.5004
    222310.12546    168755.00844  24021214.4384                   24021215.3984
        40.5004         26.2504
  -1043174.16047   -784581.82844  20912248.4384                   20912246.6954
        42.0004         27.2504
   -679668.81647   -513511.20346  20056661.3674                   20056662.2304
        46.7504         36.5004
 19  3  4 21 51 40.0000000  0  6G07G08G13G27G28G30
   -162610.94947   -122468.00845  20993796.5314                   20993794.6374
        47.7504         35.2504
   -207891.40247   -158098.77746  21966672.7274                   21966673.8954
        46.2504         36.0004
  -1310603.84046   -918540.08644  22070900.0234                   22070898.4024
        38.2504         24.0004
    227282.25046    172629.39144  24022160.2504                   24022161.4654
        40.5004         26.7504
  -1062533.41447   -799666.95744  20908564.4614                   20908562.9304
        42.0004         27.5004
   -691449.34447   -522690.83246  20054419.6644                   20054420.3134
        46.5004         36.7504
 19  3  4 21 51 45.0000000  0  6G07G08G13G27G28G30
   -164736.18748   -124124.04745  20993391.8134                   20993390.3674
        48.0004         35.0004
   -210753.42647   -160328.92246  21966128.2814                   21966129.0784
        46.5004         36.2504
  -1333672.35246   -936515.55944  22066510.2344                   22066508.6174
        38.5004         24.7504
    232281.12546    176524.61744  24023111.3284                   24023112.9924
        40.5004         26.2504
  -1081864.48847   -814730.13344  20904886.2194                   20904884.1024
        42.2504         27.2504
   -703199.58647   -531846.86346  20052183.5634                   20052184.8284
        46.5004         36.5004
 19  3  4 21 51 50.0000000  0  6G07G08G13G27G28G30
   -166833.90648   -125758.63345  20992993.3284                   20992991.2934
        48.0004         34.7504
   -213583.01247   -162533.80546  21965589.3444                   21965590.9224
        46.2504         36.0004
  -1356710.66846   -954467.48444  22062126.3754                   22062124.7854
        38.5004         25.0004
    237305.87946    180440.00844  24024067.4694                   24024069.2854
        40.0004         26.7504
  -1101168.20347   -829771.98044  20901212.8524                   20901210.8054
        42.2504         28.0004
   -714920.36347   -540979.93746  20049953.3914                   20049953.8714
        46.7504         36.5004
 19  3  4 21 51 55.0000000  0  6G07G08G13G27G28G30
   -168903.94548   -127371.65245  20992599.4534                   20992597.6484
        48.0004         35.5004
   -216380.10947   -164713.35946  21965057.2034                   21965058.5394
        46.5004         36.5004
  -1379718.59846   -972395.73444  22057748.1644                   22057746.3554
        38.2504         25.0004
    242356.68046    184375.68044  24025028.9304                   24025030.3834
        40.0004         26.2504
  -1120444.34047   -844792.34444  20897544.8134                   20897542.6524
        42.5004         27.7504
   -726611.46147   -550089.88746  20047728.3984                   20047729.3524
        46.7504         37.2504
 19  3  4 21 52  0.0000000  0  6G07G08G13G27G28G30
   1404473.66848   1098636.87545  21292002.8524                   21292000.9884
        48.0004         35.2504
   1356275.42647   1060732.51246  22264323.3754                   22264324.8554
        46.5004         36.7504
    172728.09846    237302.98844  22353168.4144                   22353167.0594
        38.2504         25.5004
   1822852.22346   1415930.64844  24325787.0474                   24325788.2544
        41.0004         27.0004
    435730.52347    367811.43844  21193675.0554                   21193672.7154
        42.5004         27.5004
    837149.04347    668424.78946  20345302.3834                   20345302.8554
        46.7504         36.7504
 19  3  4 21 52  5.0000000  0  6G07G08G13G27G28G30
   1402457.52047   1097065.85245  21291619.0004                   21291617.4264
        47.7504         35.5004
   1353541.94547   1058602.52346  22263803.4144                   22263804.7034
        46.5004         36.2504
    149779.52046    219420.97744  22348802.0394                   22348800.1644
        38.0004         25.2504
   1827953.75446   1419905.85944  24326757.8134                   24326759.3244
        40.5004         27.0004
    416508.08247    352832.91044  21190017.2504                   21190015.0864
        42.5004         28.5004
    825515.84847    659359.96546  20343088.8054                   20343089.6094
        46.7504         36.5004
 19  3  4 21 52 10.0000000  0  6G07G08G13G27G28G30
   1400468.49247   1095515.95745  21291240.7274                   21291239.4064
        47.7504         35.2504
   1350840.53947   1056497.53546  22263289.4924                   22263291.0514
        46.2504         36.2504
    126860.83646    201562.26644  22344440.4224                   22344438.6994
        38.2504         26.0004
   1833080.80546   1423900.95344  24327733.8284                   24327734.9064
        40.5004         27.0004
    397312.65647    337875.43844  21186364.3284                   21186362.2384
        42.5004         28.5004
    813911.78147    650317.83646  20340880.2114                   20340880.6914
        46.7504         36.7504
 19  3  4 21 52 15.0000000  0  6G07G08G13G27G28G30
   1398506.06648   1093986.79345  21290867.5634                   21290865.6804
        48.0004         35.0004
   1348170.45347   1054416.94945  22262781.0704                   22262782.8054
        46.2504         35.7504
    103971.51246    183726.42244  22340085.1804                   22340082.9654
        38.0004         25.2504
   1838232.77746   1427915.47744  24328714.2504                   24328715.4064
        40.5004         26.7504
    378143.73047    322938.62144  21182716.8594                   21182714.7424
        42.5004         28.2504
    802336.31647    641297.99646  20338677.9144                   20338678.5124
        46.5004         36.5004
 19  3  4 21 52 20.0000000  0  6G07G08G13G27G28G30
   1396569.96947   1092478.14545  21290498.5314                   21290497.6094
        47.7504         34.7504
   1345531.43047   1052360.56646  22262278.9304                   22262280.7194
        46.5004         36.2504
     81111.27046    165913.23044  22335734.7814                   22335732.9414
        38.0004         26.0004
   1843409.43846   1431949.22744  24329699.5864                   24329700.4384
        41.0004         26.7504
    359001.01247    308022.21544  21179073.9304                   21179071.8244
        42.5004         28.0004
    790789.17647    632300.21946  20336480.1564                   20336480.9884
        46.5004         36.5004
 19  3  4 21 52 25.0000000  0  6G07G08G13G27G28G30
   1394660.04347   1090989.89145  21290135.1254                   21290133.7234
        47.7504         35.0004
   1342923.53947   1050328.43846  22261782.7584                   22261784.0744
        46.2504         36.0004
     58279.98046    148122.62544  22331390.1884                   22331387.6334
        37.5004         25.5004
   1848610.64546   1436002.11344  24330688.7664                   24330690.0434
        40.2504         27.2504
    339884.33247    293126.09444  21175435.9614                   21175433.8204
        42.2504         28.5004
    779270.24647    623324.43446  20334288.2974                   20334289.1604
        46.5004         36.7504
 19  3  4 21 52 30.0000000  0  6G07G08G13G27G28G30
   1392775.80948   1089521.64845  21289776.9384                   21289774.9614
        48.0004         35.0004
   1340346.14547   1048320.07846  22261292.4614                   22261293.4144
        46.5004         36.0004
     35477.16046    130354.21544  22327050.8204                   22327048.8324
        38.2504         25.2504
   1853835.84046   1440073.69144  24331683.2274                   24331684.6644
        41.2504         26.7504
    320793.24647    278249.93044  21171802.8524                   21171800.4964
        42.5004         28.2504
    767779.01247    614370.21946  20332101.6174                   20332102.3834
        46.7504         36.5004
 19  3  4 21 52 35.0000000  0  6G07G08G13G27G28G30
   1390916.60247   1088072.92245  21289423.6414                   21289421.4064
        47.7504         35.5004
   1337798.63347   1046335.00446  22260807.6804                   22260808.6644
        46.5004         36.5004
     12702.19146    112607.46144  22322716.7114                   22322714.9104
        37.5004         25.0004
   1859084.36746   1444163.46144  24332682.0474                   24332683.1804
        40.5004         26.0004
    301727.09847    263393.18844  21168173.9774                   21168172.3874
        42.5004         28.7504
    756314.83247    605437.09046  20329919.9924                   20329921.0084
        46.7504         36.7504
 19  3  4 21 52 40.0000000  0  6G07G08G13G27G28G30
   1389082.78947   1086643.97345  21289074.3914                   21289072.4654
        47.7504         35.2504
   1335281.38347   1044373.51246  22260328.9534                   22260329.9454
        46.5004         36.2504
    -10044.54746     94882.75844  22318388.0314                   22318386.1684
        38.2504         25.2504
   1864356.64146   1448271.71944  24333684.8984                   24333686.7074
        40.7504         27.0004
    282686.27747    248556.18444  21164551.1334                   21164549.4024
        42.5004         27.7504
    744878.12947    596525.37146  20327743.7274                   20327744.7154
        46.7504         36.5004
 19  3  4 21 52 45.0000000  0  6G07G08G13G27G28G30
   1387274.09447   1085234.60545  21288730.0394                   21288728.1524
        47.7504         35.0004
   1332793.99647   1042435.28546  22259855.3054                   22259856.3484
        46.5004         36.0004
    -32763.32046     77179.81343  22314065.2344                   22314063.2974
        38.0004         23.7504
   1869652.32846   1452398.21544  24334693.6644                   24334694.7704
        41.2504         27.2504
    263670.50447    233738.70344  21160932.6174                   21160930.7734
        42.5004         29.0004
    733468.56647    587634.80946  20325572.3834                   20325573.5124
        46.5004         36.7504
 19  3  4 21 52 50.0000000  0  6G07G08G13G27G28G30
   1385490.08647   1083844.46145  21288390.9924                   21288388.8874
        47.7504         34.7504
   1330336.13347   1040520.06645  22259387.8524                   22259388.8244
        46.5004         35.5004
    -55454.57046     59498.31643  22309747.2504                   22309744.9534
        38.0004         22.7504
   1874970.95746   1456542.60244  24335705.2894                   24335706.3914
        41.0004         26.0004
    244679.27047    218940.34844  21157319.1724                   21157316.7424
        42.5004         28.0004
    722085.70347    578765.03946  20323406.4454                   20323407.5124
        46.5004         36.5004
 19  3  4 21 52 55.0000000  0  6G07G08G13G27G28G30
   1383730.57847   1082473.41445  21288055.9614                   21288053.9414
        47.7504         34.7504
   1327907.50047   1038627.62546  22258925.3594                   22258926.8674
        46.5004         36.5004
    -78118.44946     41838.13344  22305434.3204                   22305432.2624
        38.2504         25.7504
   1880312.36746   1460704.73444  24336722.1334                   24336723.1724
        41.2504         26.7504
    225712.47347    204161.02044  21153709.9454                   21153707.3444
        42.5004         27.5004
    710729.37547    569915.95346  20321245.1884                   20321246.2584
        46.5004         36.2504
 19  3  4 21 53  0.0000000  0  6G07G08G13G27G28G30
   1381995.78547   1081121.62545  21287725.9224                   21287723.8204
        47.7504         35.0004
   1325508.44147   1036758.22746  22258468.6644                   22258470.0554
        46.5004         36.0004
   -100754.73846     24199.49644  22301126.9144                   22301124.7814
        38.0004         25.2504
   1885676.77046   1464884.76644  24337742.5234                   24337743.7424
        41.5004         26.5004
    206770.33247    189400.91444  21150104.8754                   21150102.9694
        42.5004         28.2504
    699399.86347    561087.76646  20319089.5314                   20319090.3794
        46.5004         36.7504
 19  3  4 21 53  5.0000000  0  6G07G08G13G27G28G30
   1380285.54747   1079788.96945  21287400.1724                   21287398.2734
        47.5004         34.5004
   1323138.67247   1034911.65246  22258017.8364                   22258019.2894
        46.5004         36.2504
   -123363.55146      6582.21144  22296824.6254                   22296822.6454
        38.5004         26.0004
   1891063.94546   1469082.57444  24338767.8134                   24338768.8324
        41.0004         26.5004
    187852.63747    174659.84444  21146505.0554                   21146503.0164
        42.5004         28.5004
    688096.90647    552280.25846  20316938.7274                   20316939.6134
        46.7504         36.5004
 19  3  4 21 53 10.0000000  0  6G07G08G13G27G28G30
   1378599.39547   1078475.09045  21287078.8914                   21287077.5044
        47.5004         35.0004
   1320797.69547   1033087.52046  22257572.6804                   22257573.8134
        46.5004         36.2504
   -145945.42246    -11014.04744  22292527.1954                   22292525.2034
        39.2504         26.5004
   1896473.44146   1473297.77044  24339797.7034                   24339797.9654
        41.0004         26.7504
    168958.95347    159937.51644  21142909.6024                   21142907.5314
        42.2504         27.7504
    676820.09447    543493.13346  20314792.5784                   20314793.5234
        46.7504         36.5004
 19  3  4 21 53 15.0000000  0  6G07G08G13G27G28G30
   1376936.90648   1077179.64845  21286762.9224                   21286761.0274
        48.0004         35.0004
   1318485.19947   1031285.56345  22257132.3674                   22257133.4614
        46.0004         35.5004
   -168500.69546    -28589.54343  22288234.6884                   22288233.6724
        36.5004         23.5004
   1901904.83646   1477530.02044  24340830.7734                   24340831.7464
        41.2504         26.0004
    150089.02346    145233.69143  21139318.3444                   21139316.7854
        36.2504         21.5004
    665568.98447    534726.02346  20312651.5554                   20312652.4264
        47.0004         37.0004
 19  3  4 21 53 20.0000000  0  6G07G08G13G27G28G30
   1375298.19147   1075902.73845  21286451.3594                   21286449.4384
        47.7504         34.5004
   1316201.27047   1029505.88745  22256697.8134                   22256698.7034
        46.2504         35.7504
   -191029.26246    -46144.30544  22283948.1334                   22283946.5944
        39.5004         27.5004
   1907358.23446   1481779.41444  24341868.0634                   24341869.4774
        40.0004         26.5004
    131242.60545    130548.15643  21135732.9614                   21135730.3404
        34.5004         19.7504
    654343.76647    525979.10546  20310515.5394                   20310516.9264
        46.2504         36.5004
 19  3  4 21 53 25.0000000  0  6G07G08G13G27G28G30
   1373683.19147   1074644.29345  21286143.2734                   21286141.9224
        47.2504         35.2504
   1313945.75047   1027748.33246  22256269.1414                   22256269.7624
        46.5004         36.0004
   -213531.10946    -63678.19944  22279665.9224                   22279664.3914
        39.0004         26.7504
   1912833.53946   1486045.87944  24342910.2034                   24342911.5004
        40.7504         27.0004
    112419.92645    115881.14143  21132150.9844                   21132148.5864
        35.2504         18.2504
    643144.34047    517252.27746  20308384.5004                   20308385.3054
        46.2504         36.5004
 19  3  4 21 53 30.0000000  0  6G07G08G13G27G28G30
   1372091.79747   1073404.23045  21285840.7584                   21285838.8054
        47.5004         34.7504
   1311718.54747   1026012.84445  22255844.8284                   22255846.1214
        46.2504         35.5004
   -236006.42246    -81191.42644  22275388.8134                   22275387.3874
        38.5004         26.2504
   1918330.66846   1490329.37144  24343955.6804                   24343957.2774
        40.0004         26.2504
     93620.87545    101232.49642  21128572.9774                   21128571.3524
        35.0004         16.7504
    631970.57447    508545.45745  20306257.7504                   20306258.6454
        46.0004         35.2504
 19  3  4 21 53 35.0000000  0  6G07G08G13G27G28G30
   1370524.01248   1072182.58245  21285542.5394                   21285540.5044
        48.0004         34.5004
   1309519.71147   1024299.46545  22255426.3914                   22255427.8674
        46.5004         35.7504
   -258455.11346    -98683.93744  22271117.5394                   22271115.8014
        38.5004         26.5004
   1923849.60546   1494629.81644  24345006.1024                   24345007.9064
        40.7504         26.7504
     74845.32045     86602.25442  21125001.0944                   21124998.8054
        35.5004         16.2504
    620822.55947    499858.69145  20304136.7114                   20304137.9024
        45.5004         35.2504
 19  3  4 21 53 40.0000000  0  6G07G08G13G27G28G30
   1368979.52747   1070979.09045  21285248.5704                   21285246.7584
        47.5004         34.5004
   1307348.86747   1022607.90645  22255013.1334                   22255014.5554
        46.0004         35.2504
   -280877.52046   -116155.89844  22266850.5864                   22266848.6844
        38.5004         25.2504
   1929390.00446   1498947.02044  24346060.4844                   24346062.0394
        40.0004         25.0004
     56092.88745     71989.95742  21121431.5634                   21121430.3444
        32.7504         14.7504
    609699.89147    491191.67245  20302020.2274                   20302021.1484
        46.2504         35.5004
 19  3  4 21 53 45.0000000  0  6G07G08G13G27G28G30
   1367457.71948   1069793.25045  21284958.6174                   21284957.2074
        48.0004         34.5004
   1305205.48447   1020937.72746  22254605.7734                   22254606.6884
        46.7504         36.0004
   -303274.28146   -133607.94144  22262588.9384                   22262586.9224
        39.0004         26.7504
   1934951.24246   1503280.44144  24347119.0164                   24347120.5274
        40.0004         26.0004
     37363.26645     57395.42642  21117866.7894                   21117866.0004
        35.7504         15.5004
    598601.97347    482543.94545  20299908.3914                   20299909.1604
        46.5004         35.5004
 19  3  4 21 53 50.0000000  0  6G07G08G13G27G28G30
   1365958.84848   1068625.28945  21284674.3364                   21284672.2344
        48.0004         34.0004
   1303089.78547   1019289.12145  22254203.0004                   22254204.1054
        46.5004         35.5004
   -325645.09445   -151039.75043  22258331.2734                   22258329.9694
        35.7504         22.5004
   1940533.56346   1507630.29344  24348181.0634                   24348182.6174
        40.5004         25.5004
     18656.41445     42818.69142  21114307.4844                   21114306.9304
        34.2504         17.2504
    587529.19147    473915.79745  20297800.9534                   20297802.3594
        44.5004         34.5004
 19  3  4 21 53 55.0000000  0  6G07G08G13G27G28G30
   1364482.67648   1067475.00046  21284393.4304                   21284391.1374
        48.5004         37.2504
   1301001.41447   1017661.82446  22253805.4064                   22253806.2734
        46.7504         36.2504
   -347990.27046   -168451.62543  22254079.5554                   22254077.7624
        36.2504         21.5004
   1946136.77047   1511996.42244  24349247.1564                   24349248.7234
        42.0004         26.0004
       -27.79346     28259.51242  21110752.4064                   21110751.5784
        39.7504         17.7504
    576481.11347    465306.92645  20295698.6884                   20295699.5274
        45.7504         32.0004
 19  3  4 21 54  0.0000000  0  6G07G08G13G27G28G30
   1363029.13348   1066342.40246  21284116.7734                   21284114.6094
        48.0004         36.5004
   1298940.40247   1016055.84446  22253413.5314                   22253414.4964
        46.7504         36.5004
   -370309.715 5                  22249832.813
        30.500
   1951760.72746   1516378.74244  24350317.4844                   24350319.0044
        40.2504         26.2504
    -18689.44947     13718.02043  21107201.4224                   21107200.0784
        43.2504         19.7504
    565457.80547    456717.32046  20293601.2734                   20293602.1564
        47.2504         36.5004
 19  3  4 21 54  5.0000000  0  5G07G08G27G28G30
   1361597.86348   1065227.10946  21283844.5784                   21283842.5004
        48.0004         36.0004
   1296906.37147   1014470.87546  22253026.1254                   22253027.5274
        45.7504         36.0004
   1957405.03547   1520776.91044  24351392.1954                   24351393.2424
        43.7504         26.0004
    -37328.74646      -806.14543  21103654.9224                   21103652.8754
        41.5004         22.7504
    554458.90247    448146.74246  20291508.1254                   20291508.8914
        47.0004         36.0004
 19  3  4 21 54 10.0000000  0  6G07G08G13G27G28G30
   1360188.80148   1064129.13346  21283575.2814                   21283573.5004
        48.2504         36.5004
   1294899.20747   1012906.82846  22252643.6254                   22252644.6524
        46.2504         36.2504
   -414871.61314                  22241352.656
        28.000
   1963069.68446   1525190.89844  24352470.0084                   24352470.9924
        39.7504         25.0004
    -55945.93746    -15313.05143  21100111.1174                   21100109.8524
        41.5004         22.5004
    543484.29347    439595.10545  20289419.2664                   20289419.9574
        46.0004         34.5004
 19  3  4 21 54 15.0000000  0  6G07G08G13G27G28G30
   1358801.87948   1063048.41446  21283311.7584                   21283309.4884
        48.7504         36.5004
   1292918.85247   1011363.71946  22252267.1414                   22252267.6684
        46.5004         36.7504
   -437115.08214                  22237120.703
        28.000
   1968754.62946   1529620.71544  24353551.6334                   24353552.3484
        41.5004         26.2504
    -74540.83646    -29802.53143  21096573.6414                   21096571.3444
        40.5004         21.7504
    532534.00847    431062.43045  20287336.3984                   20287336.2934
        46.0004         34.2504
 19  3  4 21 54 20.0000000  0  6G07G08G13G27G28G30
   1357436.80547   1061984.73845  21283051.7814                   21283050.2274
        47.2504         35.0004
   1290964.98847   1009841.21945  22251894.8204                   22251896.3404
        45.7504         35.7504
   -459333.633 4                  22232891.742
        25.750
   1974459.41046   1534065.98844  24354636.9144                   24354638.4304
        40.7504         26.0004
    -93113.96946    -44275.12143  21093038.5704                   21093036.9844
        38.0004         22.0004
    521607.66047    422548.35945  20285256.0704                   20285257.7934
        45.0004         35.5004
 19  3  4 21 54 25.0000000  0  6G07G08G13G27G28G30
   1356093.66447   1060938.11745  21282796.3674                   21282794.3834
        47.5004         35.7504
   1289037.77047   1008339.49646  22251528.6884                   22251529.6724
        46.5004         36.0004
   -481527.422 6                  22228667.992
        37.500
   1980184.23047   1538526.87944  24355726.5474                   24355727.4654
        42.0004         26.5004
   -111665.28146    -58730.70343  21089508.5634                   21089506.2344
        38.2504         21.5004
    510705.35247    414053.04745  20283181.7344                   20283182.3204
        45.0004         34.0004
 19  3  4 21 54 30.0000000  0  6G07G08G13G27G28G30
   1354772.27048   1059908.47346  21282545.3054                   21282543.2854
        48.7504         36.5004
   1287136.98847   1006858.39845  22251167.5784                   22251168.4494
        47.0004         35.0004
                                  22224450.914
        27.250
   1985928.91447   1543003.26644  24356820.0474                   24356820.8754
        43.5004         26.7504
   -130194.77746    -73169.29344  21085983.4064                   21085980.4384
        41.5004         24.0004
    499826.98047    405576.44545  20281112.4224                   20281112.6294
        45.7504         34.0004
 19  3  4 21 54 35.0000000  0  6G07G08G13G27G28G30
   1353472.50048   1058895.67246  21282297.5164                   21282295.8164
        48.5004         36.0004
   1285262.48047   1005397.72346  22250810.2424                   22250811.2384
        46.2504         36.0004
                                  22220235.086
        29.250
   1991693.23046   1547494.94544  24357916.7194                   24357917.5164
        41.5004         28.5004
   -148702.67646    -87591.01244  21082460.6644                   21082458.4304
        41.2504         25.5004
    488972.33247    397118.27045  20279046.4774                   20279046.8754
        46.2504         34.2504
 19  3  4 21 54 40.0000000  0  5G07G08G27G28G30
   1352194.07848   1057899.48446  21282055.1954                   21282052.7344
        48.5004         36.0004
   1283413.95747   1003957.31345  22250458.2504                   22250459.3984
        45.2504         35.5004
   1997476.99647   1552001.76244  24359017.4144                   24359018.1564
        42.7504         25.7504
   -167189.16846   -101996.05943  21078942.7424                   21078940.5984
        41.5004         22.7504
    478141.21947    388678.40646  20276985.5394                   20276986.1024
        46.2504         36.5004
 19  3  4 21 54 45.0000000  0  6G07G08G13G27G28G30
   1350937.05947   1056919.98445  21281815.0234                   21281813.2734
        47.0004         35.2504
   1281591.53947   1002537.21545  22250111.2584                   22250112.8484
        45.0004         35.7504
   1549787.59414                  22211820.961
        28.500
   2003280.14147   1556523.67644  24360121.8524                   24360122.7274
        42.7504         27.0004
   -185654.30946   -116384.50843  21075428.5784                   21075426.7504
        40.0004         22.0004
    467333.62547    380256.89845  20274928.6254                   20274929.4024
        46.5004         35.5004
 19  3  4 21 54 50.0000000  0  6G07G08G13G27G28G30
   1349701.23848   1055957.01646  21281579.7424                   21281578.3324
        48.2504         36.2504
   1279794.90647   1001137.23446  22249770.4614                   22249770.6134
        47.5004         37.0004
                                  22207621.289
        28.250
   2009102.50846   1561060.60544  24361229.8914                   24361230.4694
        41.7504         26.7504
   -204098.25046   -130756.39143  21071919.8204                   21071916.4654
        41.7504         22.0004
    456549.39547    371853.60945  20272876.4454                   20272876.9614
        45.7504         34.0004
 19  3  4 21 54 55.0000000  0  5G07G08G27G28G30
   1348486.41848   1055010.38346  21281349.3444                   21281347.2974
        48.5004         36.2504
   1278023.98447    999757.33645  22249433.2664                   22249434.6174
        45.5004         35.5004
   2014943.94547   1565612.38344  24362341.4144                   24362342.6764
        42.5004         27.0004
   -222521.31246   -145112.03144  21068413.5474                   21068411.7384
        41.5004         28.0004
    445788.38347    363468.42646  20270828.6174                   20270829.6564
        45.7504         36.2504
 19  3  4 21 55  0.0000000  0  5G07G08G27G28G30
   1347292.87948   1054080.34445  21281121.7424                   21281120.0904
        48.2504         35.7504
   1276278.91447    998397.49646  22249101.1174                   22249102.1134
        45.7504         36.2504
   2020804.66447   1570179.14844  24363456.7664                   24363457.8094
        43.0004         27.0004
   -240922.96546   -159450.93744  21064912.3984                   21064910.0664
        40.5004         24.0004
    435050.79747    355101.45746  20268785.9064                   20268786.2304
        46.0004         36.2504
 19  3  4 21 55  5.0000000  0  5G07G08G27G28G30
   1346120.34048   1053166.68446  21280899.3594                   21280896.7734
        48.7504         36.5004
   1274559.41847    997057.64545  22248774.2894                   22248774.7974
        45.5004         35.5004
   2026684.30547   1574760.69144  24364575.6254                   24364576.3524
        43.0004         26.7504
   -259303.63746   -173773.55943  21061414.3754                   21061412.2734
        38.0004         21.5004
    424336.39147    346752.56645  20266746.7664                   20266746.8874
        45.5004         34.2504
 19  3  4 21 55 10.0000000  0  5G07G08G27G28G30
   1344968.37947   1052269.07845  21280679.8984                   21280677.6764
        47.7504         34.7504
   1272865.03947    995737.35946  22248451.3914                   22248452.3244
        46.5004         36.2504
   2032582.53547   1579356.70744  24365698.0704                   24365699.1414
        42.2504         26.7504
   -277663.66046   -188080.04743  21057920.8754                   21057918.6214
        40.0004         21.7504
    413644.67247    338421.34046  20264712.0704                   20264712.5744
        47.7504         37.7504
 19  3  4 21 55 15.0000000  0  6G07G08G13G27G28G30
   1343837.11348   1051387.53546  21280463.6414                   21280462.5944
        48.7504         36.2504
   1271196.11747    994436.86746  22248133.5314                   22248134.9344
        46.2504         36.2504
   1557862.78957   -189228.08654  22186691.6254                   22186688.9414
        42.0004         27.5004
   2038499.42647   1583967.30144  24366823.7974                   24366825.1214
        42.7504         28.5004
   -296002.81646   -202370.29743  21054430.5864                   21054428.6024
        39.7504         22.2504
    402975.86347    330107.99646  20262681.7504                   20262682.5004
        47.5004         37.7504
 19  3  4 21 55 20.0000000  0  6G07G08G13G27G28G30
   1342726.40648   1050522.07046  21280253.1094                   21280251.4884
        48.2504         36.0004
   1269552.24647    993155.93846  22247820.6094                   22247822.5164
        46.5004         37.0004
   1535936.80146   -206313.24254  22182519.5474                   22182517.4344
        41.0004         25.0004
   2044434.87947   1588592.32044  24367953.1254                   24367954.9344
        43.0004         28.2504
   -314321.62946   -216644.70343  21050944.5004                   21050942.8324
        41.5004         21.5004
    392329.83648    321812.38346  20260656.1414                   20260656.8984
        48.0004         38.5004
 19  3  4 21 55 25.0000000  0  6G07G08G13G27G28G30
   1341636.39548   1049672.69546  21280046.0634                   21280044.1644
        48.7504         36.0004
   1267933.58647    991894.65246  22247512.6644                   22247514.1024
        46.2504         36.5004
   1514034.72746   -223379.80143  22178351.3054                   22178349.8594
        40.7504         23.5004
   2050388.88747   1593231.80144  24369085.7734                   24369087.6764
        42.7504         27.5004
   -332619.80546   -230903.02343  21047462.4534                   21047460.8484
        41.5004         22.0004
    381706.63348    313534.57046  20258634.4144                   20258635.2384
        48.2504         39.0004
 19  3  4 21 55 30.0000000  0  6G07G08G13G27G28G30
   1340566.94948   1048839.37146  21279841.9534                   21279840.2974
        48.5004         36.0004
   1266340.10547    990652.97346  22247209.3444                   22247210.9104
        46.0004         36.5004
   1492156.50046   -240427.75843  22174188.4774                   22174186.5434
        41.2504         22.7504
   2056361.43447   1597885.73444  24370222.8444                   24370224.3444
        43.0004         27.7504
   -350897.35946   -245145.27343  21043983.9064                   21043982.5904
        41.5004         22.7504
    371106.21948    305274.50846  20256617.1804                   20256617.7154
        48.0004         38.7504
 19  3  4 21 55 35.0000000  0  6G07G08G13G27G28G30
   1339517.90648   1048021.93446  21279642.0944                   21279640.7154
        48.2504         36.7504
   1264771.62947    989430.78146  22246911.2194                   22246912.3674
        46.5004         37.0004
   1470301.98046   -257457.25444  22170028.6644                   22170027.6764
        40.7504         24.5004
   2062352.32447   1602553.95344  24371363.2894                   24371364.4104
        42.5004         27.5004
   -369154.37946   -259371.53544  21040510.3834                   21040508.5204
        41.7504         24.0004
    360528.41048    297032.05946  20254604.3674                   20254605.3634
        48.2504         39.0004
 19  3  4 21 55 40.0000000  0  6G07G08G13G27G28G30
   1338488.73848   1047219.98446  21279446.0944                   21279444.8134
        48.5004         36.2504
   1263227.54747    988227.60246  22246617.0864                   22246618.9964
        46.5004         36.7504
   1448470.60946   -274468.70744  22165875.1884                   22165873.8594
        41.2504         25.2504
   2068361.01247   1607236.03944  24372506.0474                   24372507.7344
        42.2504         26.7504
   -387391.56646   -273582.31644  21037039.6884                   21037038.3324
        41.7504         24.5004
    349972.66448    288806.80546  20252595.5474                   20252596.4534
        48.5004         39.2504
 19  3  4 21 55 45.0000000  0  6G07G08G13G27G28G30
   1337479.37948   1046433.46546  21279254.0474                   21279253.1684
        48.2504         36.2504
   1261707.87147    987043.43446  22246327.8444                   22246329.8594
        46.5004         37.5004
   1426662.40646   -291462.11344  22161724.9844                   22161723.2544
        41.2504         24.5004
   2074387.39847   1611931.92244  24373652.8984                   24373654.5354
        42.7504         26.7504
   -405608.87546   -287777.62144  21033573.2504                   21033571.5354
        41.5004         24.0004
    339438.92648    280598.69546  20250591.1334                   20250591.7774
        48.2504         39.2504
 19  3  4 21 55 50.0000000  0  6G07G08G13G27G28G30
   1336490.53548   1045662.93446  21279066.6954                   21279064.9104
        48.5004         36.0004
   1260213.25047    985878.78546  22246043.4774                   22246045.2074
        46.5004         37.0004
   1404878.07846   -308436.90644  22157579.2664                   22157578.0044
        41.2504         24.7504
   2080432.23447   1616642.16444  24374803.5164                   24374804.7734
        42.5004         27.0004
   -423805.59846   -301956.87543  21030110.3054                   21030108.4344
        41.5004         22.7504
    328927.96548    272408.33646  20248590.8444                   20248591.9804
        48.0004         38.7504
 19  3  4 21 55 55.0000000  0  6G07G08G13G27G28G30
   1335521.54748   1044907.87946  21278882.1484                   21278880.1024
        48.5004         36.2504
   1258743.00047    984733.14146  22245763.5864                   22245765.4734
        46.7504         37.2504
   1383116.91046   -325393.65244  22153438.0784                   22153437.4494
        41.0004         25.5004
   2086494.71147   1621366.17644  24375957.3054                   24375958.6094
        42.7504         27.7504
   -441982.51246   -316120.69943  21026651.5004                   21026649.5824
        41.0004         23.2504
    318439.04348    264235.14846  20246594.9384                   20246596.1414
        48.0004         39.2504
 19  3  4 21 56  0.0000000  0  6G07G08G13G27G28G30
   1334572.32048   1044168.22346  21278700.9144                   21278699.9264
        48.0004         36.2504
   1257296.98447    983606.36746  22245489.0164                   22245490.0704
        46.5004         37.2504
   1361378.85546   -342332.39544  22149301.8984                   22149300.5164
        41.5004         25.7504
   2092574.85547   1626103.95344  24377114.2344                   24377115.6954
        43.0004         28.0004
   -460139.59846   -330269.07443  21023196.5634                   21023194.3834
        41.2504         23.7504
    307972.07848    256079.07046  20244603.2424                   20244604.0434
        48.0004         39.0004
 19  3  4 21 56  5.0000000  0  6G07G08G13G27G28G30
   1333643.06648   1043444.12546  21278524.4774                   21278523.1054
        48.2504         36.0004
   1255875.48447    982498.71146  22245218.0704                   22245219.8674
        45.7504         36.7504
   1339664.11747   -359252.98844  22145170.2974                   22145168.4024
        42.7504         24.7504
   2098672.87947   1630855.65244  24378274.5864                   24378275.9494
        42.5004         27.5004
   -478276.60946   -344401.81643  21019744.8914                   21019743.1914
        39.5004         23.5004
    297527.32847    247940.30146  20242615.7814                   20242616.5784
        47.7504         38.7504
 19  3  4 21 56 10.0000000  0  6G07G08G13G27G28G30
   1332733.10248   1042735.06345  21278351.3284                   21278349.0904
        48.5004         35.7504
   1254477.74647    981409.57046  22244951.9534                   22244953.1684
        45.7504         36.0004
   1317972.285 5                  22141041.914
        34.500
   2104788.00047   1635620.69144  24379438.0164                   24379439.5394
        42.2504         25.7504
   -496394.51646   -358519.67243  21016296.5634                   21016295.2234
        39.7504         21.5004
    287104.12947    239818.34846  20240632.0704                   20240632.7384
        47.2504         37.5004
 19  3  4 21 56 15.0000000  0  6G07G08G13G27G28G30
   1331842.10948   1042040.78146  21278181.4454                   21278180.3014
        48.2504         36.7504
   1253103.63347    980338.83646  22244690.2974                   22244692.6914
        46.2504         36.5004
   1296302.844 5                  22136917.703
        30.250
   2110919.92247   1640398.78544  24380604.8914                   24380606.4454
        44.2504         26.7504
   -514493.25446   -372622.54343  21012852.4534                   21012851.5984
        40.5004         20.7504
    276702.19147    231712.94546  20238652.2894                   20238652.9694
        47.0004         36.2504
 19  3  4 21 56 20.0000000  0  5G07G08G27G28G30
   1330970.86747   1041361.86345  21278015.6724                   21278014.6174
        47.7504         35.7504
   1251753.82047    979287.02046  22244433.6094                   22244435.5824
        46.0004         36.0004
   2117069.57847   1645190.73844  24381775.2114                   24381776.1684
        43.7504         26.0004
   -532572.01247   -386709.94943  21009412.3834                   21009411.0234
        44.0004         22.7504
    266322.22747    223624.64546  20236677.3914                   20236678.9224
        47.5004         37.2504
 19  3  4 21 56 25.0000000  0  5G07G08G27G28G30
   1330118.37148   1040697.58646  21277853.3674                   21277852.4844
        48.7504         37.0004
   1250427.20747    978253.28946  22244181.4924                   22244183.1684
        46.2504         37.2504
   2123235.75447   1649995.52344  24382949.0394                   24382950.2774
        43.7504         28.2504
   -550631.96546   -400782.57843  21005975.9064                   21005974.5314
        41.2504         22.5004
    255963.26647    215552.74246  20234706.2344                   20234707.1644
        47.7504         38.0004
 19  3  4 21 56 30.0000000  0  5G07G08G27G28G30
   1329284.82848   1040048.06346  21277694.4924                   21277693.3954
        48.0004         36.2504
   1249124.02347    977237.81346  22243933.1804                   22243934.6414
        46.5004         36.5004
   2129418.60247   1654813.30544  24384124.6484                   24384126.8164
        44.0004         29.0004
   -568672.99246   -414840.53943  21002542.8984                   21002541.6334
        40.2504         22.5004
    245625.47747    207497.31646  20232738.7274                   20232740.0434
        47.2504         38.5004
 19  3  4 21 56 35.0000000  0  5G07G08G27G28G30
   1328470.18848   1039413.27345  21277539.5554                   21277538.6334
        48.0004         34.7504
   1247844.23847    976240.59046  22243689.5704                   22243691.3134
        45.5004         36.0004
   2135618.19947   1659644.17644  24385304.6484                   24385306.2974
        43.0004         27.0004
   -586694.95346   -428883.60943  20999113.8204                   20999111.7544
        40.2504         22.0004
    235308.91047    199458.41846  20230775.5784                   20230776.6884
        47.0004         37.5004
 19  3  4 21 56 40.0000000  0  5G07G08G27G28G30
   1327674.39548   1038793.17245  21277388.7034                   21277386.9534
        48.0004         34.5004
   1246587.72747    975261.49245  22243450.5474                   22243452.2504
        46.0004         34.7504
   2141834.44147   1664487.99244  24386488.0474                   24386489.0314
        42.7504         27.2504
   -604698.02746   -442911.96943  20995687.7034                   20995685.8674
        40.0004         22.0004
    225013.37547    191435.93046  20228816.6254                   20228816.8444
        46.5004         37.0004
 19  3  4 21 56 45.0000000  0  5G07G08G27G28G30
   1326896.88747   1038187.35245  21277240.1724                   21277238.5234
        46.2504         33.7504
   1245354.03947    974300.21545  22243216.0944                   22243217.3244
        45.2504         33.7504
   2148066.75447   1669344.30144  24387673.8754                   24387674.7584
        43.7504         26.5004
   -622682.81646   -456926.07443  20992264.7274                   20992263.0984
        39.5004         20.7504
    214738.50047    183429.55545  20226861.4694                   20226861.6054
        46.2504         34.0004
 19  3  4 21 56 50.0000000  0  5G07G08G27G28G30
   1326137.97747   1037595.99245  21277095.4224                   21277094.5904
        47.2504         34.5004
   1244143.52347    973356.97345  22242985.5234                   22242986.4144
        46.0004         33.5004
   2154315.43447   1674213.45744  24388863.4614                   24388863.9264
        45.2504         26.7504
   -640648.82446   -470925.57843  20988845.8834                   20988844.4144
        40.7504         20.0004
    204484.42647    175439.37945  20224909.6564                   20224910.6414
        47.5004         35.5004
 19  3  4 21 56 55.0000000  0  5G07G08G27G28G30
   1325397.18047   1037018.70745  21276955.6254                   21276954.0664
        47.7504         35.7504
   1242955.55147    972431.20746  22242759.3914                   22242761.1454
        45.5004         36.0004
   2160579.99246   1679094.96544  24390054.3284                   24390055.9024
        39.7504         27.0004
   -658596.65246   -484910.90243  20985430.0634                   20985428.9844
        40.5004         21.2504
    194250.78147    167465.10245  20222962.4454                   20222963.7664
        45.5004         34.2504
 19  3  4 21 57  0.0000000  0  5G07G08G27G28G30
   1324674.81647   1036455.83645  21276818.1484                   21276815.8554
        47.7504         34.7504
   1241790.37947    971523.30545  22242538.2114                   22242538.6914
        46.5004         35.0004
   2166860.66047   1683988.93444  24391250.0944                   24391251.4144
        42.2504         26.7504
   -676526.02046   -498881.85943  20982019.0704                   20982017.1764
        38.5004         21.5004
    184037.80947    159506.92646  20221019.4144                   20221020.1564
        45.7504         36.0004
 19  3  4 21 57  5.0000000  0  6G07G08G13G27G28G30
   1323970.80147   1035907.23445  21276683.3284                   21276681.8284
        46.2504         34.7504
   1240648.03147    970633.17245  22242320.1724                   22242321.4264
        44.2504         34.0004
                                  22095916.125
        31.750
   2173157.43047   1688895.50844  24392447.9454                   24392449.0704
        42.0004         24.5004
   -694436.89846   -512838.38743  20978610.8834                   20978609.1374
        37.5004         20.2504
    173845.46947    151564.82045  20219079.6644                   20219079.9184
        45.0004         33.0004
 19  3  4 21 57 10.0000000  0  6G07G08G13G27G28G30
   1323285.22348   1035373.02345  21276553.5474                   21276551.6214
        49.0004         35.5004
   1239528.59047    969760.86345  22242107.9144                   22242108.6884
        46.0004         35.0004
   1530843.023 6                  22091839.484
        38.500
   2179470.39847   1693814.71144  24393650.4534                   24393650.6844
        43.5004         27.5004
   -712329.15246   -526780.36343  20975206.1414                   20975204.3444
        37.2504         20.2504
    163673.86747    143638.92645  20217144.6564                   20217144.5704
        46.0004         33.5004
 19  3  4 21 57 15.0000000  0  6G07G08G13G27G28G30
   1322617.92247   1034853.03145  21276426.0474                   21276424.3364
        47.2504         35.0004
   1238431.65247    968906.09045  22241898.3054                   22241899.5084
        45.5004         34.5004
   1509439.01646   -381448.24253  22087766.3364                   22087763.6724
        41.2504         21.5004
   2185799.28947   1698746.32044  24394853.8524                   24394855.0274
        43.5004         26.0004
   -730203.25846   -540708.25843  20971804.5314                   20971802.8554
        37.2504         18.2504
    153522.81647    135729.00845  20215212.5234                   20215212.8594
        45.7504         34.0004
 19  3  4 21 57 20.0000000  0  6G07G08G13G27G28G30
   1321968.61747   1034347.09045  21276302.9844                   21276300.9614
        47.7504         34.0004
   1237357.35247    968068.96545  22241694.0554                   22241695.3014
        45.0004         33.5004
   1488057.65616                  22083696.922
        36.500
   2192143.94947   1703690.22344  24396061.2974                   24396062.7304
        43.2504         26.5004
   -748059.25046   -554622.05543  20968406.9304                   20968405.5824
        41.5004         21.2504
    143392.17648    127835.00446  20213284.7424                   20213285.2344
        48.0004         36.7504
 19  3  4 21 57 25.0000000  0  6G07G08G13G27G28G30
   1321337.24648   1033855.11345  21276182.5634                   21276180.7194
        48.0004         32.0004
   1236305.33647    967249.26245  22241494.3134                   22241495.1564
        45.2504         32.0004
   1466696.918 6                  22079632.211
        37.500
   2198504.27046   1708646.31343  24397271.5704                   24397272.8444
        41.7504         22.0004
   -765897.12947   -568521.64543  20965012.1954                   20965010.4844
        42.0004         21.2504
    133281.72347    119956.76645  20211360.8594                   20211361.2384
        47.5004         34.5004
 19  3  4 21 57 30.0000000  0  6G07G08G13G27G28G30
   1320723.63347   1033376.98845  21276065.5704                   21276064.0904
        47.5004         31.5004
   1235275.52347    966446.81645  22241297.5234                   22241299.5044
        45.0004         31.5004
   1445357.477 5                  22075570.758
        35.500
   2204879.98846   1713614.40243  24398484.2504                   24398486.4064
        41.0004         22.5004
   -783717.14146   -582407.37143  20961620.8134                   20961619.6484
        41.5004         22.0004
    123191.30947    112094.08245  20209440.0944                   20209441.5234
        47.0004         34.0004
 19  3  4 21 57 35.0000000  0  6G07G08G13G27G28G30
   1320127.80147   1032912.69545  21275952.3524                   21275950.4534
        47.7504         30.7504
   1234267.90647    965661.64845  22241105.9454                   22241107.4224
        45.5004         32.2504
   1424039.457 6                  22071515.531
        36.750
   2211271.12146   1718594.50843  24399700.7424                   24399702.6994
        41.0004         22.7504
   -801519.28946   -596279.16843  20958233.3364                   20958231.9224
        39.7504         20.5004
    113121.03147    104247.12945  20207524.3054                   20207525.1214
        47.0004         33.7504
 19  3  4 21 57 40.0000000  0  6G07G08G13G27G28G30
   1319549.27048   1032461.89145  21275842.0784                   21275840.8524
        48.0004         32.2504
   1233282.01247    964893.42245  22240918.6414                   22240920.0314
        46.0004         33.2504
   1402742.320 6                  22067463.195
        37.000
   2217677.25447   1723586.28943  24400920.0864                   24400921.4184
        42.0004         22.7504
   -819303.98446   -610137.36343  20954849.6254                   20954847.6484
        41.7504         21.2504
    103070.35548     96415.42645  20205611.5474                   20205612.3794
        48.0004         34.7504
 19  3  4 21 57 45.0000000  0  6G07G08G13G27G28G30
   1318988.27047   1032024.76245  21275736.1254                   21275733.8634
        47.7504         30.7504
   1232317.86347    964142.15245  22240735.1644                   22240736.8874
        46.0004         31.7504
   1381466.402 6                  22063413.883
        37.000
   2224098.60547   1728589.94543  24402141.2114                   24402143.3324
        42.5004         22.7504
   -837071.05546   -623981.83243  20951468.2344                   20951466.6564
        41.7504         21.7504
     93039.55147     88599.23445  20203702.6414                   20203703.6294
        47.5004         33.5004
 19  3  4 21 57 50.0000000  0  6G07G08G13G27G28G30
   1318444.56348   1031601.07045  21275631.3204                   21275630.7154
        48.0004         32.0004
   1231375.43847    963407.76645  22240555.8364                   22240557.1724
        46.5004         33.0004
   1360211.387 6                  22059369.133
        38.000
   2230534.80947   1733605.13743  24403366.7034                   24403367.7814
        43.5004         22.7504
   -854820.69547   -637812.72743  20948090.9304                   20948089.3164
        43.0004         21.2504
     83028.34848     80798.28145  20201797.7664                   20201798.1764
        48.0004         34.2504
 19  3  4 21 57 55.0000000  0  6G07G08G13G27G28G30
   1317918.07447   1031190.83645  21275531.4614                   21275530.3014
        47.7504         31.0004
   1230454.63347    962690.27345  22240380.5554                   22240382.0634
        45.2504         32.0004
   1338977.375 6                  22055327.094
        36.000
   2236985.93046   1738632.00043  24404594.3914                   24404595.8524
        41.5004         23.2504
   -872553.00846   -651630.10943  20944715.7814                   20944714.7504
        40.7504         20.5004
     73036.72747     73012.61745  20199896.2734                   20199897.2504
        47.2504         34.0004
 19  3  4 21 58  0.0000000  0  6G07G08G13G27G28G30
   1317409.00448   1030794.12545  21275435.0554                   21275432.9654
        48.2504         32.0004
   1229555.64547    961989.73045  22240209.2274                   22240210.9024
        46.5004         33.2504
   1317764.371 6                  22051292.219
        37.500
   2243452.05947   1743670.53543  24405825.0944                   24405826.0554
        42.5004         22.5004
   -890267.78147   -665433.84043  20941345.5554                   20941343.7504
        42.2504         21.0004
     63064.85948     65242.32045  20197998.8594                   20197999.4144
        48.0004         34.7504
 19  3  4 21 58  5.0000000  0  6G07G08G13G27G28G30
   1316917.02748   1030410.78545  21275341.8754                   21275339.8094
        48.0004         31.5004
   1228678.11347    961305.95745  22240042.8284                   22240043.6374
        45.7504         32.0004
   1296572.211 6                  22047258.602
        36.000
   2249932.91846   1748720.56343  24407058.1954                   24407059.0394
        41.5004         23.0004
   -907965.23046   -679224.05543  20937977.3834                   20937976.0434
        40.5004         22.0004
     53112.44547     57487.18045  20196105.1094                   20196105.4534
        47.2504         34.5004
 19  3  4 21 58 10.0000000  0  6G07G08G13G27G28G30
   1316442.08248   1030040.68845  21275251.2734                   21275249.5704
        48.0004         32.0004
   1227822.04747    960638.89545  22239880.0944                   22239880.4734
        45.2504         32.2504
   1275400.750 6                  22043230.414
        37.000
   2256428.43046   1753781.97743  24408294.5474                   24408295.1294
        41.5004         22.7504
   -925645.59046   -693000.93743  20934613.5234                   20934611.4144
        41.5004         21.2504
     43179.44147     49747.19545  20194214.5084                   20194215.6414
        47.2504         34.0004
 19  3  4 21 58 15.0000000  0  6G07G08G13G27G28G30
   1315984.17648   1029683.88345  21275163.7894                   21275162.5514
        48.0004         31.7504
   1226987.27747    959988.43045  22239720.8364                   22239722.1294
        45.2504         32.5004
   1254250.086 6                  22039205.023
        36.750
   2262938.50046   1758854.75044  24409533.6884                   24409534.5514
        41.7504         24.7504
   -943308.82046   -706764.49643  20931251.9454                   20931250.1054
        41.0004         21.5004
     33265.79347     42022.26645  20192328.3204                   20192329.2344
        47.2504         34.2504
 19  3  4 21 58 20.0000000  0  6G07G08G13G27G28G30
   1315542.84047   1029339.99645  21275080.1644                   21275078.4534
        47.7504         30.5004
   1226173.46547    959354.27745  22239565.9064                   22239567.0474
        45.2504         31.5004
   1233119.770 6                  22035184.250
        36.500
   2269462.78146   1763938.61343  24410774.5084                   24410775.7734
        41.7504         23.0004
   -960955.24246   -720514.93743  20927894.0394                   20927891.9774
        41.2504         21.5004
     23371.09447     34312.13745  20190445.4384                   20190445.8054
        47.0004         32.5004
 19  3  4 21 58 25.0000000  0  6G07G08G13G27G28G30
   1315118.35248   1029009.19945  21274999.6564                   21274997.2584
        48.0004         31.5004
   1225380.73447    958736.57045  22239415.1724                   22239416.5434
        45.5004         32.7504
   1212010.027 6                  22031167.227
        37.000
   2276001.46147   1769033.67243  24412019.5164                   24412020.0474
        42.0004         22.7504
   -978584.68446   -734252.18743  20924539.5944                   20924537.8134
        41.5004         22.5004
     13495.61347     26616.93445  20188566.2664                   20188566.7274
        47.5004         34.2504
 19  3  4 21 58 30.0000000  0  6G07G08G13G27G28G30
   1314710.55147   1028691.43845  21274921.2424                   21274919.9614
        47.7504         31.5004
   1224609.04747    958135.24645  22239268.4224                   22239269.7664
        46.2504         33.0004
   1190920.754 6                  22027153.727
        37.750
   2282554.38347   1774139.84044  24413266.1724                   24413266.9654
        42.2504         26.0004
   -996197.23447   -747976.25844  20921187.7034                   20921186.3634
        42.5004         24.0004
      3639.18048     18936.59845  20186690.6174                   20186691.1454
        48.0004         35.0004
 19  3  4 21 58 35.0000000  0  6G07G08G13G27G28G30
   1314319.32047   1028386.59045  21274847.3444                   21274845.9534
        47.7504         32.0004
   1223858.27047    957550.23445  22239125.3594                   22239126.6174
        45.5004         32.7504
   1169851.809 6                  22023144.555
        38.000
   2289121.41846   1779257.00843  24414516.1724                   24414516.4614
        41.2504         22.7504
  -1013793.07446   -761687.28543  20917839.2274                   20917837.6954
        41.7504         22.7504
     -6198.28947     11271.03545  20184818.4924                   20184819.1174
        47.7504         34.7504
 19  3  4 21 58 40.0000000  0  6G07G08G13G27G28G30
   1313944.63747   1028094.62545  21274776.1334                   21274774.5744
        47.7504         32.0004
   1223128.48447    956981.55145  22238986.6954                   22238987.8674
        45.7504         33.2504
   1148803.289 6                  22019138.914
        37.500
   2295702.57047   1784385.18044  24415768.2114                   24415769.0044
        42.7504         24.0004
  -1031372.25047   -775385.35243  20914494.2584                   20914492.6374
        42.0004         22.5004
    -16016.80947      3620.24645  20182949.8834                   20182950.8874
        47.5004         34.0004
 19  3  4 21 58 45.0000000  0  6G07G08G13G27G28G30
   1313586.17648   1027815.32845  21274707.7974                   21274705.7464
        48.0004         32.0004
   1222419.13747    956428.83645  22238851.6254                   22238852.5824
        45.5004         33.0004
   1127774.695 6                  22015137.828
        37.250
   2302297.43047   1789524.05143  24417023.6724                   24417023.9534
        43.0004         23.7504
  -1048935.02347   -789070.64143  20911152.0474                   20911150.4804
        42.7504         22.5004
    -25816.77347     -4016.10245  20181085.2114                   20181085.6954
        47.2504         34.5004
 19  3  4 21 58 50.0000000  0  6G07G08G13G27G28G30
   1313244.42247   1027549.06344  21274642.6564                   21274641.3054
        47.5004         27.0004
   1221730.66847    955892.36744  22238720.1094                   22238721.6414
        45.0004         28.5004
   1106766.668 6                  22011139.867
        38.250
   2308906.50046   1794673.98043  24418280.0314                   24418282.0594
        41.5004         20.2504
  -1066480.98847   -802742.75443  20907812.7664                   20907811.5004
        42.0004         20.5004
    -35597.65247    -11637.53145  20179223.3204                   20179224.6484
        47.2504         30.7504
 19  3  4 21 58 55.0000000  0  6G07G08G13G27G28G30
   1312918.89848   1027295.38744  21274580.8754                   21274578.6454
        48.0004         28.5004
   1221062.84047    955371.98844  22238593.3834                   22238594.3444
        45.0004         28.7504
   1085778.723 6                  22007145.844
        36.750
   2315529.34846   1799834.64143  24419541.2584                   24419542.2464
        41.0004         19.7504
  -1084010.50446   -816402.16843  20904477.4694                   20904475.7074
        41.5004         19.2504
    -45359.86747    -19244.46545  20177366.2894                   20177366.8364
        47.0004         30.5004
 19  3  4 21 59  0.0000000  0  6G07G08G13G27G28G30
   1312609.55947   1027054.34844  21274521.2584                   21274520.1094
        47.7504         29.0004
   1220415.38747    954867.48444  22238470.0864                   22238471.2154
        45.5004         29.0004
   1064810.836 6                  22003155.406
        36.250
   2322165.86747   1805005.91443  24420804.2974                   24420805.2504
        42.0004         19.0004
  -1101523.69946   -830048.78542  20901145.1254                   20901142.8444
        41.5004         17.7504
    -55103.52347    -26836.92245  20175511.9844                   20175512.5004
        47.2504         31.0004
 19  3  4 21 59  5.0000000  0  6G07G08G13G27G28G30
   1312316.23448   1026825.77344  21274466.7114                   21274464.0204
        48.2504         28.5004
   1219788.30547    954378.84044  22238350.4614                   22238351.4064
        45.5004         28.7504
   1043862.777 6                  21999169.703
        36.500
   2328815.83247   1810187.71543  24422069.5084                   24422070.2154
        42.0004         19.0004
  -1119020.73847   -843682.84442  20897815.5474                   20897812.9654
        42.0004         17.7504
    -64828.75047    -34415.01645  20173661.6254                   20173661.9454
        47.5004         31.5004
 19  3  4 21 59 10.0000000  0  6G07G08G13G27G28G30
   1312038.78947   1026609.58644  21274413.5784                   21274411.7544
        47.7504         29.5004
   1219181.39547    953905.92644  22238235.2344                   22238236.0984
        45.2504         28.5004
   1022934.457 6                  21995187.672
        37.000
   2335479.16847   1815379.93043  24423337.2584                   24423338.5474
        42.0004         20.0004
  -1136501.71947   -857304.37143  20894488.2194                   20894486.6764
        42.0004         19.0004
    -74535.71147    -41978.87945  20171814.1484                   20171815.0084
        47.2504         31.0004
 19  3  4 21 59 15.0000000  0  6G07G08G13G27G28G30
   1311777.46147   1026405.94944  21274363.5314                   21274362.1254
        47.7504         27.5004
   1218594.84047    953448.88344  22238123.8524                   22238124.8714
        45.5004         29.0004
   1002026.207 6                  21991208.555
        38.000
   2342156.09447   1820582.67243  24424607.5234                   24424608.9184
        42.0004         20.5004
  -1153966.42646   -870913.25043  20891164.9694                   20891162.8594
        41.7504         18.5004
    -84224.10547    -49528.26245  20169971.0004                   20169971.4734
        47.2504         30.2504
 19  3  4 21 59 20.0000000  0  6G07G08G13G27G28G30
   1311531.84447   1026214.53544  21274316.1174                   21274315.4384
        47.2504         28.0004
   1218028.21547    953007.32444  22238015.8754                   22238017.1684
        45.5004         29.0004
    981137.500 6                  21987232.867
        37.250
   2348846.16047   1825795.77043  24425880.4844                   24425881.8794
        42.0004         20.0004
  -1171415.21947   -884509.69942  20887844.8054                   20887842.5354
        42.2504         17.7504
    -93894.40247    -57063.55945  20168130.4694                   20168131.7274
        47.2504         31.0004
 19  3  4 21 59 25.0000000  0  6G07G08G13G27G28G30
   1311301.65247   1026035.17644  21274273.1884                   21274271.0664
        47.7504         29.0004
   1217481.23447    952581.12144  22237911.7034                   22237912.9384
        45.2504         28.5004
    960268.141 6                  21983262.203
        36.250
   2355549.07446   1831018.81643  24427156.5234                   24427157.4924
        41.0004         21.0004
  -1188848.36747   -898093.96543  20884527.4224                   20884525.6604
        42.0004         18.5004
   -103546.89547    -64585.00045  20166293.2734                   20166294.2194
        47.0004         31.5004
 19  3  4 21 59 30.0000000  0  6G07G08G13G27G28G30
   1311087.09047   1025867.98844  21274231.4774                   21274230.9064
        47.2504         29.2504
   1216954.18447    952170.43044  22237811.4694                   22237813.0274
        45.2504         28.2504
    939418.367 6                  21979294.602
        36.000
   2362265.05946   1836252.02343  24428435.0084                   24428435.6414
        41.5004         21.2504
  -1206265.68447   -911665.89843  20881212.7504                   20881211.1804
        42.2504         19.2504
   -113181.26647    -72092.30145  20164460.0944                   20164461.1764
        47.0004         31.7504
 19  3  4 21 59 35.0000000  0  6G07G08G13G27G28G30
   1310888.04748   1025712.88344  21274194.5634                   21274192.6994
        48.0004         29.2504
   1216446.86347    951775.11344  22237714.6564                   22237715.7034
        45.7504         29.0004
    918588.070 6                  21975331.500
        38.000
   2368994.00447   1841495.36743  24429714.8204                   24429716.2154
        42.0004         20.5004
  -1223667.27047   -925225.57843  20877901.4614                   20877900.0554
        42.5004         19.7504
   -122797.71548    -79585.63745  20162630.0314                   20162631.2584
        48.0004         32.0004
 19  3  4 21 59 40.0000000  0  6G07G08G13G27G28G30
   1310704.53947   1025569.87944  21274159.3914                   21274157.8634
        47.5004         28.7504
   1215959.35547    951395.23844  22237622.4384                   22237623.5434
        45.2504         29.5004
    897777.313 6                  21971370.430
        37.250
   2375735.93847   1846748.81643  24430997.9064                   24430999.0744
        42.0004         21.0004
  -1241053.12947   -938773.01243  20874592.7034                   20874591.2304
        42.2504         19.2504
   -132396.14547    -87064.94145  20160803.9454                   20160805.0704
        47.0004         31.7504
 19  3  4 21 59 45.0000000  0  6G07G08G13G27G28G30
   1310536.50048   1025438.95344  21274126.8524                   21274126.0514
        48.0004         29.2504
   1215491.53147    951030.68844  22237532.8524                   22237534.5634
        45.7504         29.7504
    876985.984 6                  21967413.852
        37.750
   2382490.73047   1852012.28543  24432283.1254                   24432284.7464
        42.5004         20.0004
  -1258423.34047   -952308.20343  20871287.6954                   20871286.2424
        43.0004         19.7504
   -141976.68748    -94530.27745  20158980.8204                   20158981.4654
        48.0004         31.5004
 19  3  4 21 59 50.0000000  0  6G07G08G13G27G28G30
   1310383.92648   1025320.05144  21274098.7114                   21274097.1024
        48.0004         29.0004
   1215043.36747    950681.46544  22237447.8914                   22237449.1094
        45.7504         29.7504
    856214.086 6                  21963462.133
        38.000
   2389258.33247   1857285.72343  24433570.9144                   24433572.2504
        42.5004         20.0004
  -1275777.85547   -965831.23043  20867984.7114                   20867983.0474
        43.5004         19.7504
   -151539.29348   -101981.67245  20157161.0554                   20157162.0354
        48.0004         32.2504
 19  3  4 21 59 55.0000000  0  6G07G08G13G27G28G30
   1310247.14147   1025213.46144  21274072.0234                   21274070.5904
        47.5004         29.2504
   1214615.09447    950347.75044  22237366.4454                   22237367.8244
        45.5004         29.2504
    835461.965 6                  21959512.195
        37.500
   2396039.16047   1862569.48843  24434861.3364                   24434862.5864
        43.0004         19.7504
  -1293116.40247   -979341.79343  20864685.8054                   20864684.1334
        43.5004         20.5004
   -161083.66047   -109418.84445  20155344.2664                   20155345.9144
        47.5004         32.0004
 19  3  4 22  0  0.0000000  0  6G07G08G13G27G28G30
   1310125.72747   1025118.85545  21274048.3204                   21274048.2194
        47.2504         30.2504
   1214206.46147    950029.33644  22237289.0394                   22237290.2704
        45.2504         29.5004
    814729.215 6                  21955566.758
        37.250
   2402832.70347   1867863.15643  24436154.0164                   24436155.1454
        42.0004         20.5004
  -1310439.35547   -992840.17643  20861389.1484                   20861387.7274
        43.2504         21.0004
   -170610.18447   -116842.10545  20153532.0314                   20153533.1994
        47.2504         31.7504
 19  3  4 22  0  5.0000000  0  6G07G08G13G27G28G30
   1310019.39847   1025035.99244  21274029.2424                   21274027.8714
        47.5004         29.5004
   1213817.06347    949725.90244  22237214.7034                   22237216.1054
        45.7504         29.2504
    794015.617 6                  21951625.703
        37.500
   2409638.71147   1873166.53143  24437449.4384                   24437450.7074
        42.5004         21.0004
  -1327746.96947  -1006326.62943  20858095.8204                   20858094.1254
        43.0004         21.2504
   -180119.15247   -124251.69545  20151722.5704                   20151723.4494
        47.7504         32.0004
 19  3  4 22  0 10.0000000  0  6G07G08G13G27G28G30
   1309928.56348   1024965.21544  21274012.5314                   21274010.0314
        48.0004         28.0004
   1213447.32847    949437.79344  22237144.3364                   22237145.2934
        45.7504         27.7504
    773321.469 6                  21947687.313
        38.250
   2416457.53147   1878479.90643  24438746.9844                   24438748.2344
        42.5004         19.5004
  -1345038.89146  -1019800.83643  20854805.2734                   20854803.7704
        41.5004         20.5004
   -189610.20747   -131647.30945  20149916.2344                   20149916.6954
        47.5004         30.2504
 19  3  4 22  0 15.0000000  0  6G07G08G13G27G28G30
   1309852.87147   1024906.23844  21273996.6564                   21273995.8484
        47.2504         26.5004
   1213096.91447    949164.75844  22237077.3594                   22237078.1214
        45.5004         27.5004
    752646.590 6                  21943753.016
        38.250
   2423288.84847   1883803.00043  24440047.2034                   24440048.3204
        43.0004         20.2504
  -1362315.44947  -1033263.13343  20851517.7114                   20851515.7704
        42.5004         18.5004
   -199083.60547   -139029.17645  20148113.5164                   20148114.1094
        47.7504         30.5004
 19  3  4 22  0 20.0000000  0  6G07G08G13G27G28G30
   1309792.37947   1024859.09444  21273986.1174                   21273984.1724
        47.5004         27.2504
   1212765.97747    948906.87944  22237014.6334                   22237015.4964
        45.5004         27.7504
    731991.000 6                  21939822.008
        39.000
   2430132.70747   1889135.87543  24441349.0634                   24441350.5394
        43.0004         19.7504
  -1379576.57047  -1046713.34843  20848232.8524                   20848231.2624
        43.0004         18.5004
   -208539.31247   -146397.26645  20146314.2814                   20146314.7234
        47.2504         30.7504
 19  3  4 22  0 25.0000000  0  6G07G08G13G27G28G30
   1309746.88747   1024823.64844  21273976.8444                   21273975.2194
        47.5004         27.7504
   1212454.14147    948663.88744  22236955.4774                   22236955.9734
        45.5004         28.0004
    711354.496 6                  21935895.289
        38.250
   2436988.92647   1894478.37543  24442653.8444                   24442655.1914
        42.5004         19.0004
  -1396822.42647  -1060151.67242  20844950.8524                   20844949.4224
        42.5004         17.7504
   -217977.53947   -153751.72345  20144518.2814                   20144518.8364
        47.7504         31.0004
 19  3  4 22  0 30.0000000  0  6G07G08G13G27G28G30
   1309716.34047   1024799.84444  21273971.7894                   21273969.5704
        47.5004         28.2504
   1212161.31647    948435.71944  22236899.7504                   22236900.3594
        45.5004         28.0004
    690736.992 6                  21931971.875
        37.500
   2443857.34047   1899830.39843  24443961.0164                   24443962.5394
        43.5004         19.7504
  -1414053.13347  -1073578.17242  20841672.2734                   20841670.3834
        43.2504         17.2504
   -227398.37547   -161092.64845  20142725.5394                   20142725.8594
        47.7504         31.2504
 19  3  4 22  0 35.0000000  0  6G07G08G13G27G28G30
   1309701.10247   1024787.97344  21273967.5634                   21273966.3794
        47.2504         28.5004
   1211888.06647    948222.80144  22236847.6884                   22236848.4264
        45.7504         27.7504
    670138.918 6                  21928052.047
        37.000
   2450738.39147   1905192.24643  24445270.1484                   24445271.6844
        42.7504         19.0004
  -1431268.25447  -1086992.56243  20838396.8054                   20838394.5904
        43.5004         18.2504
   -236801.35547   -168419.64145  20140936.1644                   20140936.5394
        47.5004         31.2504
 19  3  4 22  0 40.0000000  0  6G07G08G13G27G28G30
   1309700.73047   1024787.66844  21273968.0944                   21273966.3794
        47.5004         28.0004
   1211633.89547    948024.71544  22236799.3914                   22236799.8984
        45.2504         27.7504
    649559.859 6                  21924136.531
        37.750
   2457631.58647   1910563.57843  24446582.4064                   24446583.7504
        42.2504         19.7504
  -1448468.30947  -1100395.18443  20835123.6954                   20835121.4494
        43.2504         18.2504
   -246186.98047   -175733.10245  20139150.1414                   20139150.5904
        47.2504         30.5004
 19  3  4 22  0 45.0000000  0  6G07G08G13G27G28G30
   1309715.48047   1024799.15244  21273971.7734                   21273969.7504
        47.5004         29.2504
   1211398.93847    947841.64544  22236754.5554                   22236755.6764
        45.5004         28.7504
    629000.008 6                  21920223.953
        36.000
   2464537.18847   1915944.52343  24447896.1254                   24447897.1914
        42.5004         20.2504
  -1465653.00847  -1113785.88743  20831853.2584                   20831851.1024
        43.7504         18.5004
   -255555.01647   -183032.88745  20137367.3984                   20137368.0594
        47.5004         31.5004
 19  3  4 22  0 50.0000000  0  6G07G08G13G27G28G30
   1309745.44947   1024822.52045  21273976.6644                   21273974.8364
        47.0004         30.0004
   1211183.19547    947673.53544  22236713.2504                   22236714.6724
        45.0004         28.7504
    608459.547 6                  21916315.453
        36.000
   2471455.25846   1921335.22743  24449212.2194                   24449213.6024
        41.2504         20.0004
  -1482822.20347  -1127164.46543  20828586.2664                   20828583.8554
        42.2504         19.0004
   -264905.31647   -190318.82845  20135588.0234                   20135588.7464
        47.0004         31.7504
 19  3  4 22  0 55.0000000  0  6G07G08G13G27G28G30
   1309790.24247   1024857.39844  21273984.9144                   21273984.2114
        47.2504         29.0004
   1210986.41847    947520.20344  22236675.6804                   22236677.3954
        45.2504         29.2504
    587938.063 6                  21912410.383
        36.250
   2478385.39846   1926735.34443  24450531.6564                   24450532.5314
        41.0004         20.7504
  -1499976.37147  -1140531.35243  20825321.9844                   20825319.4384
        42.5004         19.0004
   -274238.28147   -197591.27345  20133812.2504                   20133813.0704
        47.0004         32.2504
 19  3  4 22  1  0.0000000  0  6G07G08G13G27G28G30
   1309849.94147   1024903.93844  21273997.6644                   21273995.4924
        47.7504         29.5004
   1210808.72347    947381.74244  22236642.3524                   22236643.9224
        45.7504         28.7504
    567435.699 6                  21908508.609
        37.000
   2485327.71947   1932144.93843  24451852.2194                   24451853.5044
        42.0004         20.0004
  -1517115.34847  -1153886.37543  20822060.1644                   20822058.1134
        42.7504         18.5004
   -283553.82047   -204850.13345  20132039.2034                   20132040.1484
        47.5004         32.5004
 19  3  4 22  1  5.0000000  0  6G07G08G13G27G28G30
   1309924.18847   1024961.76644  21274010.5554                   21274009.6054
        47.7504         29.2504
   1210649.66447    947257.79344  22236611.8914                   22236613.5164
        45.5004         28.7504
    546952.063 6                  21904611.102
        36.000
   2492281.80147   1937563.69943  24453175.6804                   24453177.0474
        42.0004         20.5004
  -1534239.56247  -1167229.94943  20818801.6804                   20818799.2774
        43.2504         19.0004
   -292852.29747   -212095.70345  20130269.9844                   20130271.0274
        47.5004         32.2504
 19  3  4 22  1 10.0000000  0  6G07G08G13G27G28G30
   1310012.73848   1025030.77044  21274027.7034                   21274026.0594
        48.0004         28.5004
   1210508.98847    947148.17244  22236584.8984                   22236586.1804
        45.7504         29.5004
    526486.844 6                  21900715.992
        36.750
   2499247.38747   1942991.41443  24454501.2584                   24454502.3134
        43.0004         20.0004
  -1551349.23047  -1180562.12542  20815545.7584                   20815543.6294
        42.7504         17.7504
   -302133.94148   -219328.16445  20128503.8054                   20128504.6134
        48.0004         32.7504
 19  3  4 22  1 15.0000000  0  6G07G08G13G27G28G30
   1310115.90648   1025111.15644  21274047.0164                   21274045.4104
        48.0004         28.5004
   1210387.16047    947053.22344  22236562.3444                   22236562.9264
        45.7504         29.2504
    506040.492 6                  21896825.547
        36.750
   2506224.87547   1948428.41443  24455829.2194                   24455830.0274
        42.2504         20.5004
  -1568444.00047  -1193882.75042  20812293.0394                   20812290.5004
        42.5004         17.7504
   -311398.44148   -226547.26645  20126741.1564                   20126741.1804
        48.0004         31.5004
 19  3  4 22  1 20.0000000  0  7G07G08G11G13G27G28G30
   1310233.49247   1025202.80144  21274069.9144                   21274068.1334
        47.2504         28.5004
   1210283.67247    946972.61344  22236542.4844                   22236543.2664
        45.0004         27.5004
   1442693.50416                  23210077.500
        37.250
    485612.813 6                  21892937.891
        36.750
   2513213.97746   1953874.48043  24457159.1174                   24457159.9654
        41.5004         19.7504
  -1585524.09447  -1207191.89542  20809042.3594                   20809040.5004
        42.0004         17.2504
   -320645.97347   -233753.10545  20124981.3054                   20124981.9344
        47.0004         30.7504
 19  3  4 22  1 25.0000000  0  7G07G08G11G13G27G28G30
   1310365.69547   1025305.81644  21274094.9614                   21274093.4494
        47.5004         28.0004
   1210198.81347    946906.48844  22236526.1334                   22236527.0124
        45.5004         27.7504
   1419540.602 6                  23205671.281
        37.500
    465203.957 6                  21889054.688
        37.500
   2520214.83246   1959329.68043  24458491.5394                   24458492.3284
        41.7504         19.0004
  -1602589.34047  -1220489.49242  20805795.1804                   20805793.3164
        42.2504         16.7504
   -329876.37147   -240945.63745  20123224.5314                   20123225.4384
        47.2504         30.7504
 19  3  4 22  1 30.0000000  0  7G07G08G11G13G27G28G30
   1310512.57847   1025420.24644  21274122.7974                   21274121.3834
        47.0004         27.0004
   1210132.70347    946854.94544  22236513.6334                   22236514.7114
        45.2504         28.5004
   1396403.109 6                  23201268.625
        36.000
    444814.023 6                  21885173.883
        36.750
   2527227.58647   1964794.14143  24459825.8754                   24459826.6334
        42.0004         19.2504
  -1619639.60246  -1233775.42642  20802550.2344                   20802548.4384
        41.5004         16.7504
   -339089.56647   -248124.76645  20121470.9614                   20121471.8164
        47.5004         31.0004
 19  3  4 22  1 35.0000000  0  7G07G08G11G13G27G28G30
   1310673.94147   1025546.02344  21274153.7584                   21274152.1054
        47.5004         26.7504
   1210085.12547    946817.87944  22236504.5704                   22236505.6644
        45.5004         27.7504
   1373280.762 6                  23196869.297
        38.500
    424442.836 6                  21881297.539
        37.000
   2534251.96147   1970267.69543  24461162.6334                   24461163.8874
        42.0004         19.7504
  -1636675.12547  -1247049.82842  20799308.9064                   20799307.0824
        42.0004         17.7504
   -348285.71948   -255290.57845  20119721.4694                   20119721.7974
        48.0004         31.0004
 19  3  4 22  1 40.0000000  0  7G07G08G11G13G27G28G30
   1310849.62548   1025682.85945  21274185.8364                   21274184.6884
        48.0004         31.0004
   1210055.94547    946795.12144  22236498.6484                   22236499.9454
        45.0004         29.2504
   1350173.449 6                  23192471.602
        40.500
    404090.176 6                  21877424.445
        38.500
   2541287.82847   1975750.14143  24462501.4454                   24462502.9104
        43.0004         20.2504
  -1653696.10546  -1260312.97342  20796069.6334                   20796068.1254
        38.7504         17.2504
   -357464.99247   -262443.25044  20117974.1724                   20117974.9884
        44.5004         25.2504
 19  3  4 22  1 45.0000000  0  7G07G08G11G13G27G28G30
   1311039.67647   1025830.98444  21274223.7734                   21274221.2344
        46.7504         28.0004
   1210045.21947    946786.75444  22236496.8134                   22236498.1294
        44.0004         29.2504
   1327081.422 6                  23188077.805
        40.500
    383755.24216                  21873555.367
        38.000
   2548335.19547   1981241.62943  24463843.0164                   24463843.8484
        42.5004         21.5004
  -1670702.40247  -1273564.59042  20792833.4144                   20792832.1134
        43.5004         17.7504
   -366627.37547   -269582.77745  20116231.2734                   20116231.8094
        47.5004         32.7504
 19  3  4 22  1 50.0000000  0  7G07G08G11G13G27G28G30
   1311243.94947   1025990.14544  21274261.6024                   21274260.6724
        46.7504         29.5004
   1210052.69947    946792.63345  22236498.4844                   22236499.4964
        46.0004         30.5004
   1304004.336 6                  23183686.359
        40.500
    363439.629 5                  21869689.133
        34.500
   2555393.94146   1986741.89543  24465185.8674                   24465187.4024
        41.7504         20.5004
  -1687694.21946  -1286804.97343  20789599.9694                   20789599.3204
        41.5004         18.5004
   -375772.96547   -276709.21145  20114490.7504                   20114491.6094
        47.2504         32.7504
 19  3  4 22  1 55.0000000  0  7G07G08G11G13G27G28G30
   1311462.62547   1026160.52044  21274303.9064                   21274301.5664
        47.0004         29.0004
   1210078.65247    946812.80945  22236503.6804                   22236504.3484
        46.2504         31.5004
   1280942.457 6                  23179297.289
        41.500
    343142.801 4                  21865827.883
        28.500
   2562464.24247   1992251.23443  24466531.6254                   24466532.7734
        42.0004         22.0004
  -1704671.18446  -1300033.77742  20786369.8444                   20786368.6134
        41.0004         17.7504
   -384901.57047   -283822.43745  20112753.8754                   20112754.1564
        46.2504         33.0004
 19  3  4 22  2  0.0000000  0  7G07G08G11G13G27G28G30
   1311695.49248   1026342.04344  21274352.4774                   21274345.5824
        48.7504         29.2504
   1210122.81347    946847.29744  22236516.2194                   22236512.4224
        47.2504         29.2504
   1257895.594 7                  23174915.688
        44.000
    322864.67617                  21861971.977
        42.000
   2569545.85547   1997769.42243  24467883.0084                   24467880.4184
        44.5004         22.5004
  -1721633.84046  -1313251.37942  20783145.4844                   20783140.3834
        40.5004         17.2504
   -394013.37148   -290922.46945  20111024.4224                   20111021.0944
        49.5004         33.0004
 19  3  4 22  2  5.0000000  0  6G07G08G11G27G28G30
   1311943.31347   1026535.10544  21274394.0704                   21274394.3134
        46.5004         28.2504
   1210185.89147    946896.41044  22236523.5864                   22236525.5234
        45.5004         28.5004
   1234864.496 6                  23170528.875
        41.000
   2576639.52346   2003296.90243  24469228.8444                   24469231.2704
        41.7504         22.2504
  -1738581.17246  -1326457.14542  20779916.2034                   20779916.1094
        39.5004         16.2504
   -403107.71147   -298009.01244  20109288.6804                   20109291.3284
        46.0004         28.5004
 19  3  4 22  2 10.0000000  0  7G07G08G11G13G27G28G30
   1312204.39147   1026738.53144  21274445.9064                   21274443.3014
        47.0004         28.0004
   1210266.27747    946958.99245  22236539.2504                   22236540.7464
        46.7504         30.5004
   1211847.55147   1217564.07053  23166149.5234                   23166144.8444
        43.5004         19.2504
    282364.55115                  21854260.148
        34.500
   2583743.60247   2008832.53143  24470580.7034                   24470583.1764
        42.5004         21.5004
  -1755514.89146  -1339652.28142  20776694.6094                   20776693.6254
        40.0004         16.7504
   -412186.11747   -305083.08645  20107561.8444                   20107562.7814
        46.2504         30.0004
 19  3  4 22  2 15.0000000  0  7G07G08G11G13G27G28G30
   1312479.53547   1026952.90244  21274496.7734                   21274495.6684
        46.5004         28.5004
   1210364.64847    947035.66045  22236557.8754                   22236559.2584
        46.0004         31.0004
   1188845.49647   1199640.37143  23161772.0784                   23161768.2194
        42.0004         19.0004
    262141.707 6                  21850413.211
        40.750
   2590858.77046   2014376.78143  24471934.4224                   24471936.3794
        41.7504         21.5004
  -1772434.41846  -1352836.32042  20773474.6414                   20773473.8834
        41.2504         16.2504
   -421247.94947   -312144.28145  20105837.1334                   20105837.5354
        47.2504         33.2504
 19  3  4 22  2 20.0000000  0  7G07G08G11G13G27G28G30
   1312769.58647   1027178.93444  21274551.9384                   21274551.0314
        47.0004         28.0004
   1210481.99247    947127.09845  22236579.8984                   22236581.1884
        46.0004         30.7504
   1165859.29747   1181729.06343  23157398.1564                   23157395.1334
        42.2504         19.0004
    241938.340 5                  21846569.188
        32.750
   2597985.98047   2019930.49243  24473290.8444                   24473292.3324
        42.0004         20.5004
  -1789338.57047  -1366008.35943  20770257.9224                   20770257.2734
        45.2504         18.2504
   -430292.25447   -319191.77045  20104116.2894                   20104116.9104
        46.5004         31.2504
 19  3  4 22  2 25.0000000  0  7G07G08G11G13G27G28G30
   1313074.25447   1027416.33644  21274610.7194                   21274609.1724
        47.0004         28.5004
   1210617.95747    947233.04345  22236606.0004                   22236607.0784
        45.7504         31.2504
   1142888.61747   1163829.82043  23153026.8134                   23153023.6334
        42.0004         18.5004
    221753.664 6                  21842727.641
        40.500
   2605124.88746   2025493.25843  24474649.4064                   24474651.0164
        41.5004         20.5004
  -1806227.85547  -1379168.85943  20767044.1254                   20767042.7194
        44.0004         22.2504
   -439319.34447   -326225.86745  20102398.3364                   20102398.7624
        46.5004         31.2504
 19  3  4 22  2 30.0000000  0  7G07G08G11G13G27G28G30
   1313393.40247   1027665.01644  21274670.8134                   21274669.1644
        47.0004         28.5004
   1210772.33647    947353.34045  22236635.8284                   22236636.2424
        46.0004         30.5004
   1119933.38747   1145942.62943  23148658.5004                   23148655.2814
        42.2504         18.2504
    201588.066 6                  21838890.242
        39.000
   2612275.29746   2031065.00843  24476010.1644                   24476011.8324
        41.0004         20.5004
  -1823102.35247  -1392317.80944  20763832.7584                   20763831.1374
        44.0004         25.5004
   -448329.35547   -333246.65645  20100683.9924                   20100684.6764
        46.5004         31.0004
 19  3  4 22  2 35.0000000  0  7G07G08G11G13G27G28G30
   1313726.64547   1027924.68844  21274734.5944                   21274732.9574
        47.0004         28.5004
   1210944.72347    947487.66045  22236668.1564                   22236668.6454
        46.0004         30.5004
   1096993.22347   1128067.20342  23144293.2814                   23144290.6684
        42.5004         17.2504
    181440.94546   -400122.82053  21835056.5944                   21835050.8954
        39.5004         20.0004
   2619436.82847   2036645.41043  24477372.5704                   24477374.2424
        42.0004         21.2504
  -1839962.44947  -1405455.55144  20760624.2034                   20760622.1844
        43.7504         24.7504
   -457322.67647   -340254.43445  20098972.3204                   20098973.0984
        46.5004         31.2504
 19  3  4 22  2 40.0000000  0  7G07G08G11G13G27G28G30
   1314074.29347   1028195.57844  21274800.7894                   21274799.0314
        47.0004         28.7504
   1211135.53547    947636.35545  22236703.9304                   22236705.5634
        45.7504         30.0004
   1074068.39547   1110203.70343  23139931.1724                   23139927.8134
        42.2504         18.2504
    161312.68846   -415807.16843  21831225.8834                   21831221.5204
        38.5004         19.2504
   2626609.84847   2042234.75843  24478737.5864                   24478739.1374
        42.0004         20.5004
  -1856807.86347  -1418581.85243  20757418.8524                   20757416.7114
        44.0004         22.5004
   -466299.02047   -347248.99245  20097264.0164                   20097264.6134
        46.5004         30.5004
 19  3  4 22  2 45.0000000  0  7G07G08G11G13G27G28G30
   1314437.77047   1028478.82044  21274870.0944                   21274867.9964
        46.0004         26.7504
   1211344.84447    947799.44544  22236743.7274                   22236745.1294
        45.5004         29.5004
   1051160.90646   1092353.69142  23135571.1954                   23135568.8284
        41.2504         17.2504
    141201.25846   -431478.37143  21827398.4924                   21827394.9304
        40.7504         19.2504
   2633793.60947   2047832.51243  24480104.7814                   24480105.6844
        42.5004         21.7504
  -1873638.81647  -1431696.87544  20754216.2034                   20754213.6804
        43.5004         24.5004
   -475258.16847   -354230.15645  20095558.9694                   20095559.7734
        46.2504         30.2504
 19  3  4 22  2 50.0000000  0  7G07G08G11G13G27G28G30
   1314815.10547   1028772.85944  21274941.2814                   21274939.6724
        45.5004         24.5004
   1211573.21947    947977.39844  22236787.5554                   22236788.5704
        45.0004         28.5004
   1028267.71947   1074514.95342  23131215.2664                   23131212.9104
        42.0004         17.2504
    121111.64846   -447132.62543  21823576.1644                   21823572.4304
        40.0004         19.7504
   2640990.39146   2053440.38743  24481474.1414                   24481475.8674
        41.7504         21.7504
  -1890453.78947  -1444799.48444  20751016.8204                   20751014.3444
        44.0004         24.2504
   -484199.51247   -361197.44945  20093857.8204                   20093858.4024
        46.2504         30.0004
 19  3  4 22  2 55.0000000  0  7G07G08G11G13G27G28G30
   1315207.09047   1029078.30144  21275016.0634                   21275014.3014
        45.7504         24.5004
   1211820.26247    948169.89544  22236834.6954                   22236835.3524
        45.0004         27.5004
   1005390.19547   1056688.25042  23126862.0634                   23126859.6134
        42.7504         17.2504
    101041.08646   -462772.02343  21819756.4614                   21819753.7814
        40.2504         19.2504
   2648198.82047   2059057.34843  24482846.0634                   24482847.2974
        42.2504         22.0004
  -1907253.84447  -1457890.42243  20747819.0474                   20747816.9414
        43.7504         22.7504
   -493123.61347   -368151.28944  20092159.6564                   20092160.1994
        46.2504         29.7504
 19  3  4 22  3  0.0000000  0  7G07G08G11G13G27G28G30
   1315610.10247   1029392.32444  21275093.0394                   21275090.8484
        45.7504         25.2504
   1212082.28547    948374.06644  22236884.7344                   22236885.2624
        45.0004         28.2504
    982524.74647   1038871.05942  23122510.8204                   23122508.7074
        43.0004         17.7504
     80986.04346   -478399.33243  21815941.2194                   21815937.5234
        40.5004         18.2504
   2655415.32447   2064680.57843  24484218.8984                   24484220.4104
        42.5004         21.0004
  -1924042.47747  -1470972.45743  20744625.0634                   20744622.0554
        44.0004         23.0004
   -502034.05947   -375094.49644  20090464.3204                   20090464.2544
        46.2504         29.2504
 19  3  4 22  3  5.0000000  0  7G07G08G11G13G27G28G30
   1316023.82447   1029714.70344  21275171.9924                   21275169.6214
        45.7504         27.0004
   1212358.65247    948589.41444  22236937.4144                   22236937.6484
        45.5004         29.2504
    959671.15247   1021063.03143  23118161.6024                   23118159.6954
        43.0004         18.2504
     60945.28547   -494015.53543  21812126.6094                   21812123.8874
        42.0004         20.7504
   2662639.03547   2070309.41443  24485593.8134                   24485594.8914
        42.5004         21.7504
  -1940820.59847  -1484046.33644  20741431.9924                   20741429.3164
        44.7504         24.0004
   -510931.50047   -382027.56245  20088771.2814                   20088771.0634
        46.5004         30.0004
 19  3  4 22  3 10.0000000  0  7G07G08G11G13G27G28G30
   1316446.66447   1030044.17644  21275252.1644                   21275249.9144
        45.5004         24.7504
   1212648.24247    948815.07444  22236992.2584                   22236993.0824
        45.5004         29.7504
    936827.60247   1003262.88743  23113815.0554                   23113812.8244
        43.0004         18.5004
     40918.98047   -509620.43443  21808316.2814                   21808313.5394
        42.2504         22.5004
   2669869.26246   2075943.36343  24486969.8914                   24486970.6414
        41.5004         22.5004
  -1957588.82447  -1497112.46943  20738240.9774                   20738238.2114
        44.2504         23.7504
   -519816.87147   -388951.22745  20087080.0554                   20087080.0744
        46.5004         30.5004
 19  3  4 22  3 15.0000000  0  7G07G08G11G13G27G28G30
   1316880.84847   1030382.49644  21275335.0004                   21275332.8954
        46.0004         26.5004
   1212953.07847    949052.62144  22237050.0004                   22237050.2304
        45.2504         28.7504
    913996.48847    985472.39543  23109470.2194                   23109468.2154
        42.5004         18.5004
     20908.52346   -525212.98043  21804507.8984                   21804505.6374
        41.5004         22.5004
   2677107.78146   2081583.73443  24488347.1484                   24488347.8914
        41.2504         22.2504
  -1974345.42247  -1510169.56243  20735052.1804                   20735049.5984
        44.0004         22.7504
   -528688.25847   -395863.99645  20085392.1334                   20085392.1484
        46.5004         30.2504
 19  3  4 22  3 20.0000000  0  7G07G08G11G13G27G28G30
   1317328.68047   1030731.45744  21275420.2894                   21275417.7234
        46.0004         26.2504
   1213275.37947    949303.75844  22237111.9304                   22237112.5704
        45.5004         29.7504
    891180.16446    967693.43843  23105127.9694                   23105125.8244
        41.7504         19.2504
       916.13346   -540791.48843  21800704.0704                   21800701.2074
        41.7504         22.7504
   2684356.76246   2087232.29743  24489726.4144                   24489727.7034
        41.7504         21.5004
  -1991088.04747  -1523215.75844  20731866.0554                   20731863.3594
        43.7504         24.5004
   -537543.36747   -402764.07845  20083706.9924                   20083707.0474
        46.2504         30.2504
 19  3  4 22  3 25.0000000  0  7G07G08G11G13G27G28G30
   1317790.30147   1031091.16444  21275507.7504                   21275505.7934
        45.5004         27.0004
   1213615.48447    949568.77345  22237177.0864                   22237177.1914
        45.5004         30.2504
    868378.67246    949926.08643  23100789.2584                   23100787.3404
        41.5004         18.5004
    -19057.59846   -556355.43043  21796902.6414                   21796900.6214
        41.2504         22.2504
   2691616.74247   2092889.42643  24491108.3594                   24491109.4414
        42.0004         22.0004
  -2007816.39847  -1536250.84043  20728683.4144                   20728680.3404
        43.7504         23.0004
   -546381.95347   -409651.28545  20082024.9844                   20082025.1994
        46.0004         30.7504
 19  3  4 22  3 30.0000000  0  7G07G08G11G13G27G28G30
   1318267.67647   1031463.14144  21275599.0084                   21275596.9384
        46.2504         26.7504
   1213975.24247    949849.10944  22237244.7814                   22237245.6644
        45.7504         29.7504
    845594.05146    932171.83243  23096453.5944                   23096451.6914
        41.7504         18.5004
    -39011.03546   -571903.54743  21793105.7584                   21793103.5314
        41.7504         22.5004
   2698889.37946   2098556.39143  24492492.3134                   24492493.0554
        41.5004         22.0004
  -2024528.66447  -1549273.37543  20725503.1564                   20725500.7894
        44.2504         23.0004
   -555202.12947   -416524.15645  20080346.8134                   20080346.7544
        46.0004         30.2504
 19  3  4 22  3 35.0000000  0  7G07G08G11G13G27G28G30
   1318761.77347   1031848.14844  21275693.2344                   21275691.1334
        46.2504         26.5004
   1214355.60947    950145.50044  22237317.1724                   22237317.8204
        45.5004         29.7504
    822827.28547    914431.50043  23092120.7894                   23092118.6604
        42.0004         19.0004
    -58943.23046   -587435.15243  21789313.1414                   21789310.4064
        41.7504         21.5004
   2706175.61347   2104233.98843  24493878.3674                   24493879.7734
        42.5004         22.2504
  -2041223.85947  -1562282.61743  20722326.0394                   20722323.5664
        44.2504         22.7504
   -564002.92247   -423381.91045  20078671.9924                   20078672.2664
        46.0004         30.7504
 19  3  4 22  3 40.0000000  0  7G07G08G11G13G27G28G30
   1319272.28947   1032245.95344  21275789.2114                   21275787.9494
        45.5004         26.5004
   1214756.26647    950457.69544  22237393.4064                   22237394.0394
        45.7504         29.7504
    800078.09847    896704.90243  23087791.7814                   23087789.7424
        42.0004         18.5004
    -78854.33646   -602950.28543  21785523.7344                   21785521.5554
        41.7504         22.5004
   2713475.25446   2109922.01243  24495267.6414                   24495268.4454
        41.7504         21.7504
  -2057902.27047  -1575278.78544  20719151.8834                   20719149.7344
        44.0004         24.0004
   -572784.64847   -430224.82445  20077000.7814                   20077000.9534
        46.2504         30.0004
 19  3  4 22  3 45.0000000  0  7G07G08G11G13G27G28G30
   1319798.89547   1032656.29744  21275891.1644                   21275887.5944
        46.5004         25.5004
   1215176.91047    950785.46545  22237473.4694                   22237474.0554
        45.7504         30.0004
    777346.18046    878991.72343  23083466.5554                   23083463.9184
        41.2504         19.0004
    -98744.77346   -618449.32043  21781738.6174                   21781736.5084
        41.7504         22.7504
   2720787.87147   2115620.15243  24496659.3914                   24496660.3164
        42.0004         21.5004
  -2074564.20747  -1588262.10943  20715981.6644                   20715979.0784
        44.5004         22.7504
   -581547.59847   -437053.09045  20075332.8524                   20075333.6214
        46.0004         30.0004
 19  3  4 22  3 50.0000000  0  7G07G08G11G13G27G28G30
   1320341.14147   1033078.82044  21275992.5084                   21275990.8204
        45.5004         25.5004
   1215617.05547    951128.43844  22237557.6484                   22237557.7664
        45.7504         29.5004
    754631.11346    861291.63343  23079143.8914                   23079141.6724
        41.7504         18.5004
   -118614.97346   -633932.59043  21777957.7194                   21777955.5664
        41.7504         22.5004
   2728113.05547   2121328.09443  24498052.8444                   24498054.3244
        42.2504         21.7504
  -2091210.12947  -1601232.95743  20712813.6024                   20712811.0434
        43.7504         22.7504
   -590292.25047   -443867.10245  20073669.0784                   20073669.4024
        46.0004         30.0004
 19  3  4 22  3 55.0000000  0  7G07G08G11G13G27G28G30
   1320899.24247   1033513.69144  21276099.5084                   21276097.1174
        46.0004         25.0004
   1216076.82847    951486.69944  22237644.6484                   22237646.2304
        45.7504         29.2504
    731933.12946    843604.89843  23074825.0234                   23074822.5904
        41.5004         18.5004
   -138464.77346   -649399.96543  21774180.2974                   21774178.4104
        41.7504         22.5004
   2735450.82046   2127045.81643  24499449.5944                   24499450.7074
        41.5004         21.2504
  -2107839.91047  -1614191.20343  20709649.5704                   20709646.8834
        44.2504         22.5004
   -599018.38347   -450666.69545  20072008.8754                   20072009.0314
        46.2504         31.0004
 19  3  4 22  4  0.0000000  0  7G07G08G11G13G27G28G30
   1321472.30547   1033960.23044  21276209.0314                   21276206.7584
        46.2504         26.0004
   1216555.53947    951859.72745  22237735.4144                   22237736.5514
        46.0004         30.0004
    709251.34047    825930.79342  23070508.5234                   23070506.1564
        42.0004         16.7504
   -158294.77046   -664851.92243  21770406.8984                   21770404.9924
        41.7504         21.7504
   2742800.64846   2132772.94943  24500848.3984                   24500849.1094
        41.5004         22.0004
  -2124454.23847  -1627137.44943  20706487.4534                   20706484.8164
        44.0004         22.7504
   -607726.77347   -457452.44945  20070351.4454                   20070351.7544
        46.2504         30.7504
 19  3  4 22  4  5.0000000  0  7G07G08G11G13G27G28G30
   1322060.07047   1034418.24244  21276319.5864                   21276318.4064
        45.7504         26.0004
   1217052.77747    952247.17644  22237830.5864                   22237831.3634
        46.0004         29.5004
    686585.51246    808269.14543  23066194.8594                   23066193.0704
        41.5004         18.2504
   -178105.46946   -680288.84043  21766636.6484                   21766634.9104
        40.2504         21.2504
   2750162.00047   2138509.07843  24502248.5864                   24502249.6094
        42.0004         21.5004
  -2141053.53547  -1640071.96544  20703329.2894                   20703326.5944
        44.5004         24.2504
   -616417.78947   -464224.67245  20068698.0084                   20068697.9494
        46.5004         30.7504
 19  3  4 22  4 10.0000000  0  7G07G08G11G13G27G28G30
   1322662.17647   1034887.41044  21276435.7974                   21276432.9694
        46.5004         27.0004
   1217568.18447    952648.79344  22237928.5944                   22237929.1994
        46.0004         29.7504
    663935.25846    790619.59043  23061885.0474                   23061882.9454
        41.7504         19.0004
   -197897.08246   -695710.85943  21762870.5944                   21762868.3054
        40.5004         19.7504
   2757534.59047   2144253.94143  24503652.0704                   24503653.1374
        42.0004         21.0004
  -2157638.08247  -1652994.98843  20700173.5554                   20700170.6024
        44.5004         22.5004
   -625091.77747   -470983.62145  20067047.3754                   20067047.3324
        46.2504         31.0004
 19  3  4 22  4 15.0000000  0  7G07G08G11G13G27G28G30
   1323278.61347   1035367.75044  21276552.2664                   21276550.2034
        46.0004         27.2504
   1218101.66047    953064.48445  22238030.7274                   22238031.0274
        46.0004         30.2504
    641300.57447    772982.17643  23057577.7814                   23057575.3954
        42.0004         18.5004
   -217669.66046   -711118.07443  21759108.2424                   21759106.3134
        40.2504         19.7504
   2764918.35546   2150007.52743  24505056.6024                   24505058.1954
        41.0004         21.2504
  -2174207.95347  -1665906.57043  20697020.0234                   20697017.2854
        44.5004         22.2504
   -633748.75047   -477729.32045  20065399.7734                   20065399.9454
        46.5004         30.7504
 19  3  4 22  4 20.0000000  0  7G07G08G11G13G27G28G30
   2899329.01647   2263458.96944  21576464.7894                   21576462.7154
        46.2504         26.7504
   2794072.96947   2181094.07445  22537927.8754                   22537927.9104
        46.0004         30.5004
   2194105.82447   1982960.28543  23353066.7504                   23353064.8324
        42.5004         19.5004
   1338000.50446    501092.48043  22055142.1884                   22055140.2344
        40.2504         19.2504
   4347731.56646   3383368.46143  24806256.5704                   24806257.2154
        41.5004         20.7504
   -615340.02747   -451204.28143  20993662.3054                   20993660.1294
        44.0004         22.7504
    933032.83247    743139.44545  20363548.5314                   20363548.9574
        46.5004         30.2504
 19  3  4 22  4 25.0000000  0  7G07G08G11G13G27G28G30
   2899973.75047   2263961.35544  21576587.6954                   21576585.2774
        46.2504         26.7504
   2794642.32447   2181537.73045  22538036.0314                   22538037.0124
        45.7504         30.0004
   2171502.07447   1965346.99243  23348765.4064                   23348763.2814
        43.2504         19.7504
   1318265.53146    485714.53943  22051386.8444                   22051384.4694
        40.0004         19.2504
   4355137.21146   3389139.08243  24807666.1564                   24807666.6884
        41.0004         20.7504
   -631880.85947   -464093.25443  20990515.0634                   20990512.3874
        43.2504         23.2504
    924409.54747    736420.00045  20361907.5164                   20361907.6884
        46.7504         30.0004
 19  3  4 22  4 30.0000000  0  7G07G08G11G13G27G28G30
   2900632.14847   2264474.39544  21576712.4534                   21576710.5594
        46.0004         27.2504
   2795229.19947   2181995.03944  22538147.6724                   22538148.6454
        46.0004         29.5004
   2148913.29347   1947745.35243  23344466.8834                   23344464.4454
        42.5004         19.0004
   1298549.05146    470351.05943  22047635.5084                   22047632.8794
        40.5004         19.5004
   4362553.43446   3394917.95343  24809077.0004                   24809077.5474
        41.0004         20.2504
   -648407.57847   -476971.20343  20987370.1564                   20987367.7934
        43.2504         22.7504
    915802.68447    729713.35545  20360269.6254                   20360269.9654
        47.0004         30.2504
 19  3  4 22  4 35.0000000  0  7G07G08G11G13G27G28G30
   2901304.67247   2264998.43444  21576841.0704                   21576838.9304
        46.2504         27.2504
   2795834.02047   2182466.32045  22538262.7344                   22538263.5744
        46.0004         30.5004
   2126340.00447   1930155.76243  23340171.1024                   23340169.4614
        43.0004         19.0004
   1278851.38746    455002.24243  22043886.9924                   22043884.5744
        40.5004         20.0004
   4369980.57046   3400705.31343  24810490.2974                   24810491.2854
        41.5004         21.0004
   -664919.76647   -489837.84443  20984228.1884                   20984225.5784
        42.5004         23.7504
    907212.65247    723019.82445  20358634.9614                   20358634.9224
        46.5004         30.7504
 19  3  4 22  4 40.0000000  0  7G07G08G11G13G27G28G30
   2901996.48847   2265537.52044  21576975.4614                   21576970.5904
        47.0004         26.5004
   2796457.85248   2182952.44145  22538385.6484                   22538382.6094
        49.0004         31.2504
   2103789.30147   1912583.79743  23335882.5704                   23335877.7074
        43.0004         18.2504
   1259164.93846    439662.18043  22040142.8674                   22040138.1524
        41.7504         19.2504
   4377417.40647   3406500.28943  24811908.6954                   24811906.3714
        44.7504         21.5004
   -681419.71547   -502694.93443  20981090.3524                   20981085.4804
        42.5004         21.5004
    898639.49247    716339.44144  20357007.4774                   20357004.0164
        47.0004         27.7504
 19  3  4 22  4 45.0000000  0  7G07G08G11G13G27G28G30
   2902705.22747   2266089.82044  21577111.7194                   21577105.5044
        47.7504         26.5004
   2797101.07447   2183453.68845  22538508.3204                   22538505.7304
        47.7504         30.0004
   2081257.71546   1895026.80542  23331595.8674                   23331590.5514
        41.7504         17.2504
   1239493.70747    424333.99643  22036400.1254                   22036394.9884
        42.7504         18.5004
   4384865.53947   3412304.01643  24813327.4694                   24813325.0554
        43.5004         23.0004
   -697906.54347   -515541.77743  20977954.4304                   20977948.2504
        44.5004         21.0004
    890083.48048    709672.46544  20355380.2344                   20355376.5594
        48.5004         29.5004
 19  3  4 22  4 50.0000000  0  7G07G08G11G13G27G28G30
   2903432.28948   2266656.34844  21577249.3754                   21577244.1334
        48.2504         24.5004
   2797765.86748   2183971.68844  22538634.3674                   22538632.7114
        48.7504         29.0004
   2058746.07447   1877485.19542  23327311.4064                   23327306.8404
        42.2504         17.2504
   1219843.87946    409022.39543  22032661.7034                   22032656.5124
        41.7504         19.2504
   4392327.80547   3418118.80243  24814746.4224                   24814744.9734
        43.2504         22.0004
   -714375.43247   -528374.69543  20974819.5394                   20974815.2544
        44.0004         21.2504
    881547.95748    703021.39144  20353754.4844                   20353751.9384
        48.0004         28.0004
 19  3  4 22  4 55.0000000  0  7G07G08G11G13G27G28G30
   2904175.76247   2267235.69144  21577385.2974                   21577385.7154
        46.0004         24.5004
   2798450.34047   2184505.05544  22538759.4844                   22538761.4804
        47.2504         29.7504
   2036252.62946   1859957.87542  23323028.1414                   23323027.8324
        40.7504         17.7504
   1200213.50046    393726.03143  22028923.1564                   22028921.3444
        37.7504         19.2504
   4399802.34447   3423943.10943  24816164.4614                   24816167.1024
        42.0004         22.2504
   -730828.62546   -541195.34043  20971686.0234                   20971684.6644
        41.2504         21.2504
    873030.77347    696384.63744  20352129.1884                   20352131.0904
        45.0004         27.5004
 19  3  4 22  5  0.0000000  0  7G07G08G11G13G27G28G30
   2904932.83247   2267825.60543  21577529.9694                   21577530.3364
        45.0004         23.5004
   2799151.30947   2185051.26644  22538893.0944                   22538895.9224
        46.0004         29.0004
   2013774.50046   1842442.47743  23318751.4144                   23318750.6844
        39.0004         18.2504
   1180599.04746    378442.04743  22025189.1954                   22025188.5274
        39.5004         19.0004
   4407286.10247   3429774.61743  24817588.0784                   24817590.7854
        42.0004         22.7504
   -747269.30546   -554006.25843  20968556.8594                   20968555.8364
        41.7504         21.5004
    864528.95747    689759.84044  20350511.5784                   20350513.8954
        45.5004         29.2504
 19  3  4 22  5  5.0000000  0  7G07G08G11G13G27G28G30
   2905705.82048   2268427.93544  21577681.8284                   21577676.8874
        48.2504         26.5004
   2799872.72748   2185613.40744  22539034.9844                   22539031.5554
        48.0004         28.5004
   1991313.46247   1824940.36842  23314479.1254                   23314475.3324
        43.2504         16.7504
   1161006.27747    363174.93843  22021464.6564                   22021459.5474
        42.2504         19.7504
   4414783.60946   3435616.82043  24819019.0314                   24819017.3164
        41.2504         22.5004
   -763693.37047   -566804.23443  20965434.6414                   20965429.6804
        45.0004         21.5004
    856046.27448    683149.96044  20348902.0944                   20348899.2934
        48.0004         29.5004
 19  3  4 22  5 10.0000000  0  7G07G08G11G13G27G28G30
   2906495.32447   2269043.07844  21577828.2504                   21577827.6564
        45.7504         25.5004
   2800614.58247   2186191.45344  22539172.2814                   22539173.3014
        45.2504         25.0004
   1968870.05946   1807451.93442  23310205.8984                   23310205.2034
        41.0004         17.2504
   1141437.28946    347926.31343  22017737.5474                   22017736.3984
        40.5004         19.5004
   4422294.91846   3441469.72343  24820445.4304                   24820447.0004
        40.0004         21.5004
   -780098.90647   -579587.79343  20962310.1254                   20962308.2934
        43.0004         22.0004
    847583.75047    676555.73844  20347287.8914                   20347289.2114
        47.0004         29.2504
 19  3  4 22  5 15.0000000  0  7G07G08G11G13G27G28G30
   2907301.42647   2269671.23444  21577981.8444                   21577980.6454
        46.0004         26.2504
   2801376.07847   2186784.83244  22539316.7504                   22539319.1024
        46.2504         28.5004
   1946444.94947   1789977.88343  23305938.2814                   23305937.6684
        42.2504         18.2504
   1121888.61746    332693.62943  22014016.9454                   22014016.4614
        39.2504         18.2504
   4429818.66846   3447332.39543  24821876.6724                   24821878.9304
        41.5004         21.0004
   -796487.85246   -592358.40243  20959190.6254                   20959189.8714
        41.7504         21.2504
    839140.05947    669976.27344  20345680.6414                   20345681.6484
        46.0004         27.0004
 19  3  4 22  5 20.0000000  0  7G07G08G11G13G27G28G30
   2908118.18847   2270307.68844  21578137.0864                   21578135.2734
        45.7504         25.2504
   2802151.34847   2187388.95344  22539464.4064                   22539465.7854
        46.5004         28.0004
   1924031.94546   1772513.23042  23301673.4454                   23301672.7074
        41.5004         17.7504
   1102354.57446    317472.32842  22010300.3134                   22010299.4574
        39.5004         17.7504
   4437348.74646   3453200.00043  24823310.1174                   24823311.5984
        40.2504         20.0004
   -812866.05146   -605120.60943  20956074.8054                   20956073.5634
        41.5004         21.5004
    830709.68047    663407.14544  20344077.1564                   20344078.2774
        46.0004         27.5004
 19  3  4 22  5 25.0000000  0  7G07G08G11G13G27G28G30
   2908945.39347   2270952.29744  21578298.1094                   21578293.8284
        45.7504         25.7504
   2802940.38847   2188003.82444  22539618.3594                   22539617.1954
        46.2504         28.5004
   1901630.87447   1755057.85342  23297412.9384                   23297409.7304
        42.0004         16.7504
   1082835.55046    302262.70442  22006588.6564                   22006585.2154
        39.5004         17.2504
   4444885.66846   3459072.94543  24824748.0784                   24824747.2854
        41.5004         20.2504
   -829233.46446   -617874.41543  20952963.2424                   20952959.1604
        41.7504         20.5004
    822292.38347    656848.24644  20342477.9924                   20342476.9144
        45.2504         27.0004
 19  3  4 22  5 30.0000000  0  7G07G08G11G13G27G28G30
   2909783.61747   2271605.37544  21578453.5314                   21578452.8634
        45.0004         25.5004
   2803744.95747   2188630.69144  22539767.8444                   22539769.0124
        47.2504         29.5004
   1879242.29347   1737612.14842  23293150.2584                   23293149.6374
        42.0004         17.7504
   1063333.22346    287066.02342  22002875.0004                   22002874.0124
        38.5004         16.7504
   4452431.18046   3464952.52343  24826179.9384                   24826181.8674
        41.0004         22.0004
   -845589.33647   -630619.30143  20949847.3754                   20949845.6484
        42.0004         20.2504
    813889.07447    650300.13344  20340875.7734                   20340876.6054
        45.2504         26.7504
 19  3  4 22  5 35.0000000  0  7G07G08G11G13G27G28G30
   2910635.74247   2272269.38744  21578616.7664                   21578614.7424
        45.2504         24.5004
   2804567.24247   2189271.43444  22539924.7194                   22539926.2304
        46.0004         28.7504
   1856869.60247   1720178.93442  23288892.7894                   23288891.7154
        42.0004         17.2504
   1043847.43446    271882.30942  21999166.7734                   21999165.9804
        40.0004         17.7504
   4459987.55146   3470840.59443  24827617.9064                   24827619.8324
        40.2504         22.2504
   -861932.66447   -643354.37143  20946737.4694                   20946735.8364
        42.2504         20.2504
    805501.44947    643764.34844  20339279.8134                   20339280.5664
        45.5004         27.7504
 19  3  4 22  5 40.0000000  0  7G07G08G11G13G27G28G30
   2911506.27347   2272947.67644  21578782.9304                   21578780.9144
        44.2504         25.7504
   2805411.75447   2189929.46544  22540085.0864                   22540086.1764
        45.2504         28.7504
   1834516.80546   1702761.09042  23284639.4694                   23284638.1914
        40.5004         17.2504
   1024385.13347    256716.83643  21995463.8594                   21995462.5434
        42.5004         19.7504
   4467559.21546   3476740.56343  24829058.6094                   24829060.5704
        40.7504         22.5004
   -878257.16047   -656074.77343  20943631.1484                   20943628.9414
        42.2504         22.5004
    797135.14547    637245.10944  20337688.1174                   20337688.3524
        46.0004         29.2504
 19  3  4 22  5 45.0000000  0  7G07G08G11G13G27G28G30
   2912394.51247   2273639.83644  21578950.9304                   21578949.1054
        45.0004         25.7504
   2806278.19147   2190604.62944  22540249.8444                   22540251.2074
        45.5004         28.2504
   1812183.32446   1685358.44143  23280389.4454                   23280387.4884
        41.5004         18.5004
   1004945.32046    241568.94143  21991764.6334                   21991762.9614
        40.7504         20.0004
   4475145.85946   3482652.24243  24830502.8524                   24830503.5274
        41.0004         21.5004
   -894563.97747   -668781.36743  20940528.1564                   20940525.8364
        42.0004         22.5004
    788789.23847    630741.82844  20336099.9774                   20336100.2894
        46.0004         29.0004
 19  3  4 22  5 50.0000000  0  7G07G08G11G13G27G28G30
   2913297.04747   2274343.10544  21579123.4774                   21579121.1024
        46.0004         25.5004
   2807161.67647   2191293.05544  22540418.6024                   22540419.1294
        46.0004         29.2504
   1789865.93847   1667968.25443  23276142.2814                   23276140.6484
        42.5004         19.0004
    985523.30546    226434.91443  21988068.1564                   21988066.8014
        39.7504         19.5004
   4482742.34846   3488571.55943  24831948.5394                   24831949.2344
        41.0004         22.0004
   -910856.66447   -681476.98043  20937427.5314                   20937424.9574
        42.2504         22.0004
    780459.73847    624251.30144  20334514.6954                   20334515.1024
        46.0004         29.5004
 19  3  4 22  5 55.0000000  0  7G07G08G11G13G27G28G30
   2914213.89547   2275057.52744  21579297.7584                   21579295.1564
        46.2504         25.2504
   2808062.31647   2191994.85244  22540590.0554                   22540590.9264
        46.0004         29.7504
   1767564.80547   1650590.78143  23271898.2664                   23271896.4494
        42.2504         19.5004
    966118.27046    211314.14143  21984375.8204                   21984373.8134
        40.5004         20.0004
   4490348.52346   3494498.46543  24833395.9384                   24833396.9574
        40.0004         22.5004
   -927135.88747   -694162.07043  20934329.9534                   20934327.1844
        42.5004         22.5004
    772146.46547    617773.43444  20332933.0314                   20332933.0314
        46.2504         29.7504
 19  3  4 22  6  0.0000000  0  7G07G08G11G13G27G28G30
   2915147.02747   2275784.62144  21579475.2894                   21579473.3164
        45.7504         25.5004
   2808982.19947   2192711.63744  22540764.6884                   22540765.7814
        45.7504         28.0004
   1745281.37547   1633227.08643  23267658.0554                   23267656.0514
        42.2504         19.0004
    946732.96946    196208.69543  21980687.0704                   21980685.1524
        41.0004         21.0004
   4497966.10246   3500434.22343  24834845.2814                   24834846.4024
        41.0004         22.0004
   -943399.01247   -706834.65643  20931234.8364                   20931231.8554
        42.0004         21.7504
    763852.07047    611310.27044  20331354.2274                   20331354.8204
        46.0004         29.2504
 19  3  4 22  6  5.0000000  0  7G07G08G11G13G27G28G30
   2916090.08247   2276519.46144  21579653.8754                   21579652.5004
        45.5004         26.5004
   2809918.19547   2193440.98845  22540942.9844                   22540943.6844
        46.5004         30.2504
   1723008.68846   1615871.70743  23263420.3984                   23263418.1254
        41.0004         19.0004
    927370.87146    181121.30943  21977002.4064                   21977000.5514
        40.0004         20.2504
   4505594.73846   3506378.58243  24836296.7664                   24836297.7384
        41.2504         22.5004
   -959646.94947   -719495.36743  20928143.3754                   20928140.7194
        42.5004         22.0004
    755573.39147    604859.34845  20329779.0474                   20329779.4574
        46.0004         30.2504
 19  3  4 22  6 10.0000000  0  7G07G08G11G13G27G28G30
   2917045.05947   2277263.61344  21579835.8754                   21579833.9964
        45.2504         26.0004
   2810867.53547   2194180.74244  22541123.6484                   22541124.3134
        46.5004         29.5004
   1700749.76646   1598527.11343  23259184.5314                   23259182.0354
        41.5004         18.5004
    908022.04746    166044.35943  21973320.1564                   21973318.9344
        40.7504         19.5004
   4513228.55947   3512327.02043  24837749.9304                   24837750.1254
        42.2504         22.7504
   -975884.02046   -732147.63343  20925053.3834                   20925050.7664
        41.7504         21.7504
    747308.22347    598418.95744  20328206.1804                   20328206.3914
        46.0004         29.2504
 19  3  4 22  6 15.0000000  0  7G07G08G11G13G27G28G30
   2918012.64547   2278017.56644  21580020.0314                   21580018.3954
        45.5004         25.2504
   2811833.02047   2194933.06344  22541307.3674                   22541308.2424
        46.5004         29.7504
   1678504.77346   1581193.37143  23254951.0474                   23254948.8914
        41.7504         18.5004
    888691.24246    150981.36743  21969641.6024                   21969639.9144
        41.0004         20.0004
   4520871.40647   3518282.49243  24839204.3914                   24839205.0594
        42.0004         22.5004
   -992107.74247   -744789.49643  20921965.9774                   20921963.7704
        42.0004         22.0004
    739058.64547    591990.71944  20326636.4384                   20326636.7034
        46.0004         29.2504
 19  3  4 22  6 20.0000000  0  7G07G08G11G13G27G28G30
   2918993.77747   2278782.08243  21580207.5634                   21580204.4344
        45.0004         22.7504
   2812815.46947   2195698.59844  22541494.4064                   22541494.8324
        46.7504         29.7504
   1656275.12947   1563871.57043  23250721.0084                   23250718.5274
        42.0004         18.5004
    869377.80946    135931.95343  21965966.2274                   21965964.1724
        40.7504         19.0004
   4528523.86347   3524245.44544  24840660.3914                   24840660.7304
        42.5004         25.0004
  -1008318.22746   -757421.02343  20918881.1024                   20918878.7274
        41.0004         20.5004
    730825.08647    585574.95344  20325069.3984                   20325070.0514
        45.0004         27.7504
 19  3  4 22  6 25.0000000  0  7G07G08G11G13G27G28G30
   2919987.12947   2279556.10944  21580396.1564                   21580393.9264
        45.5004         25.5004
   2813814.69947   2196477.21945  22541684.3984                   22541685.2234
        46.5004         30.7504
   1634059.61346   1546560.75842  23246493.0474                   23246491.2734
        41.0004         17.7504
    850082.27146    120896.45443  21962295.1254                   21962293.3484
        40.0004         18.2504
   4536186.74647   3530216.50444  24842118.6024                   24842119.0004
        43.7504         24.7504
  -1024516.09546   -770042.76443  20915799.1484                   20915796.4454
        41.5004         20.0004
    722606.65747    579170.97144  20323506.0164                   20323506.1254
        44.7504         28.5004
 19  3  4 22  6 30.0000000  0  7G07G08G11G13G27G28G30
   2920991.69547   2280338.89544  21580587.5004                   21580585.1684
        45.0004         25.5004
   2814830.15247   2197268.47344  22541877.9224                   22541879.0394
        46.0004         29.2504
   1611856.79746   1529259.91042  23242268.4694                   23242266.1214
        41.0004         17.7504
    830805.45346    105875.56343  21958626.6564                   21958624.9574
        41.2504         20.2504
   4543859.57446   3536195.31643  24843578.7344                   24843579.5124
        41.7504         22.0004
  -1040701.22346   -782654.52743  20912719.2584                   20912716.3204
        41.7504         21.0004
    714403.13347    572778.62544  20321944.6724                   20321945.1214
        45.7504         28.5004
 19  3  4 22  6 35.0000000  0  7G07G08G11G13G27G28G30
   2922012.16847   2281134.06644  21580781.3284                   21580779.1954
        44.5004         24.5004
   2815864.62147   2198074.55544  22542074.7424                   22542075.4414
        46.5004         28.0004
   1589671.87046   1511972.93143  23238047.2894                   23238044.6764
        41.2504         18.5004
    811547.77046     90869.57443  21954962.1024                   21954959.7934
        40.2504         19.5004
   4551543.86747   3542183.10543  24845040.9064                   24845041.4304
        42.5004         22.0004
  -1056870.99246   -795254.35543  20909641.9144                   20909639.5124
        41.7504         21.7504
    706217.74247    566400.39544  20320386.7274                   20320387.2504
        45.0004         27.7504
 19  3  4 22  6 40.0000000  0  7G07G08G11G13G27G28G30
   2923044.77347   2281938.69544  21580977.6334                   21580975.5004
        45.0004         25.5004
   2816914.98847   2198893.03544  22542274.1724                   22542274.8324
        45.7504         28.7504
   1567500.41846   1494696.50343  23233827.0634                   23233825.6994
        40.7504         19.0004
    792309.54746     75878.73043  21951300.7734                   21951299.5314
        41.0004         19.2504
   4559237.43447   3548178.08643  24846504.7734                   24846505.5664
        42.5004         23.5004
  -1073026.46147   -807843.03943  20906567.4534                   20906565.0744
        42.0004         21.5004
    698048.21947    560034.54744  20318832.4534                   20318832.6054
        45.5004         28.5004
 19  3  4 22  6 45.0000000  0  7G07G08G11G13G27G28G30
   2924088.86747   2282752.28544  21581177.0164                   21581174.6844
        46.2504         25.5004
   2817981.94147   2199724.41044  22542477.4304                   22542477.9104
        46.7504         29.5004
   1545341.68847   1477429.94943  23229610.5634                   23229608.9534
        42.0004         19.2504
    773092.46546     60904.43043  21947644.2504                   21947642.0434
        39.7504         19.5004
   4566941.34446   3554181.11743  24847970.8914                   24847971.6454
        41.5004         21.7504
  -1089167.35247   -820420.35243  20903495.7814                   20903493.7234
        42.0004         22.0004
    689894.89547    553681.28944  20317280.9694                   20317281.0554
        45.7504         29.2504
 19  3  4 22  6 50.0000000  0  7G07G08G11G13G27G28G30
   2925146.69947   2283576.56344  21581378.4224                   21581375.5864
        46.2504         25.2504
   2819065.68047   2200568.89844  22542683.8134                   22542684.4694
        46.5004         28.5004
   1523198.58646   1460175.62143  23225397.5234                   23225395.5204
        41.0004         18.5004
    753893.30946     45944.02043  21943990.6884                   21943989.1414
        40.0004         19.7504
   4574654.73446   3560191.53543  24849438.4614                   24849439.8134
        40.7504         20.5004
  -1105294.50047   -832986.94943  20900427.3834                   20900424.9224
        42.5004         22.5004
    681757.71547    547340.64144  20315732.4384                   20315732.4304
        46.5004         28.5004
 19  3  4 22  6 55.0000000  0  7G07G08G11G13G27G28G30
   2926216.62947   2284410.26644  21581581.4924                   21581579.6804
        45.2504         25.2504
   2820165.40647   2201425.81344  22542893.1484                   22542893.4534
        45.7504         27.7504
   1501069.30146   1442931.99243  23221186.5554                   23221184.3324
        41.2504         19.0004
    734712.43046     30997.89143  21940340.3594                   21940338.5084
        40.7504         19.7504
   4582377.24646   3566209.10943  24850908.5394                   24850909.0354
        40.5004         20.7504
  -1121408.39147   -845543.22743  20897360.7974                   20897358.1484
        42.0004         22.2504
    673635.99647    541012.02344  20314186.7734                   20314187.0354
        46.5004         29.7504
 19  3  4 22  7  0.0000000  0  7G07G08G11G13G27G28G30
   2927298.88747   2285253.57844  21581787.4454                   21581785.5044
        46.0004         26.2504
   2821280.46947   2202294.70344  22543104.8674                   22543105.5784
        47.0004         29.5004
   1478954.17246   1425699.43043  23216977.6644                   23216975.6844
        41.5004         18.2504
    715547.67646     16064.31643  21936693.6954                   21936691.5434
        39.5004         19.7504
   4590107.81346   3572232.89543  24852379.0164                   24852380.5084
        41.2504         21.2504
  -1137510.16847   -858090.07043  20894296.9614                   20894294.2814
        42.0004         22.0004
    665528.92247    534694.83644  20312644.2114                   20312644.6914
        45.7504         28.5004
 19  3  4 22  7  5.0000000  0  7G07G08G11G13G27G28G30
   2928389.63747   2286103.52044  21581994.7034                   21581992.8444
        45.7504         26.5004
   2822407.62947   2203173.01245  22543319.7504                   22543320.5124
        46.7504         30.2504
   1456849.44946   1408474.99243  23212771.5864                   23212769.2074
        41.5004         18.2504
    696396.85246      1141.59443  21933049.9064                   21933047.1174
        40.0004         19.2504
   4597843.64547   3578260.82043  24853851.6564                   24853852.1564
        42.2504         23.0004
  -1153602.83247   -870629.80143  20891234.6414                   20891232.2424
        42.5004         20.7504
    657433.28947    528386.53544  20311103.6174                   20311103.5664
        46.0004         28.5004
 19  3  4 22  7 10.0000000  0  8G07G08G11G13G27G28G30G18
   2929492.20347   2286962.66444  21582204.7974                   21582202.7274
        45.5004         24.7504
   2823550.97347   2204063.91844  22543537.7114                   22543537.9224
        46.5004         28.5004
   1434758.21946   1391261.04743  23208567.6334                   23208565.3914
        41.7504         18.5004
    677263.50846    -13767.50443  21929408.3364                   21929406.6644
        40.0004         20.7504
   4605588.57046   3584295.82443  24855325.2584                   24855326.0204
        40.5004         21.5004
  -1169683.07047   -883159.85543  20888174.8204                   20888171.8244
        42.5004         21.5004
    649352.68847    522089.97744  20309566.1094                   20309566.3484
        46.2504         28.5004
   2933928.16856   2424209.10253  24154877.2034                   24154876.9184
        40.7504         18.5004
 19  3  4 22  7 15.0000000  0  8G07G08G11G13G27G28G30G18
   2930602.25447   2287827.62144  21582416.0554                   21582413.8634
        46.2504         26.0004
   2824708.48847   2204965.89845  22543758.0084                   22543758.2464
        47.5004         30.7504
   1412674.60946   1374053.03143  23204365.5554                   23204363.2234
        41.5004         19.0004
    658155.89546    -28656.52043  21925773.1564                   21925770.3204
        40.5004         19.7504
   4613342.75046   3590338.02343  24856801.3134                   24856801.8484
        41.2504         22.0004
  -1185747.07047   -895677.25843  20885117.9614                   20885114.9694
        43.0004         21.5004
    641287.51247    515805.42244  20308031.8284                   20308031.3914
        46.2504         29.0004
   2910811.46946   2406196.06643  24150478.5314                   24150478.0784
        41.2504         18.2504
 19  3  4 22  7 20.0000000  0  8G07G08G11G13G27G28G30G18
   2931726.48047   2288703.66844  21582630.2814                   21582628.1884
        45.2504         25.5004
   2825880.13747   2205878.85544  22543980.3754                   22543981.6844
        45.2504         25.7504
   1390608.64146   1356858.78943  23200166.4774                   23200164.0594
        41.0004         19.0004
    639055.63747    -43539.88343  21922138.1954                   21922135.6884
        42.5004         21.0004
   4621102.07846   3596384.26643  24858277.5864                   24858278.3324
        41.0004         21.0004
  -1201803.72347   -908188.93443  20882062.0394                   20882059.4534
        43.5004         22.2504
    633234.67247    509530.47344  20306498.7814                   20306498.7894
        46.5004         29.2504
   2887710.76646   2388195.56342  24146082.4454                   24146082.5274
        39.7504         17.2504
 19  3  4 22  7 25.0000000  0  8G07G08G11G13G27G28G30G18
   2932863.77347   2289589.83644  21582845.9384                   21582844.3634
        45.5004         27.0004
   2827070.27047   2206806.23044  22544207.1644                   22544207.4614
        46.5004         29.7504
   1368557.38346   1339676.02343  23195970.0084                   23195968.0204
        41.5004         18.5004
    619976.71946    -58406.56243  21918507.6024                   21918505.1884
        41.0004         19.7504
   4628873.76247   3602440.10943  24859756.3204                   24859757.0904
        42.5004         21.5004
  -1217845.52747   -920689.01643  20879009.6954                   20879007.2034
        42.7504         21.2504
    625198.83647    503268.78544  20304969.6484                   20304969.5434
        45.5004         28.2504
   2864624.01646   2370205.85543  24141689.2034                   24141688.9534
        40.5004         18.5004
 19  3  4 22  7 30.0000000  0  8G07G08G11G13G27G28G30G18
   2934014.48447   2290486.50844  21583066.0554                   21583063.5554
        46.0004         25.5004
   2828275.98847   2207745.75445  22544436.2344                   22544436.8794
        47.0004         30.0004
   1346521.88346   1322505.46542  23191777.0084                   23191774.7384
        41.2504         17.2504
    600912.41846    -73261.84043  21914879.8834                   21914877.0394
        39.5004         20.2504
   4636652.99246   3608501.84443  24861236.3134                   24861237.3014
        41.5004         22.7504
  -1233875.64147   -933180.03943  20875958.6564                   20875956.9304
        42.0004         21.5004
    617177.87947    497018.68844  20303443.1724                   20303443.5314
        45.2504         27.7504
   2841551.33646   2352227.17642  24137298.6254                   24137298.4064
        41.5004         17.7504
 19  3  4 22  7 35.0000000  0  8G07G08G11G13G27G28G30G18
   2935178.73047   2291393.73444  21583287.0234                   21583285.3914
        44.7504         24.7504
   2829498.43447   2208698.29744  22544669.2424                   22544669.6134
        46.0004         28.0004
   1324501.85546   1305347.01442  23187586.7274                   23187584.2584
        40.5004         17.2504
    581867.32047    -88102.19543  21911254.5864                   21911253.0004
        42.0004         20.0004
   4644441.89146   3614571.11743  24862719.1174                   24862719.6054
        41.5004         21.7504
  -1249891.21947   -945659.71143  20872911.6804                   20872908.8014
        43.5004         21.5004
    609173.49247    490781.50844  20301920.1024                   20301919.9414
        46.2504         28.0004
   2818492.68446   2334259.39142  24132910.8594                   24132910.8674
        40.0004         17.2504
 19  3  4 22  7 40.0000000  0  8G07G08G11G13G27G28G30G18
   2936355.81647   2292310.92644  21583510.7274                   21583508.9734
        45.0004         25.2504
   2830739.43847   2209665.30544  22544905.2424                   22544905.5124
        45.5004         25.2504
   1302496.51246   1288200.02043  23183399.5164                   23183397.0554
        41.0004         18.2504
    562842.16047   -102927.00843  21907635.4844                   21907632.6374
        43.0004         22.0004
   4652243.27346   3620650.10943  24864203.1564                   24864204.5394
        39.0004         20.5004
  -1265893.16047   -958128.75444  20869866.6174                   20869864.1094
        43.0004         24.0004
    601185.48847    484557.07844  20300400.4224                   20300400.0824
        46.5004         29.0004
   2795448.30546   2316302.73442  24128525.3444                   24128525.4734
        39.0004         16.7504
 19  3  4 22  7 45.0000000  0  8G07G08G11G13G27G28G30G18
   2937547.88347   2293239.81644  21583737.1954                   21583735.6644
        45.2504         25.0004
   2831998.49647   2210646.37944  22545144.3364                   22545144.9414
        45.7504         28.0004
   1280508.32846   1271066.36343  23179215.6644                   23179213.0704
        41.5004         18.2504
    543835.76647   -117737.18443  21904018.1094                   21904015.2584
        42.5004         22.0004
   4660055.47346   3626737.50443  24865689.6174                   24865690.6914
        39.0004         21.0004
  -1281880.57447   -970586.46943  20866824.5004                   20866821.6844
        43.5004         22.5004
    593214.80147    478346.15244  20298882.9614                   20298883.3244
        46.5004         29.0004
   2772419.74646   2298358.33642  24124143.3524                   24124143.8914
        40.2504         15.5004
 19  3  4 22  7 50.0000000  0  8G07G08G11G13G27G28G30G18
   2938751.13347   2294177.38744  21583966.7114                   21583964.9024
        45.0004         25.2504
   2833272.85947   2211639.39144  22545387.1954                   22545387.8834
        45.5004         27.2504
   1258533.59046   1253943.14842  23175033.6484                   23175031.0204
        40.5004         17.7504
    524844.67647   -132535.42643  21900403.3284                   21900401.8444
        42.5004         22.5004
   4667876.07046   3632831.45743  24867178.3524                   24867179.1024
        40.7504         19.2504
  -1297857.49247   -983036.02343  20863783.8134                   20863781.1954
        43.7504         22.0004
    585257.65247    472145.78144  20297368.9694                   20297369.7034
        46.2504         28.5004
   2749403.78146   2280423.87942  24119762.9844                   24119764.3134
        39.5004         16.2504
 19  3  4 22  7 55.0000000  0  8G07G08G11G13G27G28G30G18
   2939965.83647   2295123.91843  21584197.5704                   21584196.0664
        44.5004         23.5004
   2834563.47747   2212645.06644  22545632.6954                   22545633.6844
        45.2504         27.2504
   1236573.08646   1236831.09842  23170854.2344                   23170852.1604
        40.2504         16.7504
    505866.55547   -147323.58244  21896792.5704                   21896790.5824
        42.5004         24.5004
   4675705.87546   3638932.58643  24868667.5634                   24868668.8554
        39.5004         19.5004
  -1313825.98047   -995479.00843  20860745.4144                   20860742.4694
        43.5004         22.7504
    577313.21147    465955.28944  20295857.2584                   20295857.8014
        45.7504         28.7504
   2726401.54746   2262500.05542  24115386.4454                   24115387.0634
        40.7504         14.7504
 19  3  4 22  8  0.0000000  0  8G07G08G11G13G27G28G30G18
   2941186.80947   2296075.30944  21584430.6254                   21584428.5084
        46.0004         26.0004
   2835865.06347   2213659.28144  22545880.2894                   22545881.4844
        45.2504         29.0004
   1214620.53146   1219725.19542  23166676.2504                   23166674.6884
        40.0004         16.7504
    486904.35947   -162099.30143  21893185.1884                   21893182.4964
        43.5004         22.7504
   4683540.66446   3645037.60243  24870159.3054                   24870160.0514
        40.5004         19.7504
  -1329784.98447  -1007914.58643  20857708.4304                   20857705.6724
        43.5004         22.0004
    569379.42247    459773.11344  20294347.5004                   20294347.6254
        46.0004         29.5004
   2703406.37946   2244581.71942  24111009.9384                   24111011.0234
        39.7504         15.5004
 19  3  4 22  8  5.0000000  0  8G07G08G11G13G27G28G30G18
   2942418.40247   2297034.98844  21584664.7194                   21584662.8014
        45.2504         25.7504
   2837182.53547   2214685.88344  22546131.4224                   22546132.2464
        44.5004         27.2504
   1192681.05946   1202629.49242  23162502.3984                   23162500.1604
        40.5004         16.7504
    467956.79747   -176863.66444  21889578.6724                   21889576.6214
        43.7504         26.7504
   4691384.74646   3651149.85543  24871651.4224                   24871652.9064
        39.7504         19.7504
  -1345734.77347  -1020343.02043  20854673.2584                   20854670.5864
        43.7504         22.0004
    561458.57847    453601.03144  20292840.3054                   20292840.6254
        46.0004         29.2504
   2680423.84446   2226673.23842  24106636.7034                   24106637.7424
        39.0004         15.5004
 19  3  4 22  8 10.0000000  0  8G07G08G11G13G27G28G30G18
   2943664.16847   2298005.71943  21584901.7274                   21584899.7974
        45.2504         22.5004
   2838518.44947   2215726.87543  22546385.5084                   22546386.0984
        44.5004         23.5004
   1170757.59846   1185546.29342  23158330.1644                   23158328.4734
        40.7504         16.2504
    449029.38347   -191612.26644  21885975.9304                   21885974.7384
        43.0004         24.5004
   4699240.38346   3657271.16043  24873146.3134                   24873148.0434
        39.7504         20.0004
  -1361669.61747  -1032759.75843  20851640.9384                   20851638.5234
        43.7504         22.0004
    553555.23047    447442.57444  20291336.1644                   20291336.5234
        46.0004         27.5004
   2657456.17246   2208776.35242  24102266.0164                   24102267.5204
        39.5004         13.7504
 19  3  4 22  8 15.0000000  0  8G07G08G11G13G27G28G30G18
   2944921.82047   2298985.69943  21585141.2274                   21585138.5704
        44.5004         22.0004
   2839869.79747   2216779.87544  22546642.7584                   22546643.4654
        44.2504         26.0004
   1148847.71146   1168473.62942  23154160.7894                   23154159.4804
        40.7504         16.2504
    430121.78547   -206345.48844  21882378.9614                   21882376.5044
        43.7504         26.5004
   4707104.39146   3663398.94543  24874643.0554                   24874644.1764
        40.2504         20.0004
  -1377589.98847  -1045165.25843  20848611.7734                   20848608.8484
        43.5004         22.0004
    545667.85547    441296.54744  20289835.5704                   20289835.6294
        45.0004         27.0004
   2634500.48446   2190888.81642  24097898.4534                   24097899.6954
        40.2504         15.5004
 19  3  4 22  8 20.0000000  0  8G07G08G11G13G27G28G30G18
   2946189.75047   2299973.69944  21585382.6174                   21585380.0474
        45.7504         25.0004
   2841235.14547   2217843.75444  22546902.5314                   22546902.9694
        44.2504         26.5004
   1126950.09046   1151410.53142  23149994.0314                   23149992.4884
        41.0004         16.7504
    411231.23847   -221065.37544  21878784.2344                   21878781.9734
        44.2504         26.5004
   4714975.88746   3669532.55943  24876140.9304                   24876142.0354
        40.0004         19.7504
  -1393498.66447  -1057561.61743  20845583.9614                   20845581.4024
        43.5004         22.5004
    537794.11347    435161.16844  20288337.1174                   20288337.0474
        45.7504         29.0004
   2611555.90246   2173009.87542  24093532.0634                   24093533.4064
        40.0004         15.5004
 19  3  4 22  8 25.0000000  0  8G07G08G11G13G27G28G30G18
   2947470.29747   2300971.51644  21585626.1174                   21585623.7734
        45.5004         25.0004
   2842617.09047   2218920.60544  22547165.2034                   22547166.3134
        44.2504         25.2504
   1105067.33646   1134359.07842  23145829.7504                   23145828.1524
        40.0004         16.2504
    392358.87947   -235771.12144  21875192.6804                   21875190.2194
        44.2504         26.2504
   4722857.07046   3675673.74643  24877641.6334                   24877641.6724
        40.7504         19.5004
  -1409394.26647  -1069947.79743  20842559.1644                   20842556.2424
        43.5004         22.5004
    529936.01247    429037.97344  20286841.7814                   20286841.6334
        45.5004         28.0004
   2588625.08646   2155141.68842  24089168.6414                   24089169.3484
        39.7504         14.7504
 19  3  4 22  8 30.0000000  0  8G07G08G11G13G27G28G30G18
   2948760.80947   2301977.10544  21585871.5164                   21585869.4264
        45.7504         25.2504
   2844013.01247   2220008.32443  22547431.2424                   22547431.4414
        44.0004         22.7504
   1083196.19546   1117316.60942  23141667.8364                   23141666.2814
        41.0004         15.5004
    373504.77747   -250462.61344  21871605.5944                   21871602.5164
        44.5004         24.2504
   4730745.60146   3681820.66043  24879141.3984                   24879143.3054
        38.0004         19.0004
  -1425277.35547  -1082324.24243  20839537.0004                   20839534.1174
        44.5004         22.5004
    522091.98047    422925.73444  20285349.2274                   20285349.1214
        46.2504         28.5004
   2565704.57446   2137281.63242  24084807.0394                   24084808.2304
        39.5004         14.7504
 19  3  4 22  8 35.0000000  0  8G07G08G11G13G27G28G30G18
   2950064.22747   2302992.73843  21586119.5634                   21586117.8134
        45.0004         22.7504
   2845426.62947   2221109.84844  22547700.4454                   22547700.6094
        43.2504         24.5004
   1061340.69146   1100286.42242  23137509.0784                   23137507.6564
        38.7504         14.7504
    354667.53947   -265141.00844  21868020.7584                   21868018.4144
        45.2504         27.2504
   4738644.94146   3687975.98443  24880645.5164                   24880645.9534
        40.0004         19.0004
  -1441148.75847  -1094691.57443  20836516.3914                   20836513.4964
        43.7504         22.2504
    514263.11747    416825.31344  20283859.3364                   20283859.2624
        45.7504         28.0004
   2542799.02346   2119433.09842  24080448.3134                   24080449.5704
        38.7504         14.7504
 19  3  4 22  8 40.0000000  0  8G07G08G11G13G27G28G30G18
   2951379.29747   2304017.48843  21586370.0004                   21586367.6334
        46.0004         23.2504
   2846856.23447   2222223.82444  22547971.9614                   22547972.7114
        44.2504         25.2504
   1039499.06646   1083266.93842  23133352.8524                   23133351.2544
        41.5004         14.7504
    335847.23447   -279806.14544  21864439.0864                   21864436.6994
        44.2504         25.2504
   4746553.41846   3694138.42643  24882149.6024                   24882151.1214
        40.5004         19.2504
  -1457008.41847  -1107049.73043  20833498.9614                   20833495.5354
        43.5004         22.7504
    506448.80147    410736.23844  20282372.2974                   20282372.4414
        45.7504         28.2504
   2519906.48046   2101594.75042  24076091.2814                   24076092.9264
        39.0004         14.7504
 19  3  4 22  8 45.0000000  0  8G07G08G11G13G27G28G30G18
   2952706.30147   2305051.51244  21586622.3674                   21586620.4924
        45.5004         25.5004
   2848301.39147   2223349.93044  22548246.5704                   22548248.0474
        43.0004         26.0004
   1017671.25046   1066258.21142  23129199.2194                   23129197.7704
        40.2504         14.7504
    317046.70747   -294455.91444  21860861.2034                   21860859.0944
        44.2504         25.5004
   4754470.69546   3700307.73843  24883656.7194                   24883657.9654
        40.2504         19.2504
  -1472853.78547  -1119396.76243  20830483.0234                   20830480.2774
        43.7504         22.5004
    498650.31647    404659.51244  20280888.2114                   20280888.3204
        46.0004         29.0004
   2497026.32446   2083766.12942  24071737.3834                   24071738.7974
        38.2504         15.5004
 19  3  4 22  8 50.0000000  0  8G07G08G11G13G27G28G30G18
   2954044.49647   2306094.24643  21586877.4144                   21586874.8164
        45.7504         23.5004
   2849762.26647   2224488.27344  22548524.8834                   22548526.3284
        43.2504         24.2504
    995857.01246   1049260.16442  23125047.3834                   23125046.3554
        40.2504         14.7504
    298263.14847   -309092.47744  21857287.1334                   21857284.7704
        44.5004         25.2504
   4762397.14546   3706484.19142  24885164.8754                   24885166.2704
        38.2504         17.7504
  -1488687.76247  -1131734.96144  20827470.1884                   20827466.9414
        44.0004         24.7504
    490866.04347    398593.82844  20279406.9924                   20279407.2464
        46.0004         28.2504
   2474158.96146   2065947.31542  24067386.4384                   24067387.4384
        40.0004         14.7504
 19  3  4 22  8 55.0000000  0  8G07G08G11G13G27G28G30G18
   2955394.23047   2307145.99643  21587134.2894                   21587131.6604
        44.5004         22.7504
   2851239.45347   2225639.30943  22548806.2344                   22548806.9614
        42.0004         22.7504
    974056.62946   1032272.80942  23120898.8914                   23120898.4614
        39.0004         15.5004
    279496.26247   -323716.02744  21853715.3674                   21853713.5124
        44.0004         27.7504
   4770333.12946   3712668.07842  24886675.5634                   24886675.8834
        39.0004         16.2504
  -1504510.44147  -1144064.30144  20824459.1724                   20824455.7584
        44.0004         24.5004
    483096.17647    392539.39144  20277927.9614                   20277928.1844
        45.5004         28.0004
   2451304.61746   2048138.75042  24063037.1884                   24063038.6134
        38.0004         14.7504
 19  3  4 22  9  0.0000000  0  8G07G08G11G13G27G28G30G18
   2956752.52747   2308204.37944  21587392.0314                   21587390.1134
        45.7504         25.2504
   2852728.77747   2226799.81344  22549089.5944                   22549090.0164
        43.0004         25.2504
    952267.15646   1015294.02042  23116752.7734                   23116751.8714
        41.5004         15.5004
    260743.41847   -338328.62944  21850147.2034                   21850144.8134
        44.0004         26.5004
   4778274.16446   3718855.87142  24888186.2894                   24888187.4534
        38.7504         16.2504
  -1520323.96147  -1156386.52044  20821450.1564                   20821446.5664
        44.0004         24.5004
    475337.85247    386493.94144  20276452.1564                   20276452.1414
        46.0004         29.0004
   2428459.99646   2030337.75042  24058689.3594                   24058691.3324
        39.0004         13.7504
 19  3  4 22  9  5.0000000  0  8G07G08G11G13G27G28G30G18
   2958121.14847   2309270.85243  21587653.1094                   21587650.5314
        45.0004         21.7504
   2854231.51647   2227970.78143  22549375.7504                   22549376.2854
        43.2504         23.0004
    930490.11346    998324.86342  23112608.6484                   23112608.3404
        40.7504         14.7504
    242007.35247   -352928.18444  21846581.8984                   21846578.9574
        45.0004         28.2504
   4786221.53146   3725048.63743  24889698.7424                   24889700.0514
        40.7504         18.2504
  -1536125.66047  -1168699.53543  20818443.0634                   20818440.1564
        43.5004         23.7504
    467593.22747    380459.15644  20274978.2344                   20274978.3594
        45.5004         26.7504
   2405626.35946   2012545.30542  24054344.6334                   24054346.5474
        38.7504         13.7504
 19  3  4 22  9 10.0000000  0  8G07G08G11G13G27G28G30G18
   2959498.27747   2310343.94144  21587914.6724                   21587912.6094
        47.0004         26.7504
   2855746.71147   2229151.43444  22549663.5944                   22549664.3164
        43.2504         25.2504
    908723.98047    981364.25842  23108466.5164                   23108465.6954
        42.0004         13.7504
    223284.89147   -367517.07444  21843019.4774                   21843016.7504
        43.0004         24.5004
   4794174.62546   3731245.85943  24891212.3284                   24891213.2194
        37.7504         18.5004
  -1551918.89147  -1181005.96544  20815437.7974                   20815434.8754
        44.5004         24.5004
    459859.77347    374433.10244  20273506.8054                   20273507.0984
        46.5004         29.7504
   2382802.71946   1994760.68442  24050001.5634                   24050003.4694
        39.7504         15.5004
 19  3  4 22  9 15.0000000  0  8G07G08G11G13G27G28G30G18
   2960888.51247   2311427.23044  21588179.3754                   21588176.9734
        45.0004         24.2504
   2857279.66847   2230345.93443  22549954.2424                   22549955.3674
        42.5004         22.7504
    886973.32446    964415.67642  23104327.9774                   23104326.2624
        40.5004         14.7504
    204581.63747   -382091.05544  21839460.3754                   21839457.2974
        44.5004         27.0004
   4802138.52046   3737451.42643  24892727.8204                   24892728.5744
        38.0004         18.2504
  -1567698.41047  -1193301.70344  20812435.0704                   20812431.6214
        43.7504         24.2504
    452142.79347    368419.85944  20272037.8914                   20272038.5744
        45.7504         28.2504
   2359993.66446   1976987.43042  24045661.2424                   24045663.0554
        38.7504         14.7504
 19  3  4 22  9 20.0000000  0  8G07G08G11G13G27G28G30G18
   2962289.51647   2312518.91844  21588446.2194                   21588443.1884
        44.2504         24.2504
   2858826.63347   2231551.39843  22550250.3364                   22550249.4414
        42.0004         22.7504
    865235.54346    947477.15642  23100191.2274                   23100188.6764
        41.0004         16.2504
    185895.14147   -396651.94944  21835904.8914                   21835900.3094
        44.5004         26.0004
   4810109.56646   3743662.65642  24894244.8524                   24894244.9454
        37.5004         16.7504
  -1583466.21147  -1205588.29344  20809434.8834                   20809430.5164
        43.5004         24.5004
    444439.63347    362417.40644  20270573.1414                   20270571.9024
        46.0004         29.2504
   2337196.10946   1959223.16042  24041323.4924                   24041324.5164
        37.0004         14.7504
 19  3  4 22  9 25.0000000  0  8G07G08G11G13G27G28G30G18
   2963697.72747   2313616.21143  21588714.0234                   21588711.4804
        44.5004         21.7504
   2860385.62947   2232766.17243  22550546.2504                   22550546.7934
        42.2504         21.5004
    843507.375 6                  23096056.008
        40.000
    167222.57047   -411202.01644  21832350.1484                   21832348.0274
        44.5004         28.7504
   4818085.83246   3749877.94542  24895762.0784                   24895763.3444
        39.0004         16.7504
  -1599225.81247  -1217868.49244  20806435.5084                   20806432.5084
        44.0004         24.0004
    436747.28147    356423.35544  20269108.6174                   20269108.5824
        45.5004         28.7504
   2314407.352 6                  24036986.766
        37.500
 19  3  4 22  9 30.0000000  0  8G07G08G11G13G27G28G30G18
   2965111.91047   2314718.17643  21588982.7504                   21588980.5164
        44.5004         21.5004
   2861954.72347   2233988.88343  22550844.6954                   22550845.7854
        42.5004         22.2504
    821787.656 6                  23091923.539
        40.000
    148561.60547   -425742.98044  21828800.0314                   21828796.5634
        45.7504         26.2504
   4826065.47746   3756095.80542  24897280.8284                   24897282.7664
        39.2504         16.2504
  -1614979.16047  -1230143.82043  20803437.7974                   20803434.7734
        44.0004         22.5004
    429063.82847    350436.26644  20267646.6804                   20267647.1484
        46.0004         27.7504
   2291626.172 6                  24032650.836
        37.500
 19  3  4 22  9 35.0000000  0  8G07G08G11G13G27G28G30G18
   2966539.16447   2315830.30943  21589254.6644                   21589252.9344
        44.7504         22.2504
   2863539.88347   2235224.03943  22551146.4454                   22551147.4304
        42.0004         22.5004
    800083.50446    935968.32053  23087793.2194                   23087788.5314
        39.5004         19.7504
    129916.75847   -440271.49244  21825251.8444                   21825249.7234
        45.5004         27.7504
   4834053.38346   3762320.18442  24898801.6094                   24898802.9024
        37.5004         16.2504
  -1630720.39847  -1242409.73444  20800442.0314                   20800439.3594
        44.5004         24.7504
    421395.71547    344461.09444  20266187.7274                   20266187.6024
        45.7504         29.2504
   2268859.332 6                  24028319.227
        38.750
 19  3  4 22  9 40.0000000  0  8G07G08G11G13G27G28G30G18
   2967976.84447   2316950.57443  21589528.4694                   21589526.1564
        44.2504         22.0004
   2865137.90647   2236469.24243  22551451.2814                   22551451.8954
        42.5004         22.5004
    778392.02046    919065.93842  23083665.1804                   23083661.7584
        41.0004         17.2504
    111289.32447   -454786.35244  21821707.0474                   21821704.4064
        45.0004         27.5004
   4842047.46946   3768549.32042  24900322.0864                   24900323.9384
        38.2504         16.7504
  -1646449.26247  -1254666.00044  20797448.9144                   20797446.0904
        44.2504         24.5004
    413741.29747    338496.61344  20264730.3674                   20264730.5204
        46.0004         28.7504
   2246103.441 6                  24023988.328
        37.500
 19  3  4 22  9 45.0000000  0  8G07G08G11G13G27G28G30G18
   2969424.11747   2318078.33243  21589803.5004                   21589800.5394
        42.0004         22.2504
   2866747.85547   2237723.75443  22551757.9774                   22551757.5864
        43.5004         22.7504
    756712.43046    902172.73042  23079540.7424                   23079536.0864
        39.2504         16.7504
     92676.92647   -469289.51644  21818165.5944                   21818162.8674
        44.2504         26.2504
   4850045.88346   3774781.85542  24901844.5864                   24901845.5824
        40.2504         16.2504
  -1662167.41047  -1266913.87543  20794458.8674                   20794454.7544
        42.0004         22.0004
    406099.66047    332542.09044  20263277.0474                   20263276.3874
        44.5004         26.7504
   2223357.664 6                  24019660.180
        36.500
 19  3  4 22  9 50.0000000  0  8G07G08G11G13G27G28G30G18
   2970879.80947   2319212.67243  21590080.6334                   21590078.2734
        42.0004         20.7504
   2868370.58646   2238988.25443  22552066.7894                   22552066.5204
        40.0004         21.7504
    735043.59446    885288.00842  23075417.1414                   23075413.2464
        38.7504         16.2504
     74079.81647   -483780.70344  21814626.9144                   21814624.1954
        42.7504         26.0004
   4858050.61346   3781019.37142  24903368.0164                   24903369.0124
        36.5004         16.7504
  -1677876.06247  -1279154.36343  20791469.1024                   20791465.4344
        43.0004         22.2504
    398469.78547    326596.78944  20261825.0314                   20261824.4964
        44.2504         26.7504
   2200621.977 5                  24015333.977
        35.250
 19  3  4 22  9 55.0000000  0  8G07G08G11G13G27G28G30G18
   2972347.39847   2320356.22743  21590360.0474                   21590357.8014
        43.7504         20.5004
   2870007.52347   2240263.75443  22552377.8984                   22552378.3164
        42.7504         21.7504
    713388.56646    868413.86342  23071295.4304                   23071293.1884
        39.2504         14.7504
     55501.41447   -498257.45344  21811091.1804                   21811089.0944
        46.0004         29.5004
   4866061.76646   3787261.78542  24904891.7194                   24904893.5514
        39.2504         16.2504
  -1693570.63747  -1291383.93444  20788481.9304                   20788479.2424
        43.7504         24.5004
    390855.66047    320663.65644  20260375.6414                   20260375.8134
        45.0004         28.5004
   2177898.01616                  24011010.172
        37.500
 19  3  4 22 10  0.0000000  0  8G07G08G11G13G27G28G30G18
   2973830.33647   2321511.72743  21590642.1174                   21590639.7114
        44.2504         21.5004
   2871664.33247   2241554.75843  22552692.7664                   22552693.6764
        42.0004         22.5004
    691751.98046    851554.19542  23067178.3984                   23067176.1454
        39.7504         13.7504
     36941.86747   -512719.40644  21807560.1724                   21807557.1484
        46.0004         28.5004
   4874085.95346   3793514.32042  24906418.4304                   24906420.6684
        38.7504         16.2504
  -1709251.26647  -1303602.62544  20785498.6094                   20785495.0124
        44.2504         26.2504
    383258.97747    314744.16044  20258929.8834                   20258930.0744
        45.5004         29.5004
   2155191.836 6                  24006688.188
        38.750
 19  3  4 22 10  5.0000000  0  8G07G08G11G13G27G28G30G18
   2975325.92647   2322677.11343  21590927.0554                   21590923.9494
        44.5004         22.5004
   2873336.34047   2242857.62543  22553011.0234                   22553011.4304
        42.0004         22.5004
    670130.03146    834705.96942  23063063.9924                   23063061.7074
        40.2504         16.2504
     18401.46147   -527166.50444  21804031.3284                   21804028.5004
        46.5004         29.0004
   4882117.89546   3799773.02742  24907947.0554                   24907948.7114
        37.0004         14.7504
  -1724917.58247  -1315810.11744  20782517.2194                   20782513.8164
        44.7504         25.7504
    375678.50847    308837.30944  20257487.7504                   20257487.5744
        46.0004         29.0004
   2132498.648 6                  24002369.648
        38.500
 19  3  4 22 10 10.0000000  0  8G07G08G11G13G27G28G30G18
   2976833.15247   2323851.58243  21591213.1954                   21591211.2034
        43.7504         22.5004
   2875023.85247   2244172.58643  22553332.0864                   22553332.3524
        42.2504         21.5004
    648522.47746    817868.89542  23058952.2734                   23058949.8714
        40.5004         15.5004
      -122.66847   -541600.89844  21800505.2734                   21800503.4924
        44.5004         28.5004
   4890158.39146   3806038.29342  24909477.8754                   24909479.2854
        39.5004         15.5004
  -1740572.58247  -1328008.83644  20779537.9144                   20779534.7194
        43.7504         24.7504
    368112.15247    302941.43444  20256047.9454                   20256047.5784
        45.7504         29.0004
   2109819.109 6                  23998054.305
        39.250
 19  3  4 22 10 15.0000000  0  8G07G08G11G13G27G28G30G18
   2978349.33647   2325033.00844  21591502.1484                   21591499.6334
        44.0004         24.5004
   2876724.56347   2245497.77343  22553655.9224                   22553656.0314
        42.2504         22.5004
    626926.84046    801041.10942  23054842.8054                   23054840.8164
        40.5004         15.5004
    -18632.51247   -556024.14144  21796983.1954                   21796981.5004
        44.5004         28.0004
   4898205.61346   3812308.87542  24911008.8054                   24911010.1844
        39.0004         16.7504
  -1756218.78147  -1340200.66844  20776560.8444                   20776557.8364
        44.0004         25.5004
    360557.52047    297054.69544  20254610.2034                   20254609.9344
        45.7504         28.7504
   2087150.598 6                  23993740.961
        38.000
 19  3  4 22 10 20.0000000  0  8G07G08G11G13G27G28G30G18
   2979875.68847   2326222.38843  21591792.9924                   21591790.6054
        44.7504         22.7504
   2878438.69147   2246833.47543  22553982.5164                   22553982.1094
        42.5004         22.5004
    605343.38946    784222.83542  23050735.6954                   23050732.8674
        40.5004         16.2504
    -37124.61547   -570433.59244  21793465.5394                   21793463.0944
        45.0004         26.0004
   4906258.98046   3818584.22342  24912541.6804                   24912542.4654
        37.5004         16.2504
  -1771852.51247  -1352382.79844  20773585.5634                   20773582.5474
        44.2504         25.0004
    353016.99347    291178.98444  20253175.3754                   20253175.1024
        46.2504         29.5004
   2064492.918 6                  23989429.469
        37.750
 19  3  4 22 10 25.0000000  0  8G07G08G11G13G27G28G30G18
   2981415.87947   2327422.56343  21592085.5944                   21592083.6604
        42.5004         22.0004
   2880169.60546   2248182.27343  22554311.1484                   22554311.8954
        40.7504         21.7504
    583776.30546    767417.38342  23046630.5004                   23046629.6454
        38.7504         16.2504
    -55598.28547   -584828.59444  21789949.4064                   21789947.2424
        43.0004         26.0004
   4914321.41456   3824866.66452  24914075.6724                   24914076.9654
        36.0004         16.2504
  -1787472.29346  -1364554.02343  20770612.7974                   20770610.2664
        41.5004         23.0004
    345493.12947    285316.25444  20251743.5004                   20251743.8284
        43.7504         27.0004
   2041849.96516                  23985119.547
        37.750
 19  3  4 22 10 30.0000000  0  8G07G08G11G13G27G28G30G18
   2982966.89547   2328631.12143  21592380.5704                   21592378.4774
        44.2504         22.7504
   2881914.30147   2249541.76643  22554643.5164                   22554644.0944
        42.7504         22.7504
    562222.58246    750622.26242  23042529.6334                   23042528.2114
        39.0004         15.5004
    -74055.40247   -599210.77344  21786437.2664                   21786434.6254
        45.0004         27.0004
   4922390.66856   3831154.36352  24915610.9454                   24915612.7384
        37.5004         14.7504
  -1803080.41847  -1376716.21944  20767642.8364                   20767639.7974
        43.5004         24.0004
    337983.16447    279464.32444  20250314.1414                   20250313.8914
        45.7504         28.2504
   2019219.226 6                  23980813.055
        38.500
 19  3  4 22 10 35.0000000  0  8G07G08G11G13G27G28G30G18
   2984527.25847   2329846.98043  21592677.2584                   21592675.0204
        44.5004         22.7504
   2883671.21947   2250910.75443  22554977.7894                   22554978.2664
        42.0004         22.5004
    540680.66846    733836.30942  23038430.6884                   23038429.1024
        41.0004         15.5004
    -92497.24247   -613581.05544  21782928.0704                   21782925.6914
        44.0004         27.5004
   4930464.89146   3837445.95342  24917147.4384                   24917149.2854
        39.0004         15.5004
  -1818678.12147  -1388870.27744  20764675.7034                   20764672.2704
        43.7504         25.5004
    330485.72347    273622.13344  20248888.3754                   20248887.6024
        46.0004         29.2504
   1996598.719 6                  23976509.414
        39.750
 19  3  4 22 10 40.0000000  0  8G07G08G11G13G27G28G30G18
   2986095.48847   2331068.98443  21592975.8444                   21592974.0314
        43.2504         23.0004
   2885438.89147   2252288.15643  22555314.1024                   22555314.8554
        42.5004         22.5004
    519149.30146    717058.62942  23034332.6644                   23034331.8164
        38.0004         15.5004
   -110926.04747   -627941.17644  21779420.6644                   21779418.2464
        45.5004         28.5004
   4938542.73446   3843740.38342  24918684.4694                   24918686.8164
        39.0004         15.5004
  -1834267.60947  -1401017.92644  20761708.3204                   20761704.9654
        44.0004         26.0004
    322998.92647    267788.28144  20247462.8444                   20247462.8554
        45.5004         28.5004
   1973987.563 6                  23972206.625
        39.500
 19  3  4 22 10 45.0000000  0  8G07G08G11G13G27G28G30G18
   2987670.56647   2332296.35443  21593277.2664                   21593273.2384
        42.2504         22.0004
   2887215.36546   2253672.48843  22555653.9454                   22555652.0634
        40.2504         22.5004
    497626.988 6                  23030238.211
        39.000
   -129341.05447   -642290.47344  21775917.3754                   21775914.0354
        43.0004         25.5004
   4946622.09445   3850036.02042  24920223.0314                   24920223.7464
        35.2504         15.5004
  -1849848.07047  -1413158.49143  20758744.7274                   20758740.9144
        43.0004         23.2504
    315522.55147    261962.59044  20246041.7114                   20246040.1254
        43.5004         27.5004
   1951383.656 6                  23967906.305
        37.500
 19  3  4 22 10 50.0000000  0  8G07G08G11G13G27G28G30G18
   2989257.96546   2333533.31343  21593580.9614                   21593575.5004
        40.7504         22.5004
   2889007.43846   2255068.94543  22555995.9694                   22555993.8134
        37.5004         21.0004
    476119.098 6                  23026146.367
        37.000
   -147735.86746   -656624.05544  21772418.3364                   21772413.3874
        41.7504         27.5004
   4954709.719 5                  24921764.078
        35.500
  -1865413.62547  -1425287.47343  20755784.1334                   20755778.0664
        42.5004         23.0004
    308062.76647    256149.80944  20244623.5164                   20244620.1524
        43.5004         26.7504
   1928792.559 5                  23963608.289
        35.750
 19  3  4 22 10 55.0000000  0  8G07G08G11G13G27G28G30G18
   2990859.64146   2334781.32843  21593883.0864                   21593880.9064
        40.7504         22.0004
   2890815.28146   2256477.61743  22556339.4454                   22556337.8754
        39.2504         21.5004
    454627.746 6                  23022056.953
        38.000
   -166111.09447   -670942.44944  21768921.3674                   21768917.0044
        42.2504         27.2504
   4962805.277 6                  24923302.375
        37.500
  -1880963.77047  -1437404.48443  20752824.1804                   20752819.5274
        42.2504         22.7504
    300620.23447    250350.39144  20243205.4534                   20243204.4574
        42.7504         27.2504
   1906216.059 6                  23959311.172
        36.250
 19  3  4 22 11  0.0000000  0  8G07G08G11G13G27G28G30G18
   2992469.85946   2336036.09443  21594191.4384                   21594187.0434
        41.0004         21.2504
   2892636.46546   2257896.75443  22556685.6484                   22556684.1844
        39.2504         21.2504
    433148.238 6                  23017968.930
        36.000
   -184473.92647   -685251.13744  21765426.8284                   21765422.9224
        42.2504         27.7504
   4970907.633 6                  24924845.273
        37.500
  -1896506.92246  -1449516.03143  20749866.2274                   20749861.8954
        41.2504         23.2504
    293188.41847    244559.37944  20241791.6484                   20241790.2034
        42.2504         27.0004
                                  23955018.641
        35.250
 19  3  4 22 11  5.0000000  0  8G07G08G11G13G27G28G30G18
   2994090.05146   2337298.54343  21594497.9614                   21594495.2734
        41.2504         20.7504
   2894473.24246   2259327.94943  22557034.4304                   22557033.9104
        39.5004         21.0004
    411682.055 6                  23013884.430
        38.000
   -202822.93747   -699549.07444  21761933.4694                   21761931.1844
        43.0004         27.0004
   4979018.996 6                  24926386.750
        37.000
  -1912041.98047  -1461621.27743  20746909.4064                   20746905.0394
        43.0004         22.7504
    285768.75847    238777.80544  20240378.8204                   20240378.0864
        43.0004         26.7504
   1861099.348 6                  23950724.633
        38.000
 19  3  4 22 11 10.0000000  0  8G07G08G11G13G27G28G30G18
   2995720.73947   2338569.20543  21594809.0004                   21594805.3054
        42.5004         22.2504
   2896322.88146   2260769.24843  22557386.4534                   22557386.1334
        40.7504         21.7504
    390229.204 6                  23009801.758
        38.750
   -221156.25447   -713834.78144  21758446.1334                   21758442.3554
        44.5004         26.7504
   4987136.230 6                  24927933.133
        37.250
  -1927566.02447  -1473717.92943  20743955.2734                   20743951.1844
        43.7504         23.2504
    278362.37147    233006.61344  20238970.1024                   20238969.0474
        44.5004         27.5004
   1838559.582 6                  23946436.953
        38.750
 19  3  4 22 11 15.0000000  0  8G07G08G11G13G27G28G30G18
   2997362.44147   2339848.39143  21595119.7424                   21595118.1094
        44.5004         22.5004
   2898186.87546   2262221.66443  22557739.2814                   22557740.5394
        41.7504         22.0004
    368789.637 6                  23005720.414
        40.250
   -239471.27047   -728106.28144  21754959.0704                   21754957.2544
        44.7504         27.0004
   4995260.309 6                  24929477.359
        38.500
  -1943076.98047  -1485804.44944  20741002.2194                   20741000.1174
        44.2504         27.0004
    270970.89847    227246.95744  20237562.3594                   20237562.1564
        46.0004         29.5004
   1816031.566 6                  23942148.625
        39.500
 19  3  4 22 11 20.0000000  0  8G07G08G11G13G27G28G30G18
   2999017.49646   2341138.11343  21595436.0474                   21595433.1524
        41.2504         21.7504
   2900068.35946   2263687.80543  22558098.8444                   22558098.5784
        40.2504         22.5004
    347366.719 6                  23001644.656
        39.500
   -257768.84846   -742364.06244  21751477.9534                   21751475.3834
        40.7504         25.2504
   5003395.023 6                  24931026.391
        37.000
  -1958575.68046  -1497881.29744  20738054.5784                   20738050.6374
        41.5004         24.5004
    263595.07047    221499.61344  20236160.0554                   20236159.2154
        43.2504         26.7504
   1793519.563 6                  23937866.055
        36.500
 19  3  4 22 11 25.0000000  0  8G07G08G11G13G27G28G30G18
   3000683.07046   2342435.93043  21595753.2114                   21595749.8984
        41.5004         22.0004
   2901964.09046   2265164.97743  22558460.0394                   22558459.3594
        39.2504         22.7504
    325956.961 6                  22997570.852
        37.500
   -276049.30547   -756608.60244  21748000.2194                   21747996.2344
        43.0004         26.0004
   5011537.039 6                  24932576.406
        36.500
  -1974062.77347  -1509949.17244  20735107.4614                   20735103.0164
        42.7504         24.2504
    256233.17247    215763.05944  20234759.8054                   20234757.6414
        43.0004         27.0004
   1771019.727 6                  23933584.188
        37.500
 19  3  4 22 11 30.0000000  0  8G07G08G11G13G27G28G30G18
   3002360.39546   2343742.93443  21596072.9144                   21596068.8754
        41.5004         21.7504
   2903872.60246   2266652.15643  22558823.6414                   22558822.5124
        39.7504         21.7504
    304561.090 6                  22993499.547
        38.250
   -294311.30947   -770838.68444  21744525.7664                   21744520.8164
        43.2504         26.5004
   5019683.965 6                  24934127.078
        38.000
  -1989535.63347  -1522005.93444  20732163.3134                   20732158.7194
        42.2504         24.5004
    248886.76247    210038.59444  20233361.4614                   20233359.1994
        43.2504         27.0004
   1748531.453 6                  23929304.859
        37.000
 19  3  4 22 11 35.0000000  0  8G07G08G11G13G27G28G30G18
   3004048.86747   2345058.62943  21596393.3284                   21596390.0434
        45.0004         21.5004
   2905796.07846   2268150.94943  22559188.7424                   22559188.3014
        41.2504         21.5004
    283179.332 6                  22989429.516
        40.500
   -312557.51247   -785056.55944  21741051.9614                   21741048.7504
        44.5004         27.2504
   5027838.828 6                  24935678.047
        37.500
  -2004997.97347  -1534054.53544  20729220.3524                   20729216.0984
        45.0004         25.7504
    241554.03547    204324.77744  20231965.1024                   20231963.9574
        46.0004         29.0004
   1726056.539 6                  23925027.461
        40.000
 19  3  4 22 11 40.0000000  0  8G07G08G11G13G27G28G30G18
   3005745.94147   2346380.98443  21596715.6174                   21596713.4224
        44.2504         22.0004
   2907731.18447   2269658.77343  22559555.7894                   22559556.7424
        42.5004         22.0004
    261808.914 6                  22985363.227
        40.250
   -330788.60547   -799262.62544  21737582.3054                   21737579.9774
        44.2504         28.7504
   5035998.293 6                  24937230.102
        37.750
  -2020450.43447  -1546095.43444  20726278.6884                   20726276.0594
        43.7504         25.5004
    234233.25847    198620.23444  20230571.5394                   20230571.2974
        45.5004         29.5004
   1703591.582 6                  23920751.688
        39.000
 19  3  4 22 11 45.0000000  0  8G07G08G11G13G27G28G30G18
   3007451.07847   2347709.65643  21597039.9144                   21597037.4104
        44.0004         22.2504
   2909675.54347   2271173.83243  22559926.5864                   22559926.7734
        42.0004         22.7504
    240448.57846    704354.31653  22981297.2814                   22981292.7734
        39.2504         18.5004
   -349003.46147   -813456.01644  21734115.7194                   21734113.7304
        45.0004         28.5004
   5044159.43846   3851817.01253  24938783.4144                   24938782.4454
        38.5004         20.2504
  -2035891.46947  -1558127.41444  20723340.3754                   20723337.8714
        43.5004         26.2504
    226924.71947    192925.25845  20229180.6254                   20229180.5204
        46.0004         30.2504
   1681134.609 6                  23916478.578
        37.500
 19  3  4 22 11 50.0000000  0  8G07G08G11G13G27G28G30G18
   3009167.30947   2349046.98043  21597366.5394                   21597364.5204
        44.7504         22.7504
   2911633.81846   2272699.78043  22560298.3594                   22560299.2774
        41.5004         22.7504
    219102.26546    687720.76842  22977236.1954                   22977231.3674
        39.7504         16.2504
   -367202.84047   -827637.35944  21730652.9774                   21730650.5434
        45.2504         28.5004
   5052326.71146   3858181.16043  24940337.8284                   24940336.2304
        37.7504         18.2504
  -2051321.57047  -1570150.87144  20720404.1414                   20720401.3094
        43.7504         25.7504
    219629.93447    187241.01244  20227792.6954                   20227792.1954
        45.5004         28.0004
   1658690.188 6                  23912207.008
        38.250
 19  3  4 22 11 55.0000000  0  8G07G08G11G13G27G28G30G18
   3010893.07447   2350391.73443  21597695.3834                   21597692.6484
        43.5004         22.0004
   2913601.69546   2274233.17243  22560673.5394                   22560673.9614
        41.5004         22.7504
    197767.47746    671096.28542  22973175.6724                   22973171.3484
        38.0004         15.5004
   -385385.02347   -841805.26644  21727193.7034                   21727191.0554
        44.7504         27.5004
   5060496.03146   3864546.84442  24941891.2584                   24941891.7194
        37.2504         17.2504
  -2066738.76647  -1582164.25444  20717470.3364                   20717467.6174
        43.2504         25.0004
    212348.68047    181567.30544  20226406.8204                   20226407.1644
        44.7504         27.7504
   1636254.898 6                  23907937.781
        37.500
 19  3  4 22 12  0.0000000  0  8G07G08G11G13G27G28G30G18
   3012631.92647   2351746.66043  21598026.0164                   21598023.6454
        44.5004         22.0004
   2915590.38747   2275782.83243  22561051.8444                   22561052.5274
        42.2504         22.5004
    176449.98846    654485.27742  22969119.9064                   22969115.5124
        40.2504         14.7504
   -403551.64847   -855961.10944  21723735.8754                   21723734.0124
        45.0004         28.0004
   5068679.95746   3870923.90642  24943449.2974                   24943448.8554
        38.2504         16.2504
  -2082146.75047  -1594170.49244  20714538.2194                   20714536.1254
        44.5004         26.2504
    205082.05547    175905.00844  20225024.3364                   20225024.3554
        45.7504         29.2504
   1613837.727 6                  23903672.258
        38.250
 19  3  4 22 12  5.0000000  0  8G07G08G11G13G27G28G30G18
   3014381.04747   2353109.64543  21598358.9614                   21598357.2074
        44.2504         22.5004
   2917591.14547   2277341.85243  22561432.3834                   22561433.1414
        42.0004         22.2504
    155144.95746    637883.97342  22965065.0004                   22965061.5744
        39.2504         14.7504
   -421699.10947   -870101.96144  21720282.8284                   21720280.6174
        43.5004         26.0004
   5076868.66446   3877304.75842  24945007.8834                   24945008.0314
        39.0004         15.5004
  -2097540.87947  -1606165.87544  20711608.7974                   20711606.7034
        43.2504         24.0004
    197830.07447    170254.11744  20223644.1644                   20223644.3164
        45.0004         29.0004
   1591431.028 6                  23899408.148
        38.500
 19  3  4 22 12 10.0000000  0  8G07G08G11G13G27G28G30G18
   3016140.99247   2354481.03543  21598694.2664                   21598691.9534
        42.7504         22.5004
   2919605.49246   2278911.49243  22561816.1954                   22561816.8444
        39.7504         21.2504
    133853.98846    621293.61342  22961013.2114                   22961010.5354
        37.7504         13.7504
   -439832.18747   -884231.62144  21716832.1024                   21716829.8134
        43.0004         25.7504
   5085063.68046   3883690.48842  24946566.4384                   24946567.4804
        36.0004         16.2504
  -2112925.12147  -1618153.60543  20708682.2504                   20708679.0084
        43.0004         22.2504
    190591.05947    164613.34444  20222266.8524                   20222266.3244
        43.7504         26.7504
   1569037.301 6                  23895147.266
        36.250
 19  3  4 22 12 15.0000000  0  8G07G08G11G13G27G28G30G18
   3017911.54147   2355860.66443  21599030.8524                   21599028.4884
        43.7504         22.5004
   2921634.54746   2280492.56643  22562202.4384                   22562202.7974
        41.7504         21.7504
    112576.79746    604713.98042  22956965.2734                   22956961.7344
        39.0004         14.7504
   -457950.50847   -898349.79744  21713384.7664                   21713381.7504
        43.2504         27.5004
   5093266.15646   3890082.00842  24948128.1804                   24948128.5864
        38.0004         14.7504
  -2128299.70647  -1630133.81643  20705755.8134                   20705753.2624
        43.7504         22.7504
    183365.28847    158982.86844  20220891.6414                   20220892.0234
        44.5004         29.0004
   1546656.644 6                  23890887.852
        40.000
 19  3  4 22 12 20.0000000  0  8G07G08G11G13G27G28G30G18
   3019692.56347   2357248.46143  21599369.9224                   21599367.4574
        42.5004         21.7504
   2923678.10346   2282084.94343  22562590.3134                   22562591.9534
        40.7504         21.7504
     91313.64146    588145.28142  22952918.4224                   22952916.6334
        37.0004         14.7504
   -476054.17647   -912456.57844  21709939.4384                   21709937.1294
        44.5004         27.5004
   5101476.37546   3896479.56442  24949690.1174                   24949691.2584
        38.0004         14.7504
  -2143664.98447  -1642106.76243  20702832.0234                   20702829.4574
        42.5004         22.5004
    176152.19147    153362.25844  20219519.0004                   20219519.4064
        44.0004         27.0004
   1524289.434 6                  23886631.680
        37.000
 19  3  4 22 12 25.0000000  0  8G07G08G11G13G27G28G30G18
   3021482.98447   2358643.59444  21599710.3444                   21599708.1604
        45.5004         25.2504
   2925735.24647   2283687.89543  22562982.2734                   22562983.1524
        42.0004         22.5004
     70063.14846    571586.46142  22948874.7584                   22948872.5314
        40.5004         14.7504
   -494143.24647   -926551.94544  21706496.9064                   21706494.6094
        44.0004         26.7504
   5109693.34446   3902882.41442  24951253.4304                   24951255.1724
        36.7504         15.5004
  -2159021.19947  -1654072.65644  20699909.8364                   20699906.8094
        44.5004         25.0004
    168951.27047    147751.14844  20218148.7194                   20218148.8164
        46.0004         29.7504
   1501934.17716                  23882377.250
        38.500
 19  3  4 22 12 30.0000000  0  8G07G08G11G13G27G28G30G18
   3023286.59447   2360049.00043  21600053.3914                   21600051.0594
        44.2504         22.0004
   2927809.50446   2285304.18843  22563377.0474                   22563377.5234
        41.5004         22.7504
     48828.98046    555040.37942  22944834.8674                   22944832.0124
        38.7504         15.5004
   -512214.29747   -940633.28544  21703059.1414                   21703056.0164
        46.2504         29.0004
   5117920.08646   3909292.84042  24952818.9534                   24952820.4734
        38.2504         16.2504
  -2174364.56247  -1666028.51244  20696990.4144                   20696987.1094
        44.5004         25.7504
    161766.39147    142152.53944  20216781.2274                   20216781.1484
        45.7504         28.7504
   1479594.453 6                  23878126.461
        38.250
 19  3  4 22 12 35.0000000  0  8G07G08G11G13G27G28G30G18
   3025099.70347   2361461.80943  21600398.2584                   21600396.0354
        44.2504         22.2504
   2929896.04347   2286930.07844  22563774.0234                   22563774.4884
        42.2504         25.0004
     27606.96146    538503.71142  22940795.8054                   22940793.6564
        39.0004         16.2504
   -530267.88747   -954701.02044  21699622.6484                   21699620.0314
        44.5004         28.0004
   5126152.10546   3915707.37142  24954385.4304                   24954386.6134
        38.0004         16.2504
  -2189696.02347  -1677975.10944  20694072.5084                   20694069.5984
        44.0004         25.0004
    154594.96547    136564.41444  20215416.6174                   20215416.3674
        45.5004         29.0004
   1457265.363 6                  23873877.352
        40.500
 19  3  4 22 12 40.0000000  0  8G07G08G11G13G27G28G30G18
   3026923.99247   2362883.31644  21600745.7194                   21600743.4964
        44.7504         26.7504
   2931997.16447   2288567.27743  22564173.8674                   22564174.4304
        42.5004         23.0004
      6399.21146    521978.19142  22936760.1724                   22936757.5124
        40.5004         16.2504
   -548304.73047   -968755.73044  21696190.5704                   21696187.4694
        44.2504         27.0004
   5134391.64146   3922127.80142  24955953.5784                   24955954.8794
        36.7504         15.5004
  -2205016.02347  -1689912.77344  20691156.9454                   20691154.0744
        44.0004         26.0004
    147437.70347    130987.32444  20214054.8204                   20214054.5084
        45.5004         29.2504
   1434949.53546   1939471.24253  23869630.3204                   23869625.0664
        40.5004         20.0004
 19  3  4 22 12 45.0000000  0  8G07G08G11G13G27G28G30G18
   3028758.83447   2364313.09943  21601094.7274                   21601092.1134
        42.7504         21.7504
   2934111.17646   2290214.60343  22564576.6724                   22564576.5594
        40.7504         22.5004
    -14794.99246    505463.22342  22932726.5004                   22932724.5084
        37.2504         16.7504
   -566324.77047   -982797.27144  21692760.8834                   21692758.3524
        43.5004         27.7504
   5142636.97345   3928552.76242  24957522.2814                   24957523.7894
        35.5004         15.5004
  -2220324.19947  -1701841.18743  20688244.3444                   20688241.6054
        43.0004         23.5004
    140294.21347    125420.99644  20212695.8364                   20212695.1294
        44.2504         27.0004
   1412645.86746   1922091.76642  23865385.7814                   23865381.6844
        37.0004         17.7504
 19  3  4 22 12 50.0000000  0  8G07G08G11G13G27G28G30G18
   3030603.62147   2365750.57043  21601446.0004                   21601443.7034
        43.2504         22.5004
   2936238.19547   2291871.98843  22564980.9224                   22564981.3984
        42.0004         22.5004
    -35976.23446    488958.40242  22928696.0164                   22928693.9494
        38.5004         15.5004
   -584329.91447   -996827.30144  21689335.1884                   21689332.2624
        45.0004         29.2504
   5150887.82446   3934981.95342  24959092.6884                   24959094.1454
        38.2504         14.7504
  -2235622.53947  -1713762.01244  20685332.8204                   20685329.7894
        44.0004         25.0004
    133163.49047    119864.56044  20211338.3054                   20211338.7774
        45.2504         28.5004
   1390353.98446   1904721.48442  23861144.5864                   23861140.7034
        38.2504         16.2504
 19  3  4 22 12 55.0000000  0  8G07G08G11G13G27G28G30G18
   3032458.39446   2367195.84943  21601799.1094                   21601796.0594
        38.5004         22.2504
   2938376.66046   2293538.34443  22565387.6804                   22565387.6914
        39.7504         22.5004
    -57144.78945    472463.43042  22924668.0704                   22924666.0594
        35.2504         15.5004
   -602317.91846  -1010843.91044  21685912.0164                   21685909.3284
        41.7504         26.7504
   5159142.72746   3941414.36342  24960664.2664                   24960665.0474
        37.2504         17.7504
  -2250908.56246  -1725673.16843  20682424.3204                   20682420.2384
        39.5004         22.5004
    126046.30846    114318.70844  20209984.0004                   20209984.0664
        40.7504         26.0004
   1368072.82845   1887359.57042  23856904.7814                   23856901.2154
        35.2504         15.5004
 19  3  4 22 13  0.0000000  0  8G07G08G11G13G27G28G30G18
   3034323.44946   2368649.17243  21602154.0234                   21602151.4884
        40.2504         21.0004
   2940531.17246   2295217.18843  22565798.0474                   22565797.9224
        38.0004         21.0004
    -78299.96546    455978.84442  22920641.6334                   22920640.4104
        36.5004         15.5004
   -620288.35547  -1024846.78144  21682492.8204                   21682489.7704
        42.7504         27.5004
                                  24962236.4384                   24962237.3984
        32.7504         16.7504
  -2266183.62546  -1737575.78143  20679517.5864                   20679513.8914
        41.5004         23.2504
    118943.27347    108783.91444  20208632.8834                   20208632.8874
        42.0004         26.7504
   1345804.69146   1870007.77042  23852667.9304                   23852663.9224
        36.7504         14.7504
 19  3  4 22 13  5.0000000  0  8G07G08G11G13G27G28G30G18
   3036202.65647   2370113.44943  21602511.5314                   21602508.7194
        43.5004         22.0004
   2942702.05147   2296908.75843  22566211.2664                   22566211.5824
        42.5004         21.5004
    -99438.37946    439507.39542  22916618.7974                   22916618.1914
        39.0004         15.5004
   -638236.59847  -1038832.44944  21679077.6724                   21679074.6294
        46.5004         28.5004
   5175680.46546   3954300.89542  24963810.4384                   24963811.7894
        37.7504         15.5004
  -2281441.86347  -1749465.35244  20676613.8284                   20676611.2274
        44.0004         25.2504
    111858.46147    103263.26244  20207284.6644                   20207284.8834
        45.2504         27.2504
   1323551.652 6                  23848433.086
        39.000
 19  3  4 22 13 10.0000000  0  8G07G08G11G13G27G28G30G18
   3038093.43847   2371586.78143  21602871.0864                   21602868.8914
        44.5004         23.7504
   2944887.12547   2298611.41443  22566627.0314                   22566627.1724
        42.2504         22.0004
   -120561.78546    423047.55142  22912599.7974                   22912598.6334
        40.0004         14.7504
   -656169.41847  -1052806.09444  21675665.1094                   21675661.7704
        44.5004         27.5004
   5183960.75846   3960753.05542  24965385.4064                   24965388.2894
        36.0004         16.2504
  -2296689.34447  -1761346.50844  20673712.4534                   20673709.3324
        44.5004         25.5004
    104787.48047     97753.39144  20205938.6414                   20205938.2894
        46.0004         29.0004
   1301312.539 6                  23844200.430
        38.250
 19  3  4 22 13 15.0000000  0  8G07G08G11G13G27G28G30G18
   3039991.16847   2373065.54343  21603232.7114                   21603229.9694
        45.0004         22.5004
   2947081.83247   2300321.57443  22567044.6484                   22567045.2814
        42.2504         22.5004
   -141675.37146    406595.41442  22908582.3834                   22908580.6724
        39.2504         15.5004
   -674088.37947  -1066768.95744  21672254.1884                   21672252.1054
        44.0004         27.5004
   5192243.48846   3967207.16042  24966962.5554                   24966964.3364
        38.2504         16.7504
  -2311928.31647  -1773221.03544  20670812.6484                   20670809.3674
        43.7504         24.2504
     97726.90647     92251.65244  20204595.0234                   20204594.8164
        46.0004         28.2504
   1279082.016 6                  23839970.148
        38.000
 19  3  4 22 13 20.0000000  0  8G07G08G11G13G27G28G30G18
   3041897.64547   2374551.10243  21603595.3754                   21603592.4614
        44.5004         22.5004
   2949288.66247   2302041.17543  22567464.6724                   22567464.3554
        42.5004         22.2504
   -162776.69546    390152.83642  22904566.6954                   22904565.0314
        39.5004         15.5004
   -691994.56647  -1080721.81244  21668847.3524                   21668844.7624
        44.2504         27.5004
   5200531.06646   3973664.93042  24968539.7894                   24968541.4734
        36.0004         15.5004
  -2327159.44947  -1785089.44544  20667914.3444                   20667911.0634
        44.5004         25.5004
     90677.57847     86758.66044  20203253.7034                   20203253.2624
        45.7504         29.0004
   1256862.722 6                  23835741.805
        38.250
 19  3  4 22 13 25.0000000  0  8G07G08G11G13G27G28G30G18
   3043813.38347   2376043.89143  21603959.6334                   21603957.1214
        44.5004         22.2504
   2951507.01247   2303769.76243  22567886.4454                   22567886.5594
        42.5004         22.2504
   -183866.09046    373719.54742  22900553.5394                   22900552.2894
        39.0004         14.7504
   -709883.62547  -1094661.31644  21665443.3594                   21665440.3244
        44.5004         27.2504
   5208822.95746   3980126.16842  24970117.0474                   24970119.2344
        37.5004         14.7504
  -2342378.88747  -1796948.75044  20665018.1414                   20665014.9064
        44.5004         25.0004
     83641.50447     81276.01244  20201914.5784                   20201914.3554
        45.5004         28.5004
   1234653.809 6                  23831515.492
        39.500
 19  3  4 22 13 30.0000000  0  8G07G08G11G13G27G28G30G18
   3045740.69147   2377545.67643  21604326.6644                   21604323.8834
        44.5004         23.7504
   2953741.32047   2305510.76243  22568311.8674                   22568311.4224
        42.7504         22.5004
   -204940.52746    357297.88742  22896543.2344                   22896541.6054
        38.7504         15.5004
   -727755.32447  -1108587.33244  21662042.3984                   21662039.4224
        45.0004         27.5004
   5217123.77746   3986594.35242  24971697.1564                   24971698.8714
        38.2504         15.5004
  -2357586.69947  -1808798.98844  20662124.0084                   20662120.6024
        44.2504         24.0004
     76620.02047     75804.72744  20200578.5944                   20200578.2344
        45.5004         28.2504
   1212459.12546   1861009.17253  23827291.2974                   23827289.5904
        38.5004         20.7504
 19  3  4 22 13 35.0000000  0  8G07G08G11G13G27G28G30G18
   3047678.09047   2379055.32044  21604695.1254                   21604692.5864
        46.5004         24.5004
   2955989.18047   2307262.35243  22568739.9844                   22568739.9104
        42.5004         22.5004
   -226001.30946    340886.93042  22892536.0004                   22892534.1054
        40.7504         17.2504
   -745612.40647  -1122501.92644  21658643.7034                   21658641.2934
        42.0004         25.0004
   5225431.26645   3993067.78142  24973277.3134                   24973280.2854
        35.5004         15.5004
  -2372785.13347  -1820641.91844  20659231.8444                   20659229.0354
        45.0004         25.2504
     69611.15247     70343.27044  20199244.8914                   20199244.9964
        46.2504         29.2504
   1190277.33646   1843724.75443  23823069.8524                   23823069.1644
        39.5004         18.2504
 19  3  4 22 13 40.0000000  0  8G07G08G11G13G27G28G30G18
   3049624.49247   2380572.01244  21605065.5634                   21605062.8914
        44.7504         25.0004
   2958249.44547   2309023.58243  22569169.9614                   22569169.8984
        42.5004         22.5004
   -247049.92246    324485.39542  22888530.5704                   22888528.0744
        39.5004         16.7504
   -763453.86347  -1136404.39544  21655249.5314                   21655246.2274
        43.7504         26.0004
   5233743.98446   3999545.15642  24974859.8204                   24974861.7304
        38.0004         15.5004
  -2387973.48847  -1832476.99244  20656342.0704                   20656338.5084
        44.5004         25.0004
     62614.78147     64891.54344  20197913.6954                   20197913.7194
        45.7504         29.0004
   1168106.57446   1826448.81642  23818851.8674                   23818850.5234
        37.5004         17.7504
 19  3  4 22 13 45.0000000  0  8G07G08G11G13G27G28G30G18
   3051579.94547   2382095.71943  21605438.1414                   21605435.1174
        43.7504         22.5004
   2960520.00047   2310792.85544  22569601.9614                   22569601.9304
        42.5004         24.0004
   -268086.30146    308093.44542  22884527.8204                   22884524.9384
        38.2504         15.5004
   -781282.89147  -1150297.10544  21651856.2114                   21651854.1684
        45.7504         29.2504
   5242058.96946   4006024.41042  24976441.8284                   24976444.3754
        38.2504         16.2504
  -2403153.34847  -1844305.46944  20653452.8444                   20653449.8834
        44.0004         25.2504
     55629.70347     59448.62544  20196584.4454                   20196583.8914
        45.5004         29.2504
   1145946.50846   1809181.17242  23814634.3984                   23814634.2704
        37.7504         16.7504
 19  3  4 22 13 50.0000000  0  8G07G08G11G13G27G28G30G18
   3053541.66047   2383624.34043  21605810.8914                   21605808.8674
        44.0004         22.5004
   2962799.28947   2312568.92643  22570035.8754                   22570035.8874
        43.2504         23.5004
   -289113.29346    291708.76242  22880525.9064                   22880523.3754
        38.5004         16.2504
   -799098.80547  -1164179.64544  21648466.0634                   21648463.6604
        43.2504         27.0004
   5250375.81646   4012505.00842  24978025.4614                   24978026.3874
        40.0004         17.2504
  -2418325.61347  -1856128.00444  20650565.6724                   20650562.6054
        43.5004         24.5004
     48654.12147     54013.10944  20195256.9384                   20195256.5594
        45.2504         27.7504
   1123794.64846   1791920.07042  23810420.0004                   23810419.1884
        39.0004         17.2504
 19  3  4 22 13 55.0000000  0  8G07G08G11G13G27G28G30G18
   3055513.10247   2385160.51643  21606186.7344                   21606183.6954
        44.2504         22.5004
   2965092.30547   2314355.68043  22570472.2274                   22570472.0354
        42.5004         22.5004
   -310127.43446    275334.08642  22876526.4924                   22876525.0864
        38.5004         14.7504
   -816897.61747  -1178048.87544  21645080.4384                   21645076.2894
        45.5004         28.5004
   5258699.18846   4018990.82842  24979608.4924                   24979609.7114
        36.2504         16.7504
  -2433486.77747  -1867941.90644  20647680.6334                   20647677.6524
        44.2504         24.5004
     41692.14547     48588.18444  20193932.4304                   20193931.6334
        45.7504         29.0004
   1101654.59446   1774668.02342  23806206.9844                   23806206.3364
        38.5004         15.5004
 19  3  4 22 14  0.0000000  0  8G07G08G11G13G27G28G30G18
   3057498.37547   2386707.49743  21606564.2194                   21606561.6914
        44.5004         22.5004
   2967401.84047   2316155.31543  22570911.1334                   22570911.6414
        42.0004         22.2504
   -331124.67746    258972.55942  22872531.3834                   22872529.1024
        39.2504         14.7504
   -834676.25247  -1191902.30944  21641694.7344                   21641693.2194
        44.2504         28.7504
   5267031.83246   4025483.66442  24981193.8754                   24981195.6884
        36.7504         16.2504
  -2448632.93747  -1879744.10544  20644798.6094                   20644795.6524
        44.5004         24.7504
     34747.47447     43176.76344  20192610.7344                   20192610.6254
        45.5004         28.5004
   1079530.10146   1757428.22842  23801996.8754                   23801996.5314
        38.5004         14.7504
 19  3  4 22 14  5.0000000  0  8G07G08G11G13G27G28G30G18
   3059496.15247   2388264.18843  21606944.1484                   21606941.7734
        45.0004         23.2504
   2969727.06647   2317967.18443  22571353.7344                   22571353.8164
        42.0004         22.5004
   -352106.14146    242623.44142  22868537.7734                   22868536.7384
        39.2504         14.7504
   -852435.66047  -1205740.83644  21638316.9924                   21638313.7704
        45.0004         28.2504
   5275372.96146   4031983.34042  24982781.6414                   24982783.1454
        36.2504         16.2504
  -2463765.48447  -1891535.69544  20641919.3364                   20641915.7624
        44.7504         25.0004
     27818.80547     37777.80144  20191292.3284                   20191291.5984
        45.7504         29.5004
   1057420.08646   1740199.59042  23797789.0944                   23797789.1254
        38.5004         14.7504
 19  3  4 22 14 10.0000000  0  8G07G08G11G13G27G28G30G18
   3061504.71147   2389829.28144  21607326.8284                   21607323.6454
        44.5004         25.0004
   2972066.58647   2319790.16843  22571799.1414                   22571799.3674
        42.0004         22.5004
   -373073.32446    226285.33642  22864548.2584                   22864546.2154
        39.0004         15.5004
   -870178.79747  -1219566.65644  21634939.0004                   21634937.3674
        43.5004         28.5004
   5283721.37146   4038488.51242  24984370.1644                   24984371.8094
        36.7504         16.7504
  -2478887.20747  -1903318.85544  20639041.2034                   20639037.8134
        43.7504         24.7504
     20903.82047     32389.50044  20189976.2114                   20189976.0594
        45.0004         29.2504
   1035323.66846   1722981.68842  23793584.7734                   23793584.6374
        38.5004         14.7504
 19  3  4 22 14 15.0000000  0  8G07G08G11G13G27G28G30G18
   3063521.57847   2391400.89543  21607710.0314                   21607707.2384
        43.7504         22.2504
   2974416.61347   2321621.38343  22572246.5394                   22572246.4964
        42.5004         22.5004
   -394029.02746    209956.22742  22860561.1644                   22860558.3324
        39.5004         15.5004
   -887907.63747  -1233381.30544  21631566.6024                   21631563.6724
        44.2504         28.0004
   5292072.86746   4044996.23442  24985959.6804                   24985961.1724
        36.7504         16.7504
  -2493999.65247  -1915094.78144  20636165.1724                   20636162.1254
        44.5004         26.0004
     14000.31647     27010.14544  20188662.6724                   20188662.1054
        45.7504         29.5004
   1013237.28946   1705771.48842  23789380.8914                   23789381.7854
        39.0004         13.7504
 19  3  4 22 14 20.0000000  0  8G07G08G11G13G27G28G30G18
   3065546.56347   2392978.79344  21608095.4924                   21608092.8444
        45.0004         25.0004
   2976777.87947   2323461.30944  22572695.4924                   22572695.8524
        42.5004         24.0004
   -414973.34846    193636.00442  22856575.2974                   22856573.2274
        39.5004         16.2504
   -905621.55947  -1247184.38744  21628195.6334                   21628192.7664
        44.5004         28.5004
   5300428.70946   4051507.23042  24987548.8594                   24987551.6134
        38.5004         16.7504
  -2509102.89847  -1926863.54744  20633291.4064                   20633288.1994
        44.5004         25.0004
      7108.32847     21639.77044  20187351.2584                   20187350.8134
        45.7504         29.0004
    991161.32846   1688569.44142  23785180.3754                   23785180.5984
        39.2504         14.7504
 19  3  4 22 14 25.0000000  0  8G07G08G11G13G27G28G30G18
   3067581.73847   2394564.63743  21608483.0004                   21608480.0594
        45.0004         23.0004
   2979153.41847   2325312.38343  22573148.1804                   22573147.6254
        42.0004         22.2504
   -435903.81646    177326.50042  22852592.6024                   22852590.1294
        39.0004         16.7504
   -923319.91847  -1260975.30144  21624828.3204                   21624824.6604
        46.0004         28.7504
   5308791.48445   4058023.58642  24989140.4924                   24989142.4384
        34.5004         15.5004
  -2524196.05547  -1938624.43744  20630419.0634                   20630416.0044
        45.0004         25.5004
       229.66047     16279.76244  20186042.0474                   20186041.4264
        45.7504         28.5004
    969098.30546   1671377.48842  23780982.0004                   23780982.5354
        38.5004         14.7504
 19  3  4 22 14 30.0000000  0  8G07G08G11G13G27G28G30G18
   3069626.72347   2396158.14544  21608871.7194                   21608869.1334
        44.7504         24.5004
   2981540.55147   2327172.48444  22573602.1024                   22573602.1604
        43.0004         24.2504
   -456821.47746    161027.06642  22848611.8204                   22848609.5634
        40.0004         16.7504
   -941001.28147  -1274752.98844  21621462.9144                   21621459.9184
        43.7504         27.0004
   5317158.688 6                  24990733.063
        37.250
  -2539277.55947  -1950376.26644  20627549.4064                   20627546.3014
        44.0004         24.0004
     -6635.68447     10930.14844  20184735.6954                   20184735.0314
        45.7504         29.0004
    947046.53946   1654194.34842  23776786.2974                   23776786.4224
        40.2504         15.5004
 19  3  4 22 14 35.0000000  0  8G07G08G11G13G27G28G30G18
   3071680.53547   2397758.51244  21609262.3834                   21609260.4844
        44.7504         25.5004
   2983939.32847   2329041.66843  22574058.4924                   22574058.3554
        43.5004         22.7504
   -477726.99646    144737.03142  22844633.7034                   22844631.3874
        38.7504         16.7504
   -958667.02347  -1288518.51244  21618100.3524                   21618098.1134
        43.7504         27.0004
   5325530.359 6                  24992326.664
        37.750
  -2554348.99647  -1962120.23844  20624681.4224                   20624678.2274
        43.5004         24.0004
    -13488.72347      5590.12144  20183431.5234                   20183431.4144
        45.7504         29.7504
    925005.71946   1637019.66442  23772591.8444                   23772592.0394
        39.5004         14.7504
 19  3  4 22 14 40.0000000  0  8G07G08G11G13G27G28G30G18
   3073744.08247   2399366.46144  21609655.4224                   21609653.1254
        44.7504         25.2504
   2986351.62147   2330921.35543  22574517.6954                   22574517.5864
        42.0004         22.7504
   -498619.05946    128457.54342  22840658.3984                   22840655.5394
        38.5004         16.7504
   -976317.60247  -1302272.19144  21614743.0634                   21614739.6054
        45.7504         28.5004
   5333908.746 6                  24993920.563
        36.250
  -2569410.76247  -1973856.67644  20621815.1414                   20621812.0664
        45.0004         26.0004
    -20329.04747       259.98844  20182129.8444                   20182129.7114
        45.7504         29.5004
    902977.59146   1619854.82642  23768399.9384                   23768400.0704
        38.7504         13.7504
 19  3  4 22 14 45.0000000  0  8G07G08G11G13G27G28G30G18
   3075815.32447   2400980.42644  21610048.7194                   21610047.0004
        44.0004         24.7504
   2988773.21147   2332808.31343  22574979.0084                   22574978.5234
        42.5004         23.2504
   -519500.42246    112186.31642  22836684.8054                   22836681.7774
        38.5004         16.7504
   -993953.80547  -1316014.69144  21611386.7274                   21611383.6954
        45.0004         29.0004
   5342288.676 6                  24995515.680
        37.750
  -2584463.28947  -1985585.91444  20618950.7344                   20618947.3554
        45.0004         25.2504
    -27158.26247     -5061.47744  20180830.0634                   20180829.7304
        45.7504         29.2504
    880958.59046   1602697.28542  23764209.5554                   23764210.4384
        39.0004         13.7504
 19  3  4 22 14 50.0000000  0  8G07G08G11G13G27G28G30G18
   3077895.51247   2402601.33643  21610445.5004                   21610442.8204
        44.5004         22.5004
   2991206.81347   2334704.64543  22575441.5864                   22575441.6024
        42.5004         22.2504
   -540369.35546     95924.83242  22832713.8284                   22832711.1024
        39.0004         14.7504
  -1011575.14147  -1329745.60544  21608032.9064                   21608030.4184
        44.5004         28.2504
   5350673.39146   4063772.94153  24997110.7194                   24997108.6094
        37.0004         19.7504
  -2599506.31247  -1997307.74244  20616088.1484                   20616085.0124
        44.5004         25.0004
    -33975.23447    -10373.40244  20179532.9224                   20179532.7234
        45.7504         28.7504
    858950.70746   1585548.20742  23760022.0784                   23760022.2154
        38.7504         13.7504
 19  3  4 22 14 55.0000000  0  8G07G08G11G13G27G28G30G18
   3079986.74247   2404230.87143  21610842.9924                   21610841.2974
        43.5004         21.5004
   2993655.32446   2336612.55143  22575907.1334                   22575907.3794
        41.5004         21.7504
   -561223.87146     79674.56342  22828744.4144                   22828742.0204
        38.2504         15.5004
  -1029177.91047  -1343462.04344  21604682.6484                   21604680.1214
        45.2504         28.7504
   5359065.94546   4070312.59842  24998707.6644                   24998706.2814
        37.0004         17.2504
  -2614536.80147  -2009019.82444  20613227.3364                   20613224.6604
        44.7504         26.2504
    -40777.35247    -15673.75044  20178238.2734                   20178238.4614
        45.5004         29.5004
    836956.41846   1568409.84042  23755835.9534                   23755836.8284
        38.0004         14.7504
 19  3  4 22 15  0.0000000  0  8G07G08G11G13G27G28G30G18
   3082088.00047   2405868.21543  21611243.4384                   21611240.3094
        44.2504         22.5004
   2996116.51647   2338530.35543  22576376.0164                   22576375.3594
        42.5004         22.7504
   -582064.89846     63434.80942  22824778.8284                   22824776.4144
        38.7504         16.2504
  -1046764.04747  -1357165.53944  21601337.0554                   21601334.1484
        44.5004         28.2504
   5367464.21546   4076856.67242  25000305.4534                   25000304.6644
        37.5004         16.7504
  -2629556.25047  -2020723.27744  20610370.2034                   20610366.6414
        44.2504         25.5004
    -47566.19147    -20963.75444  20176946.8754                   20176946.6414
        45.5004         28.5004
    814974.47346   1551281.08642  23751653.3524                   23751654.1374
        38.5004         14.7504
 19  3  4 22 15  5.0000000  0  8G07G08G11G13G27G28G30G18
   3084198.08647   2407512.43443  21611644.5944                   21611642.1994
        44.0004         22.7504
   2998588.44146   2340456.53943  22576846.2894                   22576846.1094
        41.5004         22.5004
   -602893.94546     47204.34842  22820815.0634                   22820812.6374
        38.0004         15.5004
  -1064334.34847  -1370856.67244  21597993.8914                   21597990.3634
        45.5004         29.7504
   5375865.76646   4083403.39542  25001904.3984                   25001904.1914
        37.0004         15.5004
  -2644565.13747  -2032418.52044  20607513.6094                   20607510.4304
        45.0004         26.0004
    -54342.57447    -26244.05144  20175657.1414                   20175656.8364
        45.7504         29.0004
    793002.84046   1534160.28542  23747471.9454                   23747473.2384
        37.0004         14.7504
 19  3  4 22 15 10.0000000  0  8G07G08G11G13G27G28G30G18
   3086317.89547   2409164.21543  21612047.8914                   21612044.9884
        44.2504         22.2504
   3001073.75447   2342393.14143  22577319.2034                   22577318.9614
        42.0004         21.7504
   -623709.84046     30984.17642  22816854.2034                   22816851.8794
        38.5004         16.7504
  -1081887.96547  -1384534.80944  21594653.2734                   21594650.1024
        45.0004         28.5004
   5384273.55946   4089954.80942  25003504.9924                   25003504.4024
        36.5004         14.7504
  -2659563.23847  -2044105.35244  20604660.0554                   20604656.6454
        44.7504         26.0004
    -61105.56647    -31513.91844  20174370.1724                   20174369.7344
        45.7504         28.7504
    771043.52046   1517049.16442  23743293.9304                   23743294.7774
        38.0004         14.7504
 19  3  4 22 15 15.0000000  0  8G07G08G11G13G27G28G30G18
   3088449.16847   2410824.95743  21612453.7114                   21612450.9184
        45.2504         23.0004
   3003573.13347   2344340.69943  22577794.2734                   22577794.5204
        42.5004         22.7504
   -644510.57046     14775.82842  22812896.3134                   22812893.8014
        40.5004         16.2504
  -1099424.79347  -1398199.85944  21591315.4774                   21591313.0044
        44.5004         26.5004
   5392688.16845   4096511.67242  25005105.9844                   25005106.0474
        35.5004         14.7504
  -2674549.71947  -2055783.12144  20601807.7504                   20601804.9184
        44.2504         26.0004
    -67854.18047    -36772.57844  20173086.0944                   20173085.4614
        46.0004         29.5004
    749098.16046   1499948.89542  23739117.3834                   23739118.5664
        40.2504         14.7504
 19  3  4 22 15 20.0000000  0  9G07G08G11G13G27G28G30G18G17
   3090589.01647   2412492.36343  21612860.5704                   21612858.1134
        43.7504         22.5004
   3006084.95747   2346297.96943  22578272.5784                   22578272.4064
        42.5004         22.2504
   -665299.29746     -1423.17242  22808940.1024                   22808937.5204
        38.7504         15.5004
  -1116944.71547  -1411851.76244  21587982.1334                   21587979.1374
        44.2504         28.0004
   5401108.51646   4103072.97742  25006708.7114                   25006708.4264
        37.7504         12.5004
  -2689525.75447  -2067452.75844  20598958.1254                   20598954.6564
        44.7504         25.7504
    -74590.34447    -42021.53144  20171804.5474                   20171804.1724
        45.7504         29.0004
    727164.03946   1482857.41042  23734943.6094                   23734944.9184
        39.5004         15.5004
   2969295.21916                  24010321.422
        38.750
 19  3  4 22 15 25.0000000  0  9G07G08G11G13G27G28G30G18G17
   3092736.88347   2414166.03143  21613269.6254                   21613266.7894
        44.5004         22.5004
   3008606.55247   2348262.86343  22578752.2424                   22578752.1294
        42.5004         22.0004
   -686076.54746    -17613.30142  22804985.8674                   22804983.4694
        39.5004         14.7504
  -1134451.18447  -1425493.15644  21584650.5474                   21584647.6844
        44.5004         27.5004
   5409531.03946   4109636.05142  25008310.9774                   25008311.8014
        37.2504         13.7504
  -2704493.19547  -2079115.70344  20596109.7974                   20596106.5164
        44.2504         25.2504
    -81315.39547    -47261.83644  20170524.4384                   20170523.9384
        45.5004         29.0004
    705239.79746   1465773.50842  23730771.0314                   23730772.7344
        39.0004         14.7504
   2941114.406 6                  24004958.367
        40.250
 19  3  4 22 15 30.0000000  0  9G07G08G11G13G27G28G30G18G17
   3094893.47747   2415846.46543  21613679.6254                   21613677.2034
        44.0004         23.2504
   3011139.95747   2350236.92643  22579234.6804                   22579234.3984
        42.2504         22.5004
   -706841.38346    -33793.59042  22801034.7194                   22801032.6094
        39.2504         16.2504
  -1151943.23847  -1439123.32444  21581321.4454                   21581319.3674
        44.5004         27.5004
   5417958.26246   4116202.64142  25009914.9224                   25009915.4734
        37.0004         14.7504
  -2719451.68747  -2090771.67244  20593263.4924                   20593259.7894
        44.5004         25.7504
    -88028.78547    -52493.05144  20169247.1644                   20169246.6524
        45.7504         29.7504
    683327.07046   1448698.69142  23726601.5944                   23726602.9184
        39.2504         16.2504
   2912935.863 6                  23999596.430
        40.750
 19  3  4 22 15 35.0000000  0  9G07G08G11G13G27G28G30G18G17
   3097061.11747   2417535.54343  21614092.2584                   21614089.2464
        44.2504         22.0004
   3013687.60947   2352222.10543  22579719.5084                   22579719.3444
        42.2504         22.0004
   -727591.82046    -49962.83242  22797086.0164                   22797083.9104
        38.5004         15.5004
  -1169416.29347  -1452738.70344  21577996.2274                   21577994.0434
        45.0004         28.5004
   5426392.61746   4122774.91842  25011519.5704                   25011520.9384
        36.0004         13.7504
  -2734397.24247  -2102417.55544  20590419.3594                   20590416.0944
        45.0004         25.7504
    -94727.12147    -57712.53544  20167972.7274                   20167972.0664
        45.7504         29.2504
    661427.61346   1431634.14142  23722433.8284                   23722435.2234
        39.0004         16.2504
   2884762.535 6                  23994235.234
        39.750
 19  3  4 22 15 40.0000000  0  9G07G08G11G13G27G28G30G18G17
   3099240.39847   2419233.69143  21614507.3984                   21614504.3324
        44.2504         22.7504
   3016247.86747   2354217.11343  22580206.7584                   22580206.9184
        42.5004         21.5004
   -748327.47746    -66120.41442  22793139.8834                   22793138.1414
        37.7504         15.5004
  -1186871.21947  -1466339.94944  21574675.5314                   21574672.6684
        44.5004         28.5004
   5434831.766 6                  25013124.938
        38.000
  -2749329.46547  -2114053.05144  20587577.9304                   20587574.6954
        44.7504         25.0004
   -101410.23047    -62920.15244  20166700.5474                   20166700.2894
        45.7504         29.2504
    639540.98846   1414579.67242  23718268.7894                   23718270.4384
        38.5004         15.5004
   2856596.941 6                  23988875.609
        38.750
 19  3  4 22 15 45.0000000  0  9G07G08G11G13G27G28G30G18G17
   3101426.70347   2420937.30943  21614923.1334                   21614920.3634
        43.7504         22.5004
   3018816.97347   2356219.01643  22580695.2504                   22580695.5824
        42.0004         22.2504
   -769052.37146    -82269.68442  22789196.0784                   22789194.7384
        38.2504         14.7504
  -1204313.81647  -1479931.57044  21571356.3834                   21571352.8874
        44.7504         28.0004
   5443272.66446   4128825.16453  25014731.9534                   25014729.9654
        38.2504         20.0004
  -2764254.45347  -2125682.90244  20584737.9304                   20584734.4694
        45.0004         24.5004
   -108083.71547    -68120.26645  20165430.8364                   20165430.3484
        45.5004         30.0004
    617663.98446   1397532.69942  23714106.6334                   23714107.8244
        38.0004         15.5004
   2828433.672 6                  23983516.039
        40.750
 19  3  4 22 15 50.0000000  0  9G07G08G11G13G27G28G30G18G17
   3103620.91447   2422647.07043  21615340.6254                   21615337.8484
        43.2504         22.0004
   3021398.23446   2358230.36343  22581187.1644                   22581186.3984
        41.5004         22.0004
   -789766.02346    -98410.24242  22785254.6724                   22785253.1994
        38.0004         15.5004
  -1221739.45747  -1493509.98844  21568039.7894                   21568037.2504
        45.5004         28.7504
   5451718.56646   4135406.34843  25016339.1334                   25016337.6604
        36.5004         18.2504
  -2779169.02047  -2137304.65244  20581899.6954                   20581896.1484
        44.7504         25.5004
   -114744.72347    -73310.66444  20164162.8914                   20164162.7274
        45.5004         29.5004
    595797.21946   1380493.60542  23709944.1414                   23709946.6914
        37.7504         16.7504
   2800271.641 6                  23978156.914
        40.500
 19  3  4 22 15 55.0000000  0  9G07G08G11G13G27G28G30G18G17
   3105827.83647   2424366.76243  21615760.4534                   21615757.7274
        43.0004         22.5004
   3023993.10946   2360252.35543  22581680.5474                   22581680.3284
        41.5004         22.0004
   -810463.67646   -114538.24642  22781315.9304                   22781314.5664
        36.7504         14.7504
  -1239146.38747  -1507073.82844  21564728.2274                   21564724.5904
        46.5004         28.0004
   5460170.41446   4141992.25442  25017947.2034                   25017946.3094
        37.2504         16.7504
  -2794069.68747  -2148915.54744  20579064.0634                   20579060.5514
        44.7504         25.0004
   -121389.78947    -78488.63744  20162898.3594                   20162898.1804
        45.0004         29.5004
    573944.67246   1363465.59042  23705786.2664                   23705787.9024
        37.2504         15.5004
   2772118.258 6                  23972799.508
        39.500
 19  3  4 22 16  0.0000000  0  9G07G08G11G13G27G28G30G18G17
   3108045.35547   2426094.68043  21616182.1804                   21616179.6334
        44.0004         22.2504
   3026601.79347   2362285.10543  22582176.3134                   22582176.7034
        42.0004         21.5004
   -831147.062 6                  22777380.172
        39.750
  -1256536.20347  -1520624.34844  21561417.5784                   21561415.6334
        44.2504         29.2504
   5468628.97346   4148583.34842  25019557.0474                   25019556.4494
        36.7504         16.2504
  -2808959.07847  -2160517.69544  20576230.4144                   20576227.3594
        44.7504         25.5004
   -128020.98047    -83655.80144  20161636.7664                   20161636.4804
        45.7504         29.5004
    552105.57446   1346448.21942  23701631.0864                   23701632.4494
        38.2504         16.2504
   2743969.020 6                  23967442.648
        39.500
 19  3  4 22 16  5.0000000  0  9G07G08G11G13G27G28G30G18G17
   3110273.38347   2427830.81343  21616605.9304                   21616603.6684
        43.5004         22.0004
   3029224.18446   2364328.52343  22582675.3134                   22582676.3594
        41.5004         22.0004
   -851816.098 6                  22773447.031
        40.000
  -1273909.50047  -1534161.97344  21558112.6884                   21558109.8404
        45.5004         29.5004
   5477094.27745   4155179.65642  25021167.4304                   25021167.6914
        35.7504         15.5004
  -2823837.56247  -2172111.30044  20573399.1564                   20573395.6884
        45.2504         26.0004
   -134638.53947    -88812.34044  20160377.4534                   20160376.9924
        45.7504         29.2504
    530279.81646   1329441.12942  23697477.5314                   23697478.7734
        37.7504         14.7504
   2715824.051 6                  23962087.016
        39.000
 19  3  4 22 16 10.0000000  0  9G07G08G11G13G27G28G30G18G17
   3112511.72747   2429574.96143  21617032.5004                   21617029.4534
        44.2504         22.7504
   3031860.16847   2366382.54343  22583177.5234                   22583177.4304
        42.0004         22.0004
   -872471.32446   -132566.87953  22769516.0944                   22769512.1844
        38.2504         18.5004
  -1291264.93747  -1547685.69144  21554810.0394                   21554806.8164
        44.7504         28.5004
   5485565.72746   4161780.82842  25022780.2734                   25022780.1884
        37.5004         14.7504
  -2838704.16847  -2183695.66844  20570570.5474                   20570566.9614
        44.5004         25.7504
   -141241.85247    -93957.77344  20159120.6414                   20159120.4964
        45.5004         29.0004
    508466.86746   1312444.09042  23693325.8984                   23693328.2664
        38.7504         14.7504
   2687683.156 6                  23956731.656
        37.750
 19  3  4 22 16 15.0000000  0  9G07G08G11G13G27G28G30G18G17
   3114759.67247   2431326.60843  21617460.3754                   21617457.3014
        43.2504         22.5004
   3034509.37146   2368446.84843  22583682.1024                   22583681.5084
        41.2504         22.0004
   -893112.62546   -148651.03542  22765587.9064                   22765584.6684
        36.7504         17.2504
  -1308606.57647  -1561198.64344  21551510.8054                   21551506.9344
        45.7504         28.2504
   5494043.29745   4168386.68842  25024393.0554                   25024393.4884
        35.2504         14.7504
  -2853562.24247  -2195273.38344  20567743.1024                   20567739.8134
        44.7504         25.7504
   -147833.10247    -99093.81244  20157866.6484                   20157866.3794
        45.5004         29.0004
    486667.10546   1295457.19942  23689178.2814                   23689179.6454
        38.2504         14.7504
   2659543.785 6                  23951377.211
        38.500
 19  3  4 22 16 20.0000000  0  9G07G08G11G13G27G28G30G18G17
   3117015.31347   2433084.27044  21617889.6484                   21617886.6954
        44.5004         24.0004
   3037169.28547   2370519.52043  22584187.5164                   22584187.4104
        42.0004         22.5004
   -913742.25046   -164725.98842  22761662.5474                   22761659.3054
        38.5004         17.7504
  -1325935.25847  -1574701.51644  21548212.8984                   21548209.5904
        44.7504         27.2504
   5502524.57046   4174995.48842  25026007.0864                   25026007.7664
        37.5004         13.7504
  -2868412.90647  -2206845.33644  20564916.8984                   20564913.5314
        44.7504         24.5004
   -154413.90647   -104221.70344  20156614.2504                   20156613.4534
        45.5004         29.0004
    464878.36746   1278479.01642  23685031.9144                   23685033.3484
        38.5004         13.7504
   2631405.668 6                  23946022.070
        40.750
 19  3  4 22 16 25.0000000  0  9G07G08G11G13G27G28G30G18G17
   3119278.98847   2434848.17643  21618320.7894                   21618317.2854
        44.7504         22.7504
   3039841.13747   2372601.45343  22584696.5394                   22584696.0394
        42.0004         22.5004
   -934359.75846   -180791.64142  22757739.2664                   22757736.6334
        38.7504         16.2504
  -1343250.10947  -1588193.60944  21544917.6094                   21544914.7704
        44.5004         28.2504
   5511011.01646   4181608.22742  25027622.3054                   25027623.1484
        37.2504         14.7504
  -2883255.64147  -2218411.08644  20562092.7814                   20562089.4774
        44.7504         25.5004
   -160983.65647   -109341.00044  20155364.2344                   20155363.4064
        45.2504         28.5004
    443101.21546   1261509.79742  23680888.0394                   23680889.2194
        38.5004         15.5004
   2603267.906 6                  23940668.023
        39.500
 19  3  4 22 16 30.0000000  0  9G07G08G11G13G27G28G30G18G17
   3121551.06647   2436618.61343  21618752.8444                   21618750.2384
        44.0004         21.7504
   3042524.53147   2374692.40643  22585207.0084                   22585206.7154
        42.0004         21.7504
   -954965.31646   -196847.85542  22753818.2034                   22753815.4494
        38.2504         17.2504
  -1360548.12947  -1601672.57444  21541626.0864                   21541622.5594
        45.0004         27.5004
   5519501.680 6                  25029238.133
        37.250
  -2898087.66847  -2229968.53144  20559270.0554                   20559266.8204
        45.2504         24.7504
   -167540.76647   -114450.42644  20154116.5554                   20154116.1764
        46.0004         28.7504
    421334.69946   1244548.85542  23676746.2814                   23676747.0394
        38.7504         15.5004
   2575133.375 6                  23935314.320
        41.500
 19  3  4 22 16 35.0000000  0  9G07G08G11G13G27G28G30G18G17
   3123832.63347   2438396.48844  21619187.2814                   21619184.4414
        45.0004         24.5004
   3045220.33647   2376793.04743  22585720.1884                   22585720.4184
        42.2504         23.7504
   -975557.43446   -212893.71142  22749899.5864                   22749896.5944
        38.7504         17.2504
  -1377831.07047  -1615139.78544  21538336.3284                   21538334.3054
        43.7504         27.2504
   5527997.684 6                  25030853.977
        37.000
  -2912910.12947  -2241518.48044  20556449.6884                   20556445.7974
        45.0004         26.5004
   -174085.43447   -119550.16444  20152871.1484                   20152870.5664
        46.0004         29.0004
    399580.83646   1227597.83642  23672606.2734                   23672607.8794
        38.7504         13.7504
   2547002.121 6                  23929961.234
        41.500
 19  3  4 22 16 40.0000000  0  9G07G08G11G13G27G28G30G18G17
   3126123.11347   2440181.24243  21619623.0084                   21619620.3324
        44.0004         23.5004
   3047927.33646   2378902.40643  22586234.8444                   22586234.8674
        41.7504         22.5004
   -996136.97746   -228929.68742  22745983.4144                   22745980.6954
        38.0004         17.2504
  -1395098.40647  -1628594.87144  21535050.9924                   21535048.0904
        45.0004         27.2504
   5536497.547 6                  25032471.758
        38.000
  -2927722.59847  -2253060.66444  20553630.7664                   20553627.5554
        44.5004         25.7504
   -180617.75847   -124640.30144  20151627.9454                   20151627.9104
        45.5004         28.7504
    377838.21646   1210655.50242  23668469.3524                   23668470.3094
        38.5004         14.7504
   2518874.387 6                  23924609.133
        39.500
 19  3  4 22 16 45.0000000  0  9G07G08G11G13G27G28G30G18G17
   3128420.66047   2441971.54743  21620059.5004                   21620057.2234
        44.5004         22.7504
   3050644.16447   2381019.39843  22586752.5944                   22586751.9574
        42.0004         22.7504
  -1016705.84846   -244957.39142  22742069.4614                   22742066.5124
        39.0004         16.7504
  -1412351.14547  -1642038.55944  21531768.3204                   21531765.2384
        45.2504         26.7504
   5544999.965 6                  25034090.195
        36.250
  -2942526.28547  -2264596.02044  20550813.3984                   20550810.7194
        44.7504         25.7504
   -187139.21947   -129721.95344  20150386.2504                   20150386.3014
        45.7504         29.7504
    356105.06646   1193720.64542  23664333.1484                   23664334.2854
        38.5004         15.5004
   2490748.516 6                  23919256.289
        40.000
 19  3  4 22 16 50.0000000  0  9G07G08G11G13G27G28G30G18G17
   3130726.79347   2443768.53943  21620498.4384                   21620496.5044
        43.7504         22.5004
   3053372.47746   2383145.35543  22587271.1094                   22587271.0824
        41.2504         21.5004
  -1037262.37546   -260975.46142  22738157.4924                   22738154.9264
        38.5004         16.7504
  -1429588.23047  -1655470.05544  21528487.7894                   21528484.9454
        44.5004         27.7504
   5553506.676 6                  25035708.883
        36.500
  -2957320.15647  -2276123.70344  20547998.4924                   20547994.8284
        44.5004         25.2504
   -193648.43747   -134794.07444  20149148.4924                   20149148.0554
        45.5004         28.5004
    334383.16846   1176794.41442  23660199.5474                   23660201.0004
        38.5004         14.7504
   2462625.375 6                  23913904.797
        41.250
 19  3  4 22 16 55.0000000  0  9G07G08G11G13G27G28G30G18G17
   3133040.15247   2445571.14843  21620939.3364                   21620936.3284
        44.7504         22.7504
   3056109.67247   2385278.23043  22587792.1884                   22587791.5984
        42.0004         22.5004
  -1057808.14846   -276985.18042  22734247.4924                   22734244.9024
        38.0004         15.5004
  -1446810.86247  -1668890.28544  21525210.5314                   21525207.3364
        45.0004         27.7504
   5562015.020 6                  25037327.453
        37.750
  -2972105.10547  -2287644.44144  20545184.8754                   20545181.3324
        44.5004         25.0004
   -200146.94147   -139857.84644  20147911.1024                   20147911.1914
        45.7504         28.5004
    312670.512 6                  23656067.664
        37.750
   2434505.535 6                  23908553.477
        40.500
 19  3  4 22 17  0.0000000  0  9G07G08G11G13G27G28G30G18G17
   3135360.77047   2447379.41444  21621380.4924                   21621378.0394
        44.2504         25.2504
   3058856.00847   2387418.24643  22588314.8914                   22588314.5864
        42.2504         22.5004
  -1078343.02046   -292986.34042  22730340.3754                   22730337.7274
        39.5004         16.2504
  -1464019.88347  -1682299.89844  21521935.4534                   21521932.9454
        44.0004         27.0004
   5570524.766 5                  25038946.789
        35.250
  -2986881.70747  -2299158.68044  20542372.9304                   20542369.6174
        44.7504         26.5004
   -206634.66847   -144913.21545  20146676.8754                   20146677.0124
        46.0004         30.5004
    290967.320 6                  23651937.789
        39.750
   2406387.719 7                  23903203.227
        42.000
 19  3  4 22 17  5.0000000  0  9G07G08G11G13G27G28G30G18G17
   3137690.57047   2449194.84444  21621823.7424                   21621821.5514
        44.7504         25.2504
   3061615.00046   2389568.09843  22588839.3524                   22588839.4574
        41.7504         22.7504
  -1098864.69546   -308977.23442  22726434.8204                   22726432.5004
        39.2504         16.7504
  -1481213.44947  -1695697.48844  21518664.4614                   21518661.1604
        45.2504         27.2504
   5579040.211 5                  25040566.883
        35.000
  -3001648.81247  -2310665.50444  20539563.3524                   20539559.9344
        44.7504         26.5004
   -213109.98847   -149958.91444  20145444.5084                   20145444.4064
        46.0004         29.2504
    269276.598 6                  23647809.477
        39.500
   2378272.191 6                  23897853.141
        39.500
 19  3  4 22 17 10.0000000  0  9G07G08G11G13G27G28G30G18G17
   3140029.37947   2451017.28543  21622269.2504                   21622266.3284
        44.2504         22.5004
   3064385.93047   2391727.28143  22589366.5004                   22589366.8794
        42.5004         22.5004
  -1119373.30546   -324958.00442  22722532.3134                   22722530.1724
        38.2504         16.2504
  -1498391.49647  -1709082.98044  21515395.0394                   21515392.3834
        44.2504         28.5004
   5587560.590 6                  25042189.172
        38.750
  -3016406.17247  -2322164.74644  20536754.8524                   20536751.9734
        44.0004         24.5004
   -219573.05947   -154995.06644  20144214.9924                   20144214.6564
        45.7504         29.2504
    247598.098 6                  23643684.359
        38.500
   2350159.965 6                  23892503.633
        39.500
 19  3  4 22 17 15.0000000  0  9G07G08G11G13G27G28G30G18G17
   3142375.65647   2452845.55543  21622715.4774                   21622712.8954
        44.5004         23.0004
   3067166.18447   2393893.69143  22589895.6094                   22589896.0824
        42.5004         22.7504
  -1139870.77346   -340930.02742  22718631.7034                   22718629.8954
        38.0004         16.7504
  -1515555.76647  -1722457.73444  21512129.0394                   21512125.7774
        44.5004         28.7504
   5596082.781 6                  25043811.070
        38.000
  -3031155.05947  -2333657.39844  20533948.4304                   20533944.9384
        44.0004         26.0004
   -226025.25847   -160022.76644  20142987.3594                   20142987.0234
        45.7504         29.2504
    225929.391 6                  23639561.367
        39.000
   2322050.164 6                  23887153.633
        40.250
 19  3  4 22 17 20.0000000  0  9G07G08G11G13G27G28G30G18G17
   3144732.51247   2454682.05943  21623164.4304                   21623161.3874
        44.2504         22.7504
   3069959.79747   2396070.55143  22590427.3134                   22590427.2934
        42.7504         22.7504
  -1160353.46946   -356890.58242  22714734.6254                   22714731.7464
        39.0004         15.5004
  -1532704.86747  -1735820.67644  21508864.5784                   21508862.7854
        43.2504         27.7504
   5604611.148 6                  25045432.992
        38.250
  -3045894.26647  -2345142.47344  20531143.5634                   20531140.0084
        44.0004         25.0004
   -232464.53147   -165040.37144  20141761.9224                   20141761.7114
        45.2504         29.0004
    204274.703 6                  23635440.906
        38.500
   2293944.223 6                  23881805.633
        40.750
 19  3  4 22 17 25.0000000  0  9G07G08G11G13G27G28G30G18G17
   3147100.22347   2456527.02043  21623614.4144                   21623611.7664
        44.2504         22.2504
   3072768.10546   2398258.82043  22590961.5004                   22590962.0514
        41.5004         22.2504
  -1180821.01246   -372839.25842  22710839.3134                   22710837.3054
        37.5004         15.5004
  -1549836.89847  -1749170.30944  21505605.5704                   21505602.9144
        45.0004         29.5004
   5613147.219 5                  25047057.773
        35.000
  -3060622.30547  -2356618.87944  20528340.8054                   20528337.3714
        44.5004         26.0004
   -238889.56247   -170046.90244  20140539.1174                   20140539.0434
        45.5004         29.5004
    182634.430 6                  23631322.422
        39.000
   2265841.809 6                  23876457.320
        39.500
 19  3  4 22 17 30.0000000  0  9G07G08G11G13G27G28G30G18G17
   3149480.59847   2458381.87943  21624067.5004                   21624065.0124
        43.0004         22.2504
   3075591.14546   2400458.60943  22591498.9614                   22591499.2234
        41.5004         22.2504
  -1201272.29346   -388775.37942  22706947.2734                   22706944.7114
        37.7504         14.7504
  -1566948.53547  -1762504.05545  21502348.9534                   21502346.1884
        45.2504         30.0004
   5621690.445 6                  25048683.453
        36.500
  -3075335.59447  -2368083.77744  20525540.8754                   20525537.5744
        45.0004         26.5004
   -245297.90247   -175040.40644  20139319.5554                   20139319.2854
        45.2504         29.0004
    161009.043 6                  23627207.578
        38.750
   2237747.367 6                  23871111.586
        39.500
 19  3  4 22 17 35.0000000  0  9G07G08G11G13G27G28G30G18G17
   4727291.31647   3687844.72743  21924314.7894                   21924312.5044
        45.7504         22.5004
   4653848.11747   3630269.21943  22891831.1024                   22891830.9654
        42.5004         22.5004
    353715.32046    822903.29742  23002851.7194                   23002849.0824
        40.7504         16.2504
     -8618.11347   -548220.60544  21798889.3444                   21798886.2034
        44.0004         28.2504
   7205659.719 6                  25350102.625
        36.000
  -1514613.76647  -1151936.90244  20822536.6564                   20822532.9694
        44.7504         25.7504
   1323729.59847   1047578.41444  20437895.5944                   20437895.3794
        46.5004         29.0004
   1714822.031 6                  23922887.969
        40.000
   3785083.281 6                  24165560.313
        40.250
 19  3  4 22 17 40.0000000  0  9G07G08G11G13G27G28G30G18G17
   4729693.39547   3689716.48843  21924772.2424                   21924769.6804
        43.7504         22.5004
   4656697.86746   3632489.80543  22892373.8984                   22892373.6844
        41.5004         22.7504
    333293.36346    806990.09842  22998965.0234                   22998963.2274
        38.0004         16.2504
    -25693.49247   -561526.11345  21795640.2344                   21795637.1954
        45.5004         30.0004
   7214215.055 5                  25351730.898
        35.750
  -1529302.45747  -1163382.62944  20819741.2974                   20819737.8984
        44.5004         26.2504
   1317350.35247   1042607.57444  20436681.6644                   20436681.2344
        45.5004         29.5004
   1693223.566 6                  23918778.086
        38.750
   3757000.27746   3677566.55153  24160216.2894                   24160211.4614
        40.0004         19.7504
 19  3  4 22 17 45.0000000  0  9G07G08G11G13G27G28G30G18G17
   4732103.11747   3691594.20343  21925231.0704                   21925228.0474
        44.5004         22.5004
   4659558.25447   3634718.67243  22892918.0634                   22892917.8954
        42.0004         22.0004
    312883.09446    791085.99642  22995081.6254                   22995079.1214
        39.2504         15.5004
    -42753.58647   -574819.67644  21792393.3594                   21792390.7624
        44.5004         28.5004
   7222774.152 5                  25353359.453
        35.750
  -1543982.03947  -1174821.25844  20816947.7344                   20816944.2774
        45.0004         26.7504
   1310982.37147   1037645.51244  20435469.9384                   20435469.4804
        45.7504         29.2504
   1671635.695 6                  23914670.586
        38.250
   3728919.85946   3655685.74243  24154871.8834                   24154868.1294
        38.7504         18.2504
 19  3  4 22 17 50.0000000  0  9G07G08G11G13G27G28G30G18G17
   4734521.72747   3693478.80143  21925690.5554                   21925688.1294
        44.5004         23.0004
   4662431.36746   3636957.48043  22893464.6954                   22893464.9414
        41.7504         22.5004
    292485.85946    775192.07042  22991200.0784                   22991197.5394
        39.2504         15.5004
    -59797.48847   -588100.64544  21789150.3054                   21789147.7274
        45.0004         28.5004
   7231338.816 5                  25354989.336
        33.750
  -1558651.62947  -1186252.12144  20814156.2274                   20814152.8524
        44.2504         25.7504
   1304627.14547   1032693.39544  20434260.7814                   20434260.3014
        46.0004         29.7504
   1650060.08246   2380095.33253  23910564.5704                   23910561.7704
        38.7504         19.0004
   3700841.56346   3633806.57442  24149529.2504                   24149525.9694
        40.0004         16.7504
 19  3  4 22 17 55.0000000  0  9G07G08G11G13G27G28G30G18G17
   4736949.06347   3695370.25044  21926153.2584                   21926150.2114
        44.5004         24.5004
   4665314.35947   3639203.94543  22894013.8364                   22894013.7704
        42.0004         23.5004
    272101.34446    759307.98842  22987321.1804                   22987318.2974
        39.0004         16.2504
    -76827.92247   -601371.09844  21785910.2974                   21785906.3954
        45.7504         28.5004
   7239905.891 5                  25356620.750
        35.500
  -1573312.64147  -1197676.27344  20811366.2114                   20811363.3754
        45.2504         25.5004
   1298283.23847   1027750.08644  20433053.3444                   20433053.0354
        45.7504         29.5004
   1628496.04746   2363292.18042  23906460.8054                   23906458.3054
        38.7504         16.7504
   3672767.10546   3611930.37542  24144187.0474                   24144184.2234
        41.2504         16.7504
 19  3  4 22 18  0.0000000  0  9G07G08G11G13G27G28G30G18G17
   4739381.10947   3697265.34444  21926616.2344                   21926613.1454
        44.5004         25.0004
   4668204.12147   3641455.71543  22894563.3134                   22894563.5124
        42.2504         23.5004
    251725.43046    743430.71942  22983444.1334                   22983441.3954
        39.0004         16.2504
    -93845.95747   -614631.91444  21782671.9614                   21782668.1334
        45.5004         28.0004
   7248472.605 6                  25358249.875
        37.000
  -1587967.18747  -1209095.40644  20808577.9534                   20808574.1884
        44.7504         26.2504
   1291947.75447   1022813.35544  20431847.9454                   20431847.4734
        45.7504         29.0004
   1606939.20446   2346494.61242  23902359.2734                   23902356.8954
        38.7504         16.2504
   3644693.22346   3590054.65642  24138845.0704                   24138842.6564
        39.5004         16.7504
 19  3  4 22 18  5.0000000  0  9G07G08G11G13G27G28G30G18G17
   4741821.14547   3699166.66843  21927079.7194                   21927077.2034
        44.2504         23.0004
   4671105.59846   3643716.61343  22895115.9064                   22895115.5274
        41.7504         22.5004
    231361.63746    727562.79742  22979568.2344                   22979565.7814
        38.5004         17.7504
   -110848.58647   -627880.70744  21779435.3054                   21779432.5984
        45.2504         29.0004
   7257043.836 5                  25359881.039
        34.500
  -1602612.52747  -1220507.35244  20805790.9694                   20805787.0704
        45.0004         25.2504
   1285624.09847   1017885.81644  20430644.5394                   20430644.0704
        45.7504         28.7504
   1585393.60246   2329705.87142  23898259.4844                   23898257.0514
        38.0004         16.2504
   3616620.71946   3568180.02042  24133502.5634                   24133500.4654
        41.2504         15.5004
 19  3  4 22 18 10.0000000  0  9G07G08G11G13G27G28G30G18G17
   4744271.48047   3701076.00443  21927546.1414                   21927542.9574
        43.0004         22.5004
   4674018.66447   3645986.50843  22895670.2274                   22895669.7034
        42.2504         22.0004
    211011.85546    711705.80942  22975696.5084                   22975693.7344
        37.5004         17.2504
   -127833.57447   -641115.77044  21776204.1724                   21776199.9734
        46.2504         28.2504
   7265619.332 6                  25361513.438
        36.750
  -1617245.88347  -1231909.97344  20803006.6564                   20803002.5514
        44.5004         25.0004
   1279314.37147   1012969.15244  20429443.8674                   20429443.3984
        45.5004         28.5004
   1563860.52046   2312926.82442  23894161.4384                   23894160.0824
        36.2504         14.7504
   3588554.81346   3546310.48442  24128161.9304                   24128160.3054
        41.7504         15.5004
 19  3  4 22 18 15.0000000  0  9G07G08G11G13G27G28G30G18G17
   4746728.60247   3702990.65243  21928014.0164                   21928011.1724
        43.7504         22.7504
   4676939.46547   3648262.46143  22896225.3754                   22896225.6954
        42.0004         22.2504
    190672.35546    695856.88342  22971825.7194                   22971822.9574
        39.0004         16.7504
   -144803.60947   -654339.18044  21772974.7344                   21772971.4804
        45.5004         28.7504
   7274194.758 6                  25363144.406
        36.000
  -1631869.84847  -1243305.26644  20800223.4844                   20800220.2384
        44.2504         26.7504
   1273015.46547   1008060.91844  20428244.9304                   20428244.6804
        45.7504         28.0004
   1542335.92646   2296154.42642  23890065.7974                   23890063.6884
        38.5004         15.5004
   3560493.19146   3524444.25042  24122821.9924                   24122820.5824
        40.5004         15.5004
 19  3  4 22 18 20.0000000  0  9G07G08G11G13G27G28G30G18G17
   4749194.64147   3704912.25843  21928482.3914                   21928480.8364
        42.7504         22.0004
   4679870.89846   3650546.68043  22896783.5944                   22896783.6684
        41.5004         22.7504
    170345.59046    680017.80942  22967957.8284                   22967955.2624
        38.2504         16.7504
   -161758.35247   -667550.65644  21769748.5944                   21769744.5944
        46.0004         29.0004
   7282773.270 5                  25364776.594
        32.750
  -1646483.95347  -1254692.88344  20797442.7034                   20797438.8594
        44.2504         26.5004
   1266728.94947   1003162.32844  20427049.1174                   20427048.6134
        45.5004         28.7504
   1520822.61746   2279390.82042  23885971.6254                   23885970.2974
        38.2504         14.7504
   3532435.19146   3502580.98042  24117482.2504                   24117481.3754
        41.2504         16.7504
