     2.11           OBSERVATION DATA    G (GPS)             RINEX VERSION / TYPE
teqc  2019Feb25     Martin Truffer      20190308 01:03:10UTCPGM / RUN BY / DATE
Linux 2.6.32-573.12.1.x86_64|x86_64|gcc|Linux 64|=+         COMMENT
BIT 2 OF LLI FLAGS DATA COLLECTED UNDER A/S CONDITION       COMMENT
51890600                                                    MARKER NAME
5189                                                        MARKER NUMBER
-Unknown-           -Unknown-                               OBSERVER / AGENCY
0220315189          TRIMBLE 5700        2.30                REC # / TYPE / VERS
-Unknown-           TRM41249.00     NONE                    ANT # / TYPE
 -2300578.6072 -1445972.8286  5751258.5486                  APPROX POSITION XYZ
        0.0530        0.0000        0.0000                  ANTENNA: DELTA H/E/N
     1     1                                                WAVELENGTH FACT L1/2
     7    L1    L2    C1    P1    P2    S1    S2            # / TYPES OF OBSERV
    18                                                      LEAP SECONDS
 SNR is mapped to RINEX snr flag value [0-9]                COMMENT
  L1 & L2: min(max(int(snr_dBHz/6), 0), 9)                  COMMENT
  2019     3     1    19    56   10.0000000     GPS         TIME OF FIRST OBS
                                                            END OF HEADER
 19  3  1 19 56 10.0000000  0  4G07G09G30G27
   -299951.82456   -220389.93453  20700755.0394                   20700752.7074
        40.2504         22.7504
     27288.80957      2918.46154  21342659.1804                   21342654.2034
        42.0004         28.2504
   -453641.48456   -309873.98852  21830202.4224                   21830202.1334
        40.2504         17.7504
    -39598.34016                  24019161.453
        37.000
 19  3  1 19 56 15.0000000  0  4G07G09G30G27
   -309989.94946   -228211.85243  20698844.6174                   20698842.8524
        40.7504         22.7504
     33140.53147      7478.21953  21343772.2734                   21343771.2814
        43.0004         21.0004
   -474117.25846   -325829.14842  21826305.8134                   21826305.9574
        40.0004         17.2504
    -59381.219 6                  24015396.781
        37.000
 19  3  1 19 56 20.0000000  0  4G07G09G30G27
   -320017.31246   -236025.41843  20696937.9304                   20696934.5314
        40.7504         22.5004
     39000.23847     12044.17243  21344887.0474                   21344886.5554
        42.2504         20.7504
   -494585.89846   -341778.70342  21822410.7894                   21822410.6954
        40.0004         17.2504
    -79154.926 5                  24011633.469
        34.750
 19  3  1 19 56 25.0000000  0  4G07G09G30G27
   -330034.23446   -243830.80143  20695030.2814                   20695028.3524
        40.0004         22.0004
     44867.46946     16616.04743  21346004.5164                   21346002.5474
        41.5004         21.2504
   -515047.83246   -357723.13742  21818516.5394                   21818517.6334
        38.2504         17.2504
    -98919.820 5                  24007873.328
        34.250
 19  3  1 19 56 30.0000000  0  4G07G09G30G27
   -340033.52046   -251622.46543  20693128.0864                   20693125.6804
        39.5004         22.7504
     50749.40247     21199.39843  21347123.3524                   21347122.1644
        42.0004         20.2504
   -535495.93746   -373656.72742  21814626.2894                   21814625.9064
        38.5004         16.7504
   -118668.980 5                  24004115.508
        34.500
 19  3  1 19 56 35.0000000  0  4G07G09G30G27
   -350016.03146   -259401.04343  20691228.1954                   20691226.1914
        39.5004         23.0004
     56645.10546     25793.43843  21348245.1804                   21348243.5594
        41.0004         20.7504
   -555931.01246   -389580.13342  21810737.2734                   21810737.2974
        39.2504         16.7504
   -138403.105 5                  24000359.922
        33.750
 19  3  1 19 56 40.0000000  0  4G07G09G30G27
   -359986.32446   -267170.14143  20689331.5394                   20689329.1174
        40.0004         22.2504
     62550.19546     30394.80943  21349368.6024                   21349367.3984
        41.5004         21.0004
   -576357.47746   -405496.85942  21806849.4144                   21806849.9454
        40.7504         17.2504
   -158126.605 5                  23996606.711
        33.500
 19  3  1 19 56 45.0000000  0  4G07G09G30G27
   -369957.91446   -274940.19543  20687433.3834                   20687431.5704
        39.5004         21.5004
     68450.98846     34992.82843  21350491.6884                   21350490.2504
        41.7504         20.7504
   -596789.06246   -421417.50842  21802961.3834                   21802962.0704
        40.2504         17.2504
   -177853.105 5                  23992852.688
        33.500
 19  3  1 19 56 50.0000000  0  5G07G09G30G23G27
   -379927.82846   -282708.95343  20685536.0864                   20685534.4454
        39.2504         21.7504
     74350.46946     39589.82043  21351614.3054                   21351612.9654
        40.2504         20.2504
   -617222.67246   -437339.85243  21799073.4064                   21799073.7274
        40.0004         18.5004
     58411.51215                  23899514.148
        33.500
   -197579.496 5                  23989099.438
        33.250
 19  3  1 19 56 55.0000000  0  5G07G09G30G23G27
   -389888.14146   -290470.20743  20683640.7584                   20683638.8244
        38.2504         21.2504
     80256.59846     44192.01643  21352738.8444                   21352737.2814
        41.2504         20.5004
   -637650.30946   -453257.45742  21795185.4844                   21795187.0004
        39.2504         17.7504
     68756.617 5                  23901481.508
        33.250
   -217297.852 5                  23985345.352
        31.000
 19  3  1 19 57  0.0000000  0  5G07G09G30G23G27
   -399836.17246   -298221.96543  20681747.5314                   20681745.9454
        39.0004         21.0004
     86171.98846     48801.35243  21353864.3444                   21353863.0394
        41.7504         20.2504
   -658069.41446   -469168.48042  21791300.7814                   21791301.1564
        41.2504         16.7504
     79104.926 5                  23903452.133
        31.500
   -237005.734 5                  23981596.578
        32.250
 19  3  1 19 57  5.0000000  0  5G07G09G30G23G27
   -409771.37146   -305963.66043  20679856.6884                   20679855.2114
        38.7504         21.5004
     92097.27747     53418.47343  21354991.8984                   21354990.5084
        42.2504         19.5004
   -678479.41446   -485072.34442  21787416.5314                   21787417.1214
        41.7504         17.2504
     89457.102 5                  23905421.539
        30.000
   -256702.246 5                  23977848.281
        32.000
 19  3  1 19 57 10.0000000  0  5G07G09G30G23G27
   -419694.07846   -313695.65643  20677968.7894                   20677967.0394
        39.5004         21.0004
     98032.06347     58042.98443  21356121.2114                   21356119.9344
        42.5004         20.7504
   -698880.53546   -500969.31642  21783534.0004                   21783535.0784
        41.0004         16.7504
     99812.832 5                  23907392.063
        30.500
   -276387.801 5                  23974102.281
        31.750
 19  3  1 19 57 15.0000000  0  5G07G09G30G23G27
   -429604.23846   -321417.86343  20676083.1954                   20676080.9774
        40.0004         21.2504
    103976.38347     62674.91443  21357252.4534                   21357250.5634
        42.7504         20.7504
   -719272.84446   -516859.45742  21779653.7734                   21779654.4774
        41.2504         16.2504
    110171.984 5                  23909366.766
        30.500
   -296062.340 5                  23970359.234
        31.500
 19  3  1 19 57 20.0000000  0  5G07G09G30G23G27
   -439502.12146   -329130.48843  20674199.8054                   20674197.9304
        39.5004         20.7504
    109929.94947     67314.08643  21358385.1024                   21358384.1254
        43.0004         19.0004
   -739656.53946   -532742.87942  21775775.4924                   21775775.7424
        41.2504         16.2504
    120534.441 5                  23911340.203
        32.000
   -315726.309 5                  23966617.203
        30.250
 19  3  1 19 57 25.0000000  0  5G07G09G30G23G27
   -449388.13346   -336833.89843  20672317.8914                   20672316.4654
        39.0004         21.5004
    115892.40647     71960.14843  21359519.5084                   21359518.3284
        42.5004         19.7504
   -760031.94946   -548619.75042  21771897.5944                   21771898.5514
        40.7504         16.7504
    130899.820 5                  23913312.070
        33.000
   -335379.805 4                  23962877.633
        28.250
 19  3  1 19 57 30.0000000  0  4G07G09G30G23
   -459262.34446   -344528.10943  20670439.7034                   20670437.7304
        39.2504         21.5004
    121863.64547     76613.01643  21360655.6804                   21360654.5274
        42.5004         19.2504
   -780399.25846   -564490.38742  21768022.0864                   21768022.3594
        40.7504         16.2504
    141267.941 5                  23915283.352
        34.000
 19  3  1 19 57 35.0000000  0  4G07G09G30G23
   -469124.50846   -352212.88743  20668563.2194                   20668560.7974
        38.7504         21.2504
    127843.84047     81272.94143  21361793.8284                   21361793.0864
        42.0004         18.2504
   -800758.18446   -580354.50042  21764147.1024                   21764148.3484
        40.5004         16.7504
    151639.051 5                  23917253.859
        35.500
 19  3  1 19 57 40.0000000  0  4G07G09G30G23
   -478974.99646   -359888.59443  20666687.4614                   20666686.4064
        39.7504         21.2504
    133832.70347     85939.59443  21362933.4694                   21362932.0354
        43.2504         18.5004
   -821109.05946   -596212.32842  21760274.6724                   21760275.5044
        41.0004         17.2504
    162012.875 6                  23919225.398
        36.750
 19  3  1 19 57 45.0000000  0  4G07G09G30G23
   -488813.69146   -367555.09843  20664815.7584                   20664814.3164
        39.0004         21.5004
    139830.29746     90613.04343  21364074.6884                   21364073.6214
        41.7504         19.7504
   -841451.75046   -612063.75042  21756404.6804                   21756404.6214
        41.0004         17.7504
    172389.324 6                  23921198.219
        37.750
 19  3  1 19 57 50.0000000  0  4G07G09G30G23
   -498640.66046   -375212.49243  20662946.2344                   20662944.3914
        39.0004         21.5004
    145836.55547     95293.22343  21365217.8834                   21365216.6134
        42.2504         19.5004
   -861786.38346   -627908.93442  21752534.3834                   21752535.6454
        40.7504         17.2504
    182768.461 6                  23923173.922
        38.000
 19  3  1 19 57 55.0000000  0  4G07G09G30G23
   -508456.01646   -382860.82043  20661078.0084                   20661076.0274
        39.0004         21.7504
    151851.38746     99980.10943  21366362.5784                   21366361.4384
        41.7504         19.2504
   -882112.98846   -643747.85942  21748666.5004                   21748667.6484
        41.0004         16.7504
    193150.137 6                  23925150.555
        38.250
 19  3  1 19 58  0.0000000  0  4G07G09G30G23
   -518259.87146   -390500.18443  20659212.4384                   20659210.6884
        39.0004         20.7504
    157874.56646    104673.50443  21367508.5944                   21367507.4694
        41.5004         19.5004
   -902431.77746   -659580.66042  21744799.3594                   21744801.4804
        41.0004         17.7504
    203534.188 6                  23927126.445
        38.500
 19  3  1 19 58  5.0000000  0  4G07G09G30G23
   -528052.13746   -398130.49243  20657349.5084                   20657347.0004
        39.5004         20.7504
    163906.32846    109373.57043  21368656.0704                   21368655.4844
        41.2504         19.5004
   -922742.46546   -675407.17242  21740934.9064                   21740936.2974
        41.7504         17.7504
    213920.844 6                  23929102.992
        37.250
 19  3  1 19 58 10.0000000  0  4G07G09G30G23
   -537832.80546   -405751.81643  20655487.8754                   20655485.4574
        39.5004         21.2504
    169946.57446    114080.26643  21369806.1884                   21369804.9494
        40.5004         19.5004
   -943045.21546   -691227.51642  21737071.6334                   21737073.1174
        41.2504         17.2504
    224309.961 6                  23931081.578
        37.000
 19  3  1 19 58 15.0000000  0  4G07G09G30G23
   -547602.00846   -413364.13743  20653629.3054                   20653626.5394
        40.2504         20.7504
    175995.22746    118793.49243  21370956.6484                   21370956.0004
        40.2504         19.2504
   -963340.06646   -707041.66043  21733209.0634                   21733211.3204
        41.2504         18.5004
    234701.500 6                  23933059.625
        36.500
 19  3  1 19 58 20.0000000  0  4G07G09G30G23
   -557359.43746   -420967.35543  20651771.3914                   20651769.8014
        40.5004         20.2504
    182052.51246    123513.46143  21372109.5394                   21372108.6954
        40.5004         19.2504
   -983626.75446   -722849.44943  21729349.0164                   21729350.4614
        41.5004         19.2504
    245095.621 6                  23935039.625
        36.250
 19  3  1 19 58 25.0000000  0  4G07G09G30G23
   -567105.03546   -428561.31643  20649918.0164                   20649915.0944
        40.2504         21.0004
    188118.48446    128240.17243  21373264.0234                   21373263.1604
        40.0004         18.5004
  -1003905.19946   -738650.85243  21725490.0394                   21725491.6134
        40.7504         18.2504
    255492.426 5                  23937020.266
        35.500
 19  3  1 19 58 30.0000000  0  4G07G09G30G23
   -576838.75846   -436146.05943  20648065.3054                   20648063.1884
        41.2504         21.5004
    194193.14146    132973.68042  21374419.4694                   21374419.0434
        40.5004         17.7504
  -1024175.36746   -754445.77042  21721632.5234                   21721634.5664
        40.7504         17.7504
    265892.086 5                  23938994.953
        34.250
 19  3  1 19 58 35.0000000  0  4G07G09G30G23
   -586560.64546   -443721.60943  20646214.7424                   20646213.5044
        40.5004         21.0004
    200276.50446    137713.92243  21375577.1024                   21375576.7974
        40.5004         18.5004
  -1044437.28946   -770234.27742  21717776.9304                   21717778.8324
        40.5004         17.7504
    276294.438 5                  23940970.242
        35.750
 19  3  1 19 58 40.0000000  0  4G07G09G30G23
   -596270.56246   -451287.73043  20644367.7424                   20644365.8094
        40.2504         21.0004
    206368.70346    142461.10243  21376736.9224                   21376735.6484
        41.5004         19.0004
  -1064690.81646   -786016.25042  21713922.7814                   21713924.9924
        40.7504         17.2504
    286699.535 6                  23942948.719
        37.750
 19  3  1 19 58 45.0000000  0  4G07G09G30G23
   -605968.44546   -458844.53543  20642522.0864                   20642519.9774
        41.0004         21.0004
    212469.69547    147215.13343  21377897.4454                   21377896.7274
        42.0004         18.5004
  -1084935.88746   -801791.62942  21710069.8134                   21710071.7734
        40.5004         16.7504
    297107.430 6                  23944929.938
        39.000
 19  3  1 19 58 50.0000000  0  4G07G09G30G23
   -615654.63346   -466392.18743  20640678.7194                   20640676.8754
        41.5004         21.5004
    218579.20346    151975.80143  21379060.3134                   21379059.1804
        40.5004         18.5004
  -1105172.90646   -817560.73442  21706219.8054                   21706221.0084
        40.2504         16.7504
    307517.762 6                  23946910.656
        40.000
 19  3  1 19 58 55.0000000  0  4G07G09G30G23
   -625329.23046   -473930.89543  20638837.3204                   20638835.4344
        41.0004         21.5004
    224697.22746    156743.10243  21380224.0084                   21380223.5204
        40.7504         19.0004
  -1125401.77346   -833323.50042  21702369.6094                   21702371.6254
        40.2504         16.2504
    317930.617 6                  23948892.367
        40.000
 19  3  1 19 59  0.0000000  0  4G07G09G30G23
   -634991.96146   -481460.30143  20636999.1254                   20636996.9104
        40.5004         21.7504
    230823.85546    161517.10543  21381390.5474                   21381388.9144
        41.0004         18.2504
  -1145622.28946   -849079.79342  21698521.6334                   21698523.4774
        39.5004         15.5004
    328346.164 6                  23950875.703
        38.250
 19  3  1 19 59  5.0000000  0  4G07G09G30G23
   -644642.71546   -488980.32843  20635163.1094                   20635160.7664
        40.2504         21.5004
    236959.33246    166297.97343  21382557.1414                   21382556.3834
        39.5004         19.0004
  -1165834.39546   -864829.41042  21694675.2974                   21694677.0784
        39.0004         15.5004
    338764.406 6                  23952857.406
        38.000
