     2.11           OBSERVATION DATA    G (GPS)             RINEX VERSION / TYPE
teqc  2019Feb25     Martin Truffer      20190308 01:05:01UTCPGM / RUN BY / DATE
Linux 2.6.32-573.12.1.x86_64|x86_64|gcc|Linux 64|=+         COMMENT
BIT 2 OF LLI FLAGS DATA COLLECTED UNDER A/S CONDITION       COMMENT
51890643                                                    MARKER NAME
5189                                                        MARKER NUMBER
-Unknown-           -Unknown-                               OBSERVER / AGENCY
0220315189          TRIMBLE 5700        2.30                REC # / TYPE / VERS
-Unknown-           TRM41249.00     NONE                    ANT # / TYPE
 -1795451.0999 -3484563.4254  5017299.5661                  APPROX POSITION XYZ
        0.0530        0.0000        0.0000                  ANTENNA: DELTA H/E/N
     1     1                                                WAVELENGTH FACT L1/2
     7    L1    L2    C1    P1    P2    S1    S2            # / TYPES OF OBSERV
    18                                                      LEAP SECONDS
 SNR is mapped to RINEX snr flag value [0-9]                COMMENT
  L1 & L2: min(max(int(snr_dBHz/6), 0), 9)                  COMMENT
  2019     3     5    22     2   10.0000000     GPS         TIME OF FIRST OBS
                                                            END OF HEADER
 19  3  5 22  2 10.0000000  0  3G07G30G08
    -16582.96956    -10041.41853  21327276.8594                   21327271.0474
        41.2504         21.7504
    -96062.37557    -63524.97756  20071249.5554                   20071244.4024
        46.7504         36.0004
     -5065.18016                  22285964.352
        38.250
 19  3  5 22  2 15.0000000  0  3G07G30G08
   1556783.03557   1215957.75054  21626677.8204                   21626674.2304
        44.0004         27.7504
   1468106.74258   1155308.35956  20368899.2114                   20368897.9024
        49.5004         39.0004
   1568303.83217                  22585366.391
        44.000
 19  3  5 22  2 20.0000000  0  3G07G30G08
   1554750.80547   1214374.29743  21626292.0164                   21626288.6994
        43.0004         22.7504
   1456876.55948   1146557.51646  20366762.2114                   20366761.9024
        50.0004         38.7504
   1566276.28547   1226391.18054  22584980.7734                   22584979.7194
        42.2504         28.0004
 19  3  5 22  2 25.0000000  0  3G07G30G08
   1552744.22346   1212810.71943  21625909.3674                   21625906.7974
        41.7504         22.7504
   1445674.93048   1137828.97746  20364631.2344                   20364629.0824
        49.2504         38.5004
   1564278.12546   1224834.16444  22584600.6804                   22584600.1684
        41.2504         26.2504
 19  3  5 22  2 30.0000000  0  3G07G30G08
   1550767.25447   1211270.22343  21625533.5314                   21625530.2274
        42.5004         22.0004
   1434505.71148   1129125.67646  20362505.4144                   20362504.2384
        48.0004         37.2504
   1562313.18846   1223303.03944  22584227.0164                   22584226.0864
        41.0004         26.0004
 19  3  5 22  2 35.0000000  0  3G07G30G08
   1548822.16047   1209754.54344  21625163.4774                   21625160.2384
        43.0004         25.2504
   1423371.22748   1120449.45746  20360386.9064                   20360385.4414
        49.7504         38.5004
   1560383.73447   1221799.57044  22583859.7664                   22583859.1214
        43.0004         27.2504
 19  3  5 22  2 40.0000000  0  3G07G30G08
   1546910.95347   1208265.29343  21624800.4924                   21624796.5904
        43.2504         22.0004
   1412273.53148   1111801.89846  20358274.8134                   20358273.2544
        50.2504         39.5004
   1558491.70347   1220325.24644  22583499.1334                   22583498.8204
        43.2504         27.0004
 19  3  5 22  2 45.0000000  0  7G07G11G13G27G28G30G08
   1545035.11746   1206803.60243  21624442.8134                   21624439.6024
        41.0004         22.5004
   1372829.84416                  23265393.445
        36.500
   1292085.03157   1040121.34855  21983377.6564                   21983374.7074
        44.2504         31.0004
   1612929.70755   1244543.41052  24893024.5004                   24893024.0664
        35.2504         17.2504
   1330670.98857   1066120.73455  20940131.5784                   20940128.2544
        46.0004         33.0004
   1401214.03948   1103184.11746  20356170.1884                   20356168.7544
        48.0004         38.5004
   1556638.67247   1218881.31644  22583146.6884                   22583146.4344
        42.5004         27.7504
 19  3  5 22  2 50.0000000  0  7G07G11G13G27G28G30G08
   1543196.35946   1205370.81343  21624092.3284                   21624089.4884
        41.0004         22.5004
   1347785.066 5                  23260628.133
        34.250
   1270002.94547   1022914.54345  21979175.1724                   21979172.1914
        45.0004         31.5004
   1617746.74245   1248296.85543  24893939.6564                   24893940.9184
        35.2504         18.5004
   1311651.50847   1051300.36745  20936512.9924                   20936507.9694
        46.0004         33.2504
   1390194.43047   1094597.43446  20354072.7734                   20354070.5474
        47.7504         37.5004
   1554826.37146   1217469.17244  22582801.2664                   22582801.1094
        41.7504         27.5004
 19  3  5 22  2 55.0000000  0  7G07G11G13G27G28G30G08
   1541395.18446   1203967.28143  21623750.2734                   21623746.4344
        41.5004         22.0004
   1322779.797 5                  23255869.508
        35.750
   1247963.61347   1005741.01645  21974981.8204                   21974977.5204
        44.7504         31.2504
   1622597.88745   1252076.95743  24894863.9534                   24894863.5744
        35.5004         18.5004
   1292670.15647   1036509.69545  20932900.6254                   20932896.3874
        45.7504         32.5004
   1379215.29347   1086042.24246  20351983.8204                   20351981.6334
        47.7504         37.2504
   1553055.23046   1216089.03944  22582465.1024                   22582464.1604
        41.2504         26.7504
 19  3  5 22  3  0.0000000  0  7G07G11G13G27G28G30G08
   1539632.58247   1202593.84043  21623414.4694                   21623411.0824
        44.2504         22.2504
   1297815.094 5                  23251117.695
        35.000
   1225967.98047    988601.57045  21970796.1804                   21970792.3054
        45.5004         31.5004
   1627484.08645   1255884.45743  24895792.3204                   24895794.0204
        34.2504         18.2504
   1273727.87547   1021749.51645  20929296.1804                   20929291.7154
        47.0004         32.5004
   1368277.55148   1077519.32846  20349902.1484                   20349900.6804
        49.2504         38.0004
   1551326.18447   1214741.72744  22582135.7974                   22582134.9184
        43.7504         29.2504
 19  3  5 22  3  5.0000000  0  7G07G11G13G27G28G30G08
   1537908.60247   1201250.48044  21623086.8754                   21623082.8094
        43.5004         24.5004
   1272890.754 5                  23246374.922
        34.250
   1204016.21147    971496.29345  21966618.4384                   21966615.1454
        45.0004         31.7504
   1632405.53145   1259719.34042  24896729.5314                   24896730.5004
        32.5004         17.2504
   1254824.79747   1007019.84045  20925698.9844                   20925694.1884
        47.0004         32.5004
   1357381.40248   1069028.82846  20347828.7974                   20347826.9494
        49.0004         37.2504
   1549639.39547   1213427.32444  22581815.0474                   22581813.8014
        43.2504         29.0004
 19  3  5 22  3 10.0000000  0  7G07G11G13G27G28G30G08
   1536223.99247   1199937.79744  21622766.4694                   21622762.3524
        43.2504         24.2504
   1248007.629 5                  23241641.266
        33.750
   1182108.94547    954425.69545  21962450.3054                   21962446.0864
        45.2504         32.0004
   1637362.848 5                  24897672.359
        31.750
   1235961.60947    992321.24645  20922109.4774                   20922104.7894
        47.5004         32.5004
   1346527.44948   1060571.21145  20345763.3364                   20345761.7504
        49.0004         35.7504
   1547995.42647   1212146.31644  22581501.5704                   22581500.7974
        43.0004         28.0004
 19  3  5 22  3 15.0000000  0  7G07G11G13G27G28G30G08
   1534578.63347   1198655.68043  21622453.4454                   21622448.9144
        42.7504         22.7504
   1223165.484 5                  23236912.398
        33.750
   1160246.09447    937389.74245  21958289.6954                   21958286.1684
        45.0004         31.2504
   1642355.848 5                  24898622.852
        33.000
   1217138.12947    977653.59045  20918526.9924                   20918522.7624
        46.0004         32.2504
   1335715.66048   1052146.41446  20343705.7734                   20343704.1844
        49.2504         37.7504
   1546394.32047   1210898.69944  22581196.8134                   22581196.5274
        42.0004         25.5004
 19  3  5 22  3 20.0000000  0  7G07G11G13G27G28G30G08
   1532972.96146   1197404.55143  21622147.4224                   21622143.3524
        41.5004         21.5004
   1198364.961 5                  23232193.820
        34.000
   1138428.15647    920388.76245  21954137.8284                   21954134.1254
        45.0004         33.0004
   1647384.99246   1263617.62153  24899581.2504                   24899578.5474
        36.0004         18.5004
   1198354.95347    963017.36745  20914953.2584                   20914948.3094
        45.5004         31.7504
   1324946.46548   1043754.85546  20341656.8134                   20341655.0984
        48.0004         38.2504
   1544836.60946   1209684.91044  22580900.5474                   22580899.6684
        41.7504         26.7504
 19  3  5 22  3 25.0000000  0  7G07G11G13G27G28G30G08
   1531406.78546   1196184.15243  21621848.6094                   21621845.3554
        40.2504         21.0004
   1173606.008 5                  23227481.945
        34.000
   1116654.90247    903422.57445  21949994.4144                   21949991.0634
        44.7504         32.2504
   1652450.16445   1267564.49243  24900543.6644                   24900542.5234
        35.0004         19.0004
   1179611.74247    948412.26645  20911386.8984                   20911382.1804
        45.7504         31.5004
   1314219.58247   1035396.24246  20339615.3284                   20339613.8484
        47.0004         37.7504
   1543321.87146   1208504.59444  22580612.7274                   22580611.4804
        40.7504         26.5004
 19  3  5 22  3 30.0000000  0  7G07G11G13G27G28G30G08
   1529880.06346   1194994.50043  21621559.5234                   21621555.0864
        40.5004         20.5004
   1148888.480 5                  23222778.117
        34.750
   1094926.34047    886491.22345  21945860.1254                   21945855.8594
        44.7504         31.0004
   1657551.24646   1271539.36342  24901515.4844                   24901513.2934
        36.0004         17.7504
   1160908.50847    933838.32045  20907827.6644                   20907822.8404
        45.2504         31.7504
   1303535.09447   1027070.66846  20337582.3284                   20337580.6524
        47.5004         37.5004
   1541850.09446   1207357.75044  22580332.6334                   22580331.3554
        40.7504         26.0004
 19  3  5 22  3 35.0000000  0  7G07G11G13G27G28G30G08
   1528393.19546   1193835.89143  21621275.8364                   21621271.9804
        41.0004         21.2504
   1124212.813 5                  23218082.383
        33.750
   1073242.93047    869595.06345  21941733.3834                   21941729.7704
        44.0004         30.0004
   1662688.76645   1275542.59043  24902492.4694                   24902491.3054
        35.5004         18.2504
   1142245.71947    919295.87145  20904275.5394                   20904271.3714
        45.2504         32.5004
   1292893.42247   1018778.46146  20335557.0084                   20335555.5394
        47.5004         36.5004
   1540421.85946   1206244.82844  22580060.7114                   22580059.6174
        41.5004         26.0004
 19  3  5 22  3 40.0000000  0  7G07G11G13G27G28G30G08
   1526946.10247   1192708.26243  21621000.1254                   21620997.3164
        42.5004         21.5004
   1099578.840 5                  23213395.484
        33.500
   1051604.43047    852733.88745  21937615.7814                   21937612.3244
        45.0004         31.0004
   1667862.30546   1279573.96542  24903476.6254                   24903476.0044
        36.0004         17.2504
   1123623.14847    904784.77345  20900731.8674                   20900728.1914
        47.0004         32.5004
   1282294.32448   1010519.41846  20333540.3754                   20333538.5904
        49.2504         37.0004
   1539036.71147   1205165.48844  22579796.9694                   22579796.0554
        42.5004         27.7504
 19  3  5 22  3 45.0000000  0  7G07G11G13G27G28G30G08
   1525538.33246   1191611.32443  21620732.5314                   21620728.7114
        41.7504         21.2504
   1074986.230 5                  23208714.867
        34.250
   1030010.55947    835907.52345  21933506.5634                   21933503.1174
        45.0004         30.7504
   1673071.69946   1283633.19142  24904468.8134                   24904467.5554
        36.0004         16.2504
   1105040.50047    890304.79745  20897195.6564                   20897191.7624
        46.5004         31.2504
   1271737.53148   1002293.35945  20331530.9304                   20331530.0904
        48.7504         35.5004
   1537694.41047   1204119.54344  22579541.5634                   22579541.1724
        42.0004         27.0004
 19  3  5 22  3 50.0000000  0  7G07G11G13G27G28G30G08
   1524169.57846   1190544.77743  21620471.6024                   21620468.3554
        41.0004         20.2504
   1050434.645 5                  23204042.500
        34.500
   1008460.93447    819115.61745  21929406.1024                   21929402.0904
        45.0004         30.2504
   1678316.49646   1287720.09042  24905466.4534                   24905465.5634
        36.5004         15.5004
   1086497.31647    875855.56645  20893667.2114                   20893662.7854
        46.2504         30.2504
   1261222.61747    994099.91045  20329530.0164                   20329528.9804
        47.7504         35.2504
   1536394.55947   1203106.66444  22579293.9924                   22579293.2664
        42.0004         26.2504
 19  3  5 22  3 55.0000000  0  7G07G11G13G27G28G30G08
   1522839.43846   1189508.28543  21620218.4924                   21620215.7194
        40.7504         20.2504
   1025923.664 5                  23199377.773
        33.500
    986955.17247    802357.88344  21925313.4774                   21925309.4734
        45.0004         29.7504
   1683596.27046   1291834.16842  24906470.2424                   24906470.2974
        36.0004         16.2504
   1067993.29347    861436.87144  20890145.7424                   20890142.0084
        45.7504         29.7504
   1250749.21148    985938.82845  20327537.2504                   20327536.1454
        48.0004         35.0004
   1535136.89146   1202126.67244  22579054.9774                   22579054.8244
        41.7504         25.2504
 19  3  5 22  4  0.0000000  0  7G07G11G13G27G28G30G08
   1521547.85546   1188501.87143  21619972.6644                   21619970.0904
        41.0004         20.0004
   1001453.344 5                  23194722.180
        33.250
    965493.32047    785634.36345  21921229.2034                   21921225.9144
        45.0004         30.5004
   1688911.09445   1295975.64542  24907482.1724                   24907482.0124
        35.2504         17.7504
   1049528.42647    847048.64845  20886632.4924                   20886628.6134
        45.7504         30.0004
   1240317.30947    977810.06645  20325551.7504                   20325550.7974
        47.7504         35.2504
   1533921.29747   1201179.44544  22578823.3914                   22578823.0314
        42.0004         26.2504
 19  3  5 22  4  5.0000000  0  7G07G11G13G27G28G30G08
   1520294.74646   1187525.39543  21619734.3914                   21619731.5394
        40.7504         19.7504
    977023.547 5                  23190072.391
        33.500
    944075.21947    768944.93445  21917153.8204                   21917150.2234
        45.2504         30.5004
   1694260.74245   1300144.12142  24908499.9924                   24908500.3634
        35.0004         17.2504
   1031102.56647    832690.84845  20883125.6094                   20883121.9264
        45.7504         30.2504
   1229926.81347    969713.57445  20323574.8284                   20323573.6724
        47.5004         35.2504
   1532747.62546   1200264.89144  22578600.1804                   22578599.6524
        41.7504         26.2504
 19  3  5 22  4 10.0000000  0  7G07G11G13G27G28G30G08
   1519079.87946   1186578.76643  21619502.7194                   21619500.2504
        40.2504         20.0004
    952634.109 5                  23185432.555
        33.000
    922700.68047    752289.44145  21913086.3984                   21913082.8634
        45.2504         31.0004
   1699645.00046   1304339.65642  24909525.2584                   24909525.0234
        36.2504         16.7504
   1012715.52347    818363.27345  20879626.6024                   20879623.1374
        46.0004         30.0004
   1219577.45748    961649.14145  20321605.2814                   20321604.5824
        48.2504         35.2504
   1531615.68046   1199382.85244  22578385.0784                   22578384.1024
        41.7504         27.0004
 19  3  5 22  4 15.0000000  0  7G07G11G13G27G28G30G08
   1517902.91846   1185661.60543  21619279.0554                   21619276.2934
        41.0004         19.7504
    928284.672 5                  23180797.773
        33.000
    901369.35547    735667.63345  21909027.0084                   21909023.4024
        45.2504         31.0004
   1705063.60545   1308561.91042  24910555.8444                   24910556.0864
        35.5004         16.2504
    994366.92247    804065.66445  20876135.5704                   20876131.4574
        45.5004         30.5004
   1209268.96148    953616.54345  20319643.6024                   20319642.5594
        48.0004         35.7504
   1530525.05547   1198533.00844  22578177.1334                   22578176.7774
        42.0004         26.2504
 19  3  5 22  4 20.0000000  0  7G07G11G13G27G28G30G08
   1516763.71546   1184773.93843  21619062.3594                   21619059.7234
        40.2504         19.0004
    903975.066 5                  23176170.383
        33.250
    880081.12547    719079.41045  21904976.0704                   21904972.3284
        44.7504         30.2504
   1710516.33245   1312810.79742  24911593.6094                   24911593.7114
        35.0004         16.7504
    976056.67247    789797.94145  20872650.9064                   20872647.3984
        45.5004         30.5004
   1199001.16847    945615.66845  20317689.7194                   20317688.6294
        47.7504         35.5004
   1529475.65246   1197715.28544  22577977.4224                   22577977.3204
        41.7504         25.7504
 19  3  5 22  4 25.0000000  0  7G07G11G13G27G28G30G08
   1515662.09046   1183915.50043  21618853.1484                   21618850.4144
        40.2504         18.5004
    879705.160 5                  23171554.656
        33.250
    858835.73447    702524.54345  21900932.7974                   21900929.3204
        44.7504         30.7504
   1716002.84845   1317085.99642  24912637.2504                   24912637.7304
        35.0004         15.5004
    957784.46147    775559.84845  20869174.6954                   20869170.1454
        45.5004         30.0004
   1188773.82447    937646.29745  20315743.6564                   20315742.6564
        47.5004         35.5004
   1528467.18046   1196929.44944  22577786.1174                   22577785.7034
        41.5004         26.2504
 19  3  5 22  4 30.0000000  0  7G07G11G13G27G28G30G08
   1514597.14846   1183085.68443  21618651.0004                   21618647.8204
        40.5004         20.0004
    855474.141 5                  23166942.297
        33.750
    837632.45747    686002.50445  21896898.2814                   21896894.6414
        44.7504         31.0004
   1721522.45745   1321387.01642  24913688.2974                   24913688.3364
        35.7504         16.7504
    939549.54747    761350.82045  20865703.5234                   20865700.3874
        45.7504         30.7504
   1178586.12548    929707.83245  20313804.9224                   20313804.1484
        48.0004         35.5004
   1527498.91846   1196174.95344  22577601.2424                   22577601.3014
        41.7504         26.0004
 19  3  5 22  4 35.0000000  0  7G07G11G13G27G28G30G08
   1513568.94946   1182284.48443  21618455.1414                   21618452.0904
        41.5004         19.0004
    831282.109 5                  23162339.078
        33.250
    816471.36747    669513.34445  21892871.2734                   21892867.7934
        45.0004         31.0004
   1727075.21545   1325713.85942  24914745.2734                   24914745.3914
        35.5004         16.7504
    921351.98047    747170.90245  20862241.1024                   20862237.1484
        45.5004         30.5004
   1168438.18447    921800.34445  20311874.1174                   20311873.2304
        47.7504         35.7504
   1526570.89546   1195451.81344  22577424.7814                   22577425.1484
        41.5004         26.7504
 19  3  5 22  4 40.0000000  0  7G07G11G13G27G28G30G08
   1512577.31346   1181511.78943  21618266.5394                   21618263.5164
        41.2504         18.5004
    807128.750 5                  23157743.281
        32.750
    795352.19147    653056.84045  21888852.4534                   21888848.8134
        45.0004         30.7504
   1732660.79745   1330066.23842  24915808.1024                   24915808.1054
        35.2504         16.7504
    903191.52047    733019.90645  20858785.5314                   20858781.2584
        45.7504         30.0004
   1158329.74247    913923.64545  20309950.4304                   20309949.4614
        47.5004         35.5004
   1525682.77346   1194759.76644  22577255.2274                   22577255.5554
        41.5004         24.5004
 19  3  5 22  4 45.0000000  0  7G07G11G13G27G28G30G08
   1511621.43446   1180766.94943  21618084.8204                   21618081.2974
        41.5004         19.0004
    783013.367 5                  23153154.008
        34.000
    774274.22747    636632.46544  21884841.3444                   21884837.8324
        44.5004         29.5004
   1738278.51645   1334443.64842  24916877.5314                   24916877.8794
        35.0004         16.7504
    885067.41047    718897.21545  20855336.2194                   20855332.1844
        45.2504         30.2504
   1148260.03147    906077.10945  20308034.0784                   20308033.0234
        47.0004         35.0004
   1524833.84446   1194098.27044  22577094.2034                   22577093.9064
        41.2504         24.5004
 19  3  5 22  4 50.0000000  0  7G07G11G13G27G28G30G08
   1510701.26246   1180049.90643  21617909.5084                   21617906.4304
        41.2504         20.0004
    758935.875 5                  23148572.438
        34.250
    753237.39547    620240.12545  21880838.3754                   21880834.6524
        44.7504         30.0004
   1743928.23045   1338846.10242  24917951.9304                   24917953.1024
        34.7504         15.5004
    866979.64547    704802.85945  20851894.4924                   20851890.3754
        45.5004         30.2504
   1138229.03947    898260.75845  20306125.4694                   20306124.3634
        47.2504         35.2504
   1524024.13346   1193467.31644  22576940.0394                   22576940.0274
        41.2504         26.5004
 19  3  5 22  4 55.0000000  0  7G07G11G13G27G28G30G08
   1509816.78946   1179360.70743  21617741.0004                   21617737.8714
        41.2504         19.2504
    734896.352 5                  23143998.000
        33.500
    732241.68447    603879.83245  21876842.7194                   21876839.2894
        45.0004         30.2504
   1749609.99645   1343273.39542  24919032.2974                   24919034.2424
        34.7504         13.7504
    848928.15647    690736.76244  20848459.9924                   20848455.4454
        46.0004         29.7504
   1128236.70747    890474.51245  20304223.8364                   20304222.8554
        47.0004         34.7504
   1523253.48846   1192866.81344  22576792.8754                   22576793.2664
        41.2504         25.5004
 19  3  5 22  5  0.0000000  0  7G07G11G13G27G28G30G08
   1508967.24646   1178698.72343  21617579.1724                   21617576.2814
        41.2504         19.2504
    710893.973 5                  23139430.430
        33.250
    711286.34847    587550.98844  21872855.2894                   21872851.7664
        44.7504         29.2504
   1755322.99645   1347725.10242  24920119.9304                   24920121.4844
        34.2504         15.5004
    830912.17247    676698.32445  20845031.3674                   20845027.0474
        45.7504         30.0004
   1118282.25847    882717.80545  20302329.4774                   20302328.4304
        47.5004         35.0004
   1522521.18846   1192296.18444  22576654.1174                   22576654.2584
        41.2504         26.0004
 19  3  5 22  5  5.0000000  0  7G07G11G13G27G28G30G08
   1508151.72346   1178063.25843  21617424.5554                   21617421.3954
        40.7504         19.5004
    686927.918 5                  23134869.734
        33.250
    690370.55547    571252.96944  21868875.4384                   21868871.5314
        44.5004         29.7504
   1761066.26645   1352200.32442  24921212.9384                   24921214.7774
        34.2504         16.2504
    812930.79347    662686.86345  20841609.5704                   20841605.3204
        45.5004         30.2504
   1108364.83247    874989.94145  20300442.4454                   20300441.4454
        47.0004         35.0004
   1521826.33646   1191754.73844  22576521.9454                   22576521.9734
        41.2504         26.5004
 19  3  5 22  5 10.0000000  0  7G07G11G13G27G28G30G08
   1507370.52746   1177454.50043  21617275.2974                   21617272.9454
        40.0004         19.0004
    662998.473 5                  23130315.781
        33.000
    669494.52347    554985.93445  21864902.6564                   21864898.9264
        44.5004         30.0004
   1766840.17245   1356699.50842  24922312.3284                   24922313.2344
        35.0004         16.7504
    794984.30147    648702.58245  20838194.2194                   20838190.6564
        45.7504         30.2504
   1098484.70747    867291.14545  20298562.2114                   20298561.1454
        47.5004         35.0004
   1521169.12546   1191242.62944  22576397.1024                   22576396.6454
        41.0004         26.5004
 19  3  5 22  5 15.0000000  0  7G07G11G13G27G28G30G08
   1506622.73046   1176871.84043  21617133.0314                   21617130.3484
        40.5004         19.2504
    639104.762 5                  23125769.086
        33.750
    648657.44547    538749.26245  21860937.8594                   21860934.1414
        44.7504         31.0004
   1772643.71145   1361221.72342  24923415.7424                   24923417.3634
        34.2504         16.2504
    777071.82447    634744.82045  20834785.4534                   20834781.9534
        45.5004         30.0004
   1088641.04747    859620.75845  20296689.0234                   20296687.8954
        47.5004         35.0004
   1520548.68446   1190759.16044  22576278.9534                   22576278.9774
        41.0004         26.0004
 19  3  5 22  5 20.0000000  0  7G07G11G13G27G28G30G08
   1505908.07046   1176314.95343  21616997.1024                   21616994.1564
        41.2504         19.2504
    615246.523 5                  23121229.297
        33.750
    627859.03547    522542.69945  21856979.7894                   21856976.0394
        45.0004         31.2504
   1778476.69545   1365766.86742  24924525.6884                   24924527.7894
        35.0004         16.2504
    759193.14147    620813.36345  20831383.2034                   20831379.4454
        46.0004         30.5004
   1078833.51248    851978.51645  20294823.0784                   20294821.6954
        48.0004         35.2504
   1519964.75446   1190304.12544  22576167.6724                   22576167.7854
        41.0004         25.5004
 19  3  5 22  5 25.0000000  0  7G07G11G13G27G28G30G08
   1505226.74647   1175784.00443  21616867.5084                   21616864.2734
        43.2504         20.0004
    591423.926 5                  23116695.813
        30.750
    607099.45347    506366.39144  21853029.2894                   21853025.5784
        45.5004         29.0004
   1784339.28145   1370335.16042  24925641.8834                   24925643.7624
        33.0004         16.2504
    741348.36747    606908.35545  20827987.4924                   20827983.6564
        46.5004         31.0004
   1069062.30148    844364.59845  20292963.1644                   20292962.0554
        49.5004         34.7504
   1519417.53147   1189877.72744  22576063.6094                   22576063.4414
        43.0004         27.0004
 19  3  5 22  5 30.0000000  0  7G07G11G13G27G28G30G08
   1504578.41847   1175278.84443  21616744.3364                   21616741.0664
        42.5004         20.5004
    567636.699 5                  23112168.078
        32.750
    586378.35247    490220.09044  21849086.1254                   21849082.7504
        45.0004         29.5004
   1790231.00845   1374926.03142  24926763.3524                   24926764.8014
        35.5004         15.5004
    723537.17647    593029.50445  20824598.3674                   20824594.1094
        47.2504         30.5004
   1059327.04348    836778.67645  20291111.0164                   20291109.8244
        49.2504         34.5004
   1518906.57447   1189479.58244  22575965.9064                   22575966.0634
        43.0004         26.7504
 19  3  5 22  5 35.0000000  0  7G07G11G13G27G28G30G08
   1503962.81647   1174799.14143  21616627.0634                   21616623.5004
        44.0004         20.5004
    543884.566 5                  23107648.430
        31.000
    565695.52347    474103.59844  21845150.2504                   21845146.3164
        46.5004         29.5004
   1796151.69545   1379539.58642  24927890.3284                   24927891.4964
        34.2504         15.5004
    705759.33648    579176.64545  20821214.7894                   20821211.2424
        48.2504         31.5004
   1049627.56648    829220.64545  20289265.1414                   20289263.5004
        50.0004         34.5004
   1518431.82047   1189109.63744  22575876.2194                   22575875.6884
        43.2504         27.0004
 19  3  5 22  5 40.0000000  0  7G07G11G13G27G28G30G08
   1503379.53147   1174344.63743  21616516.1484                   21616512.4184
        42.5004         19.7504
    520167.117 5                  23103136.195
        32.250
    545050.51647    458016.58645  21841221.9694                   21841218.3204
        44.5004         30.2504
   1802100.93045   1384175.39842  24929021.1024                   24929024.1454
        34.2504         14.7504
    688014.38747    565349.41445  20817838.5944                   20817834.1254
        47.5004         31.0004
   1039963.36748    821690.09045  20287426.0164                   20287425.0944
        48.2504         34.7504
   1517992.69147   1188767.45744  22575792.8364                   22575792.0984
        42.0004         26.7504
 19  3  5 22  5 45.0000000  0  7G07G11G13G27G28G30G08
   1502827.63347   1173914.60543  21616410.7274                   21616407.3754
        42.2504         19.2504
    496483.414 5                  23098628.031
        31.750
    524442.50847    441958.40245  21837300.4384                   21837296.8954
        44.5004         30.0004
   1808077.75045   1388832.61342  24930160.0704                   24930161.5084
        34.7504         14.7504
    670301.49247    551547.15245  20814467.4384                   20814463.6914
        46.5004         30.2504
   1030333.61748    814186.39545  20285593.5084                   20285592.5744
        48.5004         35.0004
   1517588.24247   1188452.29344  22575715.5554                   22575715.1024
        42.0004         27.0004
 19  3  5 22  5 50.0000000  0  7G07G11G13G27G28G30G08
   1502307.29347   1173509.11743  21616312.2504                   21616308.3874
        42.2504         19.7504
    472833.734 5                  23094129.664
        33.250
    503871.64847    425929.16445  21833385.5164                   21833382.4414
        45.0004         30.2504
   1814082.38745   1393511.55942  24931302.5164                   24931304.2304
        35.0004         14.7504
    652620.81347    537769.99645  20811103.0634                   20811099.4774
        46.5004         30.5004
   1020738.46948    806709.65245  20283767.3284                   20283766.0984
        48.0004         35.0004
   1517218.66447   1188164.30544  22575645.2734                   22575644.8834
        42.0004         26.7504
 19  3  5 22  5 55.0000000  0  7G07G11G13G27G28G30G08
   1501818.19546   1173127.98043  21616218.8134                   21616215.4184
        41.5004         19.5004
    449217.707 5                  23089634.859
        32.750
    483337.57447    409928.57444  21829478.4224                   21829474.7114
        44.5004         29.7504
   1820114.37545   1398211.73842  24932449.7974                   24932451.8524
        34.5004         16.7504
    634971.98447    524017.66845  20807745.1174                   20807740.9454
        46.7504         30.7504
   1011177.55947    799259.58645  20281948.4534                   20281947.2034
        47.5004         35.2504
   1516883.62946   1187903.24244  22575581.8524                   22575581.2074
        41.5004         27.2504
 19  3  5 22  6  0.0000000  0  7G07G11G13G27G28G30G08
   1501359.93047   1172770.89543  21616131.4844                   21616128.5474
        43.7504         19.0004
    425635.008 5                  23085147.672
        31.500
    462839.97747    393956.43045  21825577.1094                   21825574.0274
        46.2504         30.5004
   1826173.50445   1402933.25842  24933602.9924                   24933604.9144
        33.5004         16.2504
    617354.64547    510289.86745  20804392.4064                   20804388.5084
        47.5004         31.2504
   1001650.55148    791835.95345  20280135.4454                   20280134.3674
        48.5004         34.5004
   1516582.85947   1187668.86744  22575524.3444                   22575524.0314
        42.7504         27.0004
 19  3  5 22  6  5.0000000  0  7G07G11G13G27G28G30G08
   1500932.40647   1172437.74843  21616050.8834                   21616047.0394
        43.2504         19.2504
    402085.543 5                  23080664.906
        31.500
    442378.71547    378012.59045  21821684.1254                   21821680.6764
        45.5004         31.0004
   1832259.48445   1407675.52342  24934761.7584                   24934762.9144
        34.5004         16.2504
    599768.67647    496586.52745  20801045.6804                   20801041.9924
        47.0004         31.5004
    992157.35248    784438.65245  20278329.2114                   20278327.6334
        48.2504         35.5004
   1516316.14147   1187461.03944  22575473.7664                   22575473.0204
        42.5004         26.0004
 19  3  5 22  6 10.0000000  0  7G07G11G13G27G28G30G08
   1500534.69547   1172127.85943  21615974.5634                   21615971.1374
        44.5004         19.5004
    378568.484 5                  23076191.586
        34.000
    421952.83247    362096.30944  21817797.1414                   21817793.8244
        44.5004         28.5004
   1838371.34845   1412438.10242  24935923.3054                   24935925.8324
        30.5004         16.2504
    582213.03947    482906.82845  20797705.6884                   20797701.2624
        46.5004         30.7504
    982696.87948    777066.84045  20276528.4384                   20276527.3714
        48.7504         35.0004
   1516082.37547   1187278.90243  22575429.1414                   22575428.4144
        43.0004         22.7504
 19  3  5 22  6 15.0000000  0  7G07G11G13G27G28G30G08
   1500166.03547   1171840.59043  21615904.8834                   21615900.7344
        44.5004         19.2504
    355082.930 5                  23071722.016
        35.000
    401561.71147    346207.15244  21813916.5314                   21813913.1724
        45.2504         29.5004
   1844508.461 5                  24937090.773
        33.000
    564687.19147    469250.31345  20794369.6174                   20794365.8754
        47.0004         30.2504
    973268.59448    769720.14145  20274734.1954                   20274733.2344
        49.2504         35.0004
   1515881.04347   1187121.98444  22575390.5234                   22575390.0164
        42.2504         27.7504
 19  3  5 22  6 20.0000000  0  7G07G11G13G27G28G30G08
   1499825.92247   1171575.59043  21615839.9224                   21615836.6524
        44.5004         19.5004
    331628.309 5                  23067258.031
        34.500
    381204.80547    330344.64545  21810042.7194                   21810039.6484
        47.2504         30.2504
   1850670.336 6                  24938264.398
        37.000
    547190.50848    455616.55544  20791040.8284                   20791036.5904
        48.7504         28.7504
    963871.91448    762398.05145  20272946.0004                   20272945.2304
        50.0004         35.5004
   1515711.49646   1186989.89144  22575358.6334                   22575358.2734
        40.7504         24.0004
 19  3  5 22  6 25.0000000  0  7G07G11G13G27G28G30G08
   1499514.13747   1171332.60943  21615780.0234                   21615777.0864
        42.2504         19.2504
                                  23062799.484
        26.250
    360881.94147    314508.62544  21806175.4224                   21806172.1174
        44.7504         29.5004
   1856856.672 5                  24939441.734
        35.000
    529722.84847    442005.36345  20787716.1884                   20787712.0314
        46.2504         30.2504
    954506.69547    755100.48445  20271163.8284                   20271162.6454
        47.5004         34.5004
   1515573.61346   1186882.46544  22575331.8754                   22575332.0354
        41.5004         25.5004
 19  3  5 22  6 30.0000000  0  6G07G13G27G28G30G08
   1499230.66847   1171111.73043  21615726.2814                   21615722.8204
        43.7504         19.2504
    340593.03147    298699.08245  21802314.7664                   21802311.4534
        46.0004         31.0004
   1863067.438 5                  24940623.094
        32.500
    512284.12148    428416.75445  20784398.5234                   20784393.4304
        48.2504         30.5004
    945172.78948    747827.29345  20269387.8444                   20269386.5394
        49.2504         35.7504
   1515467.20347   1186799.52044  22575312.0474                   22575311.6914
        42.5004         26.7504
 19  3  5 22  6 35.0000000  0  6G07G13G27G28G30G08
   1498974.68047   1170912.25843  21615677.4454                   21615674.1644
        43.2504         19.2504
    320337.22347    282915.35945  21798460.2664                   21798456.7854
        46.0004         30.5004
   1869301.840 5                  24941809.578
        32.750
    494873.52347    414850.06644  20781084.5314                   20781080.4024
        46.5004         29.7504
    935869.47348    740577.96545  20267617.6484                   20267616.3554
        48.2504         35.0004
   1515391.54747   1186740.58644  22575297.6724                   22575297.3714
        42.2504         25.5004
 19  3  5 22  6 40.0000000  0  6G07G13G27G28G30G08
   1498746.63747   1170734.52743  21615634.7114                   21615631.2774
        43.0004         21.2504
    300114.96547    267157.75845  21794611.9224                   21794608.3284
        45.2504         30.2504
   1875560.176 5                  24943000.242
        34.500
    477491.50447    401305.62545  20777777.1024                   20777773.1764
        46.7504         30.0004
    926597.10548    733352.73445  20265853.2734                   20265851.9884
        48.5004         35.2504
   1515347.09447   1186705.93444  22575289.4534                   22575288.8054
        42.2504         25.0004
 19  3  5 22  6 45.0000000  0  6G07G13G27G28G30G08
   1498545.78947   1170578.02743  21615595.8444                   21615592.7344
        42.5004         19.7504
    279925.69147    251425.84445  21790770.0234                   21790766.9344
        45.0004         30.0004
   1881841.891 5                  24944195.297
        31.500
    460137.35547    387782.91445  20774474.2344                   20774470.7074
        46.7504         31.2504
    917355.02347    726151.13745  20264094.1414                   20264093.6414
        47.5004         34.5004
   1515333.15647   1186695.06644  22575285.7894                   22575286.0904
        42.2504         28.0004
 19  3  5 22  6 50.0000000  0  6G07G13G27G28G30G08
   1498371.74646   1170442.44543  21615562.7894                   21615559.5044
        41.7504         19.7504
    259768.87947    235719.25044  21786934.2584                   21786930.9574
        44.7504         29.5004
   1888146.371 5                  24945395.367
        33.250
    442810.63347    374281.57444  20771177.3524                   20771173.2934
        46.0004         29.2504
    908142.78147    718972.74645  20262340.9774                   20262340.0164
        47.0004         34.0004
   1515349.16046   1186707.55543  22575289.6174                   22575289.1914
        41.0004         23.2504
 19  3  5 22  6 55.0000000  0  6G07G13G27G28G30G08
   1498224.35247   1170327.56342  21615535.1174                   21615532.0594
        42.5004         17.2504
    239644.52347    220037.98043  21783104.6414                   21783101.0944
        45.2504         22.5004
   1894473.703 5                  24946598.391
        34.500
    425511.25447    360801.58243  20767885.1254                   20767881.5554
        46.2504         22.7504
    898960.28547    711817.59844  20260593.9844                   20260593.1094
        47.5004         27.0004
   1515395.12147   1186743.36343  22575297.9224                   22575298.0274
        42.0004         20.7504
 19  3  5 22  7  0.0000000  0  6G07G13G27G28G30G08
   1498103.332 7                  21615512.102
        43.250
    219552.31647    204381.71543  21779281.5474                   21779277.8204
        45.7504         22.0004
   1900823.422 5                  24947808.484
        35.000
    408238.91847    347342.60544  20764599.1724                   20764594.4304
        47.0004         25.0004
    889807.28948    704685.38744  20258851.9694                   20258851.0984
        48.0004         27.7504
   1515470.64547   1186802.23043  22575313.1484                   22575311.9654
        42.5004         19.5004
 19  3  5 22  7  5.0000000  0  6G07G13G27G28G30G08
   1498008.418 7                  21615493.984
        42.250
    199492.08647    188750.35543  21775463.8984                   21775460.5004
        45.0004         22.7504
   1907195.434 5                  24949019.477
        30.250
    390993.49647    333904.63344  20761316.7814                   20761313.2344
        46.2504         24.5004
    880683.57047    697575.98844  20257115.9224                   20257114.9774
        47.2504         27.5004
   1515575.65246   1186884.04343  22575332.5864                   22575332.2664
        41.5004         19.5004
 19  3  5 22  7 10.0000000  0  7G07G11G13G27G28G30G08
   1497939.684 7                  21615480.680
        42.000
   1548545.00414                  23022942.195
        28.000
    179463.63747    173143.77043  21771652.5474                   21771648.7854
        46.0004         22.0004
   1913589.539 6                  24950238.375
        36.750
    373774.74647    320487.43444  20758040.0314                   20758036.0784
        47.0004         25.2504
    871588.93447    690489.26644  20255385.2344                   20255384.0204
        47.5004         25.5004
   1515709.83646   1186988.59843  22575358.1564                   22575358.0004
        41.5004         19.0004
 19  3  5 22  7 15.0000000  0  7G07G11G13G27G28G30G08
   1497896.42217                  21615472.859
        43.000
   1525412.95315                  23018539.742
        31.500
    159466.59047    157561.66043  21767847.5864                   21767843.6954
        46.7504         21.7504
   1920005.238 5                  24951458.344
        35.500
    356582.28547    307090.69144  20754769.6414                   20754764.9694
        47.5004         25.5004
    862523.03148    683424.93044  20253660.3284                   20253658.7504
        49.7504         27.5004
   1515872.73447   1187115.54743  22575389.4534                   22575388.9574
        42.7504         19.0004
 19  3  5 22  7 20.0000000  0  7G07G11G13G27G28G30G08
   1497878.969 6                  21615469.898
        38.250
   1502312.871 5                  23014146.055
        31.250
    139501.20747    142004.21143  21764048.4774                   21764044.2664
        45.0004         22.5004
   1926442.758 6                  24952682.727
        36.500
    339416.42647    293714.70744  20751501.9924                   20751498.4064
        46.2504         26.2504
    853486.09447    676383.14544  20251940.7584                   20251939.3874
        46.5004         26.2504
   1516064.57846   1187265.02743  22575425.7974                   22575425.2464
        39.7504         18.2504
 19  3  5 22  7 25.0000000  0  6G07G13G27G28G30G08
   1497886.637 6                  21615471.258
        41.000
    119566.70747    126470.80944  21760255.2504                   21760251.5824
        47.0004         26.7504
   1932901.500 6                  24953913.086
        38.750
    322276.31347    280358.75444  20748240.6804                   20748238.4494
        46.5004         29.7504
    844477.29748    669363.31345  20250226.6954                   20250226.5784
        48.2504         31.0004
   1516284.74646   1187436.64843  22575468.0474                   22575467.5594
        41.0004         20.0004
 19  3  5 22  7 30.0000000  0  6G07G13G27G28G30G08
   1497919.930 6                  21615477.117
        37.500
     99663.49647    110961.85544  21756466.8524                   21756464.6884
        45.0004         26.2504
   1939381.723 5                  24955145.883
        35.000
    305162.27347    267023.16444  20744983.8594                   20744980.9804
        44.7504         28.0004
    835497.03147    662365.73044  20248517.2114                   20248517.3634
        45.5004         28.2504
   1516533.64546   1187630.55943  22575514.1414                   22575514.9104
        40.2504         20.7504
 19  3  5 22  7 35.0000000  0  6G07G13G27G28G30G08
   1497977.691 6                  21615488.141
        40.250
     79790.80547     95476.63743  21752685.5164                   21752682.3444
        43.5004         22.0004
                                  24956382.039
        33.750
    288073.63347    253707.33244  20741731.9844                   20741728.5164
        44.0004         25.2504
    826544.64547    655389.81344  20246813.5234                   20246812.9384
        44.2504         25.2504
   1516810.199 6                  22575567.453
        36.500
 19  3  5 22  7 40.0000000  0  6G07G13G27G28G30G08
   1498055.97317                  21615503.719
        45.500
     59947.71547     80014.47343  21748909.6334                   21748906.4884
        44.5004         22.7504
   1952403.129 6                  24957622.805
        37.500
    271009.49247    240410.60544  20738485.1644                   20738481.1094
        44.5004         25.7504
    817619.16847    648434.90244  20245115.1954                   20245114.2194
        46.2504         28.7504
   1517113.78946   1187803.66053  22575625.4144                   22575623.6644
        37.7504         21.7504
 19  3  5 22  7 45.0000000  0  6G07G13G27G28G30G08
   1498162.02347   1170328.32853  21615523.6724                   21615524.4734
        42.0004         21.0004
     40135.00047     64575.98043  21745139.5554                   21745135.8134
        44.0004         22.7504
   1958944.180 6                  24958868.703
        37.000
    253970.43047    227133.41044  20735242.0554                   20735238.2154
        44.7504         26.0004
    808721.26647    641501.47344  20243421.9694                   20243421.3674
        45.0004         28.2504
   1517444.95746   1188061.67243  22575688.0084                   22575686.9534
        40.5004         20.0004
 19  3  5 22  7 50.0000000  0  7G07G11G13G27G28G30G08
   1498292.59447   1170430.07443  21615548.5474                   21615548.4064
        44.5004         19.7504
   1554319.20716                  22987877.656
        40.500
     20352.69947     49161.21943  21741374.5474                   21741371.4104
        43.7504         22.5004
   1965505.703 6                  24960116.617
        37.250
    236956.64547    213875.91444  20732004.6724                   20732001.1484
        45.7504         25.5004
    799851.05147    634589.62144  20241734.0234                   20241732.9384
        45.5004         27.7504
   1517803.77346   1188341.29743  22575756.2034                   22575755.6884
        39.0004         19.2504
 19  3  5 22  7 55.0000000  0  7G07G11G13G27G28G30G08
   1498447.63347   1170550.88343  21615577.4064                   21615576.6214
        43.2504         21.5004
   1531410.836 6                  22983519.344
        40.500
       600.73447     33770.07443  21737616.5084                   21737612.5204
        44.0004         22.0004
   1972087.715 6                  24961369.469
        37.500
    219968.00847    200638.01244  20728771.8674                   20728767.8834
        45.0004         25.5004
    791008.40247    627699.24244  20240051.1484                   20240050.0474
        45.5004         28.2504
   1518190.15646   1188642.35943  22575830.0704                   22575828.9614
        39.5004         18.2504
 19  3  5 22  8  0.0000000  0  7G07G11G13G27G28G30G08
   1498627.01647   1170690.65643  21615611.8984                   21615610.1294
        43.2504         22.0004
   1508529.551 6                  22979164.875
        41.000
    -19121.08647     18402.41843  21733863.3674                   21733859.6994
        44.2504         22.5004
   1978689.898 6                  24962626.000
        36.250
    203004.37547    187419.60244  20725543.6024                   20725539.7814
        45.5004         25.5004
    782193.14547    620830.20744  20238373.8364                   20238372.8634
        46.0004         28.0004
   1518603.95746   1188964.78943  22575908.3284                   22575907.9844
        38.7504         18.5004
 19  3  5 22  8  5.0000000  0  7G07G11G13G27G28G30G08
   1498830.54347   1170849.24643  21615650.6804                   21615648.1484
        43.5004         22.5004
   1485675.363 6                  22974816.547
        41.000
    -38812.75447      3058.25043  21730116.3054                   21730112.5204
        44.5004         22.5004
   1985312.316 6                  24963886.430
        36.750
    186065.68847    174220.62143  20722320.6644                   20722316.5704
        45.2504         23.7504
    773405.30947    613982.54744  20236701.8444                   20236700.7974
        45.5004         28.5004
   1519045.12546   1189308.56343  22575992.6564                   22575992.0354
        39.2504         18.5004
 19  3  5 22  8 10.0000000  0  7G07G11G13G27G28G30G08
   1499058.27047   1171026.71143  21615694.5394                   21615691.4064
        43.0004         22.5004
   1462848.262 6                  22970472.680
        41.000
    -58474.34047    -12262.46543  21726374.8284                   21726370.7934
        43.7504         22.5004
   1991954.848 6                  24965149.945
        36.000
    169151.87547    161041.04344  20719101.8054                   20719098.0474
        45.5004         26.5004
    764644.78147    607156.15244  20235034.6804                   20235033.4064
        45.5004         28.7504
   1519513.60946   1189673.59843  22576081.4304                   22576081.4144
        38.7504         19.0004
 19  3  5 22  8 15.0000000  0  7G07G11G13G27G28G30G08
   1499309.89147   1171222.76643  21615742.2584                   21615738.7664
        43.0004         22.7504
   1440047.988 6                  22966133.859
        41.250
    -78106.05947    -27559.89143  21722638.6564                   21722635.1174
        43.7504         22.5004
   1998617.238 5                  24966417.516
        35.750
    152262.71147    147880.65244  20715887.7194                   20715884.0864
        45.0004         27.0004
    755911.35947    600350.89544  20233372.3054                   20233371.6954
        45.5004         28.7504
   1520009.12146   1190059.73043  22576176.1564                   22576175.7854
        39.5004         18.2504
 19  3  5 22  8 20.0000000  0  7G07G11G13G27G28G30G08
   1499585.02747   1171437.15243  21615794.9534                   21615791.2304
        43.2504         22.0004
   1417274.109 6                  22961800.031
        40.500
    -97708.30547    -42834.38343  21718908.9614                   21718905.3874
        43.7504         22.5004
   2005299.035 6                  24967688.836
        36.500
    135397.77047    134739.13744  20712679.3284                   20712674.7074
        46.0004         26.2504
    747204.60247    593566.39844  20231715.8204                   20231714.8594
        46.0004         29.0004
   1520531.19146   1190466.53142  22576275.4844                   22576275.1374
        39.0004         17.7504
 19  3  5 22  8 25.0000000  0  7G07G11G13G27G28G30G08
   1499883.74647   1171669.90643  21615851.3054                   21615847.8634
        43.5004         22.7504
   1394526.758 6                  22957471.156
        41.500
   -117280.97347    -58085.80143  21715183.9534                   21715180.4414
        43.7504         22.5004
   2012000.383 6                  24968964.742
        36.500
    118557.14547    121616.56344  20709473.8984                   20709470.1024
        45.7504         26.5004
    738524.61747    586802.77344  20230064.1884                   20230062.9144
        46.0004         28.2504
   1521079.94146   1190894.13342  22576379.5474                   22576379.7734
        38.7504         17.2504
 19  3  5 22  8 30.0000000  0  7G07G11G13G27G28G30G08
   1500205.68447   1171920.77043  21615912.5634                   21615909.0044
        43.5004         22.7504
   1371805.637 6                  22953147.203
        40.500
   -136824.45347    -73314.48843  21711465.0164                   21711461.8284
        43.7504         22.0004
   2018720.871 6                  24970243.820
        37.000
    101740.46947    108512.67644  20706274.3444                   20706269.9924
        45.7504         26.7504
    729871.00447    580059.70744  20228417.5394                   20228415.9734
        45.7504         29.5004
   1521654.98446   1191342.21542  22576489.8134                   22576488.9184
        39.5004         16.7504
 19  3  5 22  8 35.0000000  0  7G07G11G13G27G28G30G08
   1500550.98447   1172189.83643  21615978.2814                   21615974.8954
        42.5004         21.7504
   1349110.895 6                  22948829.023
        39.750
   -156338.52347    -88520.25443  21707751.5634                   21707747.9494
        43.7504         23.5004
   2025460.605 6                  24971526.188
        36.000
     84947.92247     95427.56344  20703078.1334                   20703074.6724
        45.7504         26.2504
    721244.00447    573337.37944  20226776.2114                   20226774.5514
        46.0004         28.2504
   1522256.58646   1191811.02042  22576604.0314                   22576603.3204
        39.0004         16.7504
 19  3  5 22  8 40.0000000  0  7G07G11G13G27G28G30G08
   1500919.05947   1172476.64143  21616048.2344                   21616044.3244
        42.5004         21.0004
   1326441.898 6                  22944514.461
        40.000
   -175823.80147   -103703.57443  21704043.0864                   21704040.2774
        43.5004         22.5004
   2032219.004 6                  24972811.625
        37.250
     68178.89147     82360.80144  20699887.6174                   20699883.7344
        46.0004         27.2504
    712642.93447    566635.23844  20225139.1804                   20225137.5594
        45.7504         29.0004
   1522883.93446   1192299.85242  22576723.1564                   22576722.8164
        39.0004         17.7504
 19  3  5 22  8 45.0000000  0  7G07G11G13G27G28G30G08
   1501309.30547   1172780.72343  21616122.8054                   21616119.0984
        43.7504         22.0004
   1303798.039 6                  22940206.383
        39.000
   -195279.79747   -118864.12943  21700340.3914                   21700338.0164
        43.0004         22.2504
   2038996.691 5                  24974100.656
        32.500
     51433.19547     69312.17644  20696700.3984                   20696696.8164
        46.0004         27.7504
    704067.57047    559953.10544  20223506.9384                   20223506.2154
        46.0004         29.2504
   1523537.45346   1192809.05142  22576847.1174                   22576847.4104
        39.5004         17.2504
 19  3  5 22  8 50.0000000  0  7G07G11G13G27G28G30G08
   1501722.50847   1173102.71143  21616201.2194                   21616197.9414
        44.2504         22.5004
   1281180.145 6                  22935901.781
        40.500
   -214707.98047   -134002.94143  21696644.1804                   21696640.9064
        43.2504         22.5004
   2045791.973 5                  24975393.406
        30.500
     34710.73047     56281.69944  20693518.6954                   20693515.3094
        46.2504         28.0004
    695517.96147    553291.07444  20221879.7274                   20221879.5634
        46.5004         29.0004
   1524216.03146   1193337.83242  22576976.8594                   22576976.4924
        39.2504         17.2504
 19  3  5 22  8 55.0000000  0  7G07G11G13G27G28G30G08
   1502157.82847   1173441.93043  21616283.5474                   21616281.2464
        43.7504         22.5004
   1258587.336 6                  22931602.133
        40.250
   -234107.96147   -149119.81244  21692952.4844                   21692949.3164
        43.0004         24.2504
   2052605.160 5                  24976689.422
        32.250
     18011.14147     43269.03544  20690340.7734                   20690337.4774
        45.7504         27.7504
    686993.64547    546648.75444  20220257.7114                   20220257.4414
        46.0004         29.0004
   1524919.71946   1193886.15642  22577110.3444                   22577110.1094
        39.5004         16.7504
 19  3  5 22  9  0.0000000  0  7G07G11G13G27G28G30G08
   1502616.22747   1173799.08643  21616370.7274                   21616368.0864
        43.2504         22.5004
   1236020.652 5                  22927309.102
        35.500
   -253478.82047   -164214.00443  21689265.4224                   21689263.3984
        43.0004         22.0004
   2059437.273 5                  24977990.016
        32.250
      1335.39147     30274.93444  20687166.6724                   20687164.0004
        47.0004         27.5004
    678495.61747    540026.91044  20218640.5554                   20218640.1604
        46.5004         28.5004
   1525649.46946   1194454.79342  22577250.0554                   22577249.4384
        38.5004         17.2504
 19  3  5 22  9  5.0000000  0  7G07G11G13G27G28G30G08
   1503097.55947   1174174.15643  21616462.6954                   21616459.7194
        43.2504         22.2504
   1213480.031 5                  22923018.617
        35.000
   -272820.68047   -179285.55943  21685585.2274                   21685583.0354
        43.5004         21.2504
   2066288.188 5                  24979294.680
        32.000
    -15316.66447     17299.30944  20683998.6254                   20683995.4104
        46.2504         27.2504
    670023.72347    533425.44944  20217028.3834                   20217027.8554
        46.0004         29.2504
   1526405.23046   1195043.71943  22577393.2194                   22577393.4384
        38.2504         18.2504
 19  3  5 22  9 10.0000000  0  7G07G11G13G27G28G30G08
   1503601.67647   1174566.98043  21616558.4534                   21616555.6054
        43.5004         22.0004
   1190965.293 6                  22918734.422
        37.000
   -292133.69547   -194334.66443  21681910.6414                   21681907.3594
        43.2504         22.2504
   2073157.680 5                  24980602.195
        31.500
    -31945.19947      4342.01644  20680834.7424                   20680830.8834
        46.0004         27.7504
    661577.80547    526844.20745  20215421.3754                   20215420.6644
        46.5004         30.2504
   1527186.76246   1195652.67642  22577541.8834                   22577541.6804
        39.0004         17.2504
 19  3  5 22  9 15.0000000  0  8G07G11G13G17G27G28G30G08
   1504119.44547   1174970.43843  21616657.2584                   21616653.5314
        44.2504         22.0004
   1168465.758 6                  22914453.195
        40.250
   -311410.95347   -209355.86743  21678242.5784                   21678239.0664
        43.7504         22.2504
   1254408.32416                  24148910.383
        40.500
   2080044.574 5                  24981912.180
        33.250
    -48549.25447     -8596.19144  20677675.3524                   20677671.2234
        47.0004         27.7504
    653154.68447    520280.75044  20213818.5164                   20213817.4224
        47.0004         29.5004
   1527989.93046   1196278.53142  22577695.4614                   22577694.7074
        39.5004         17.2504
 19  3  5 22  9 20.0000000  0  8G07G11G13G17G27G28G30G08
   1504654.77747   1175387.55144  21616759.2664                   21616755.2034
        45.5004         25.2504
   1145985.746 6                  22910174.945
        41.000
   -330654.56647   -224350.90243  21674580.3834                   21674576.2894
        43.0004         21.7504
   1224778.350 6                  24143271.250
        39.000
   2086946.953 6                  24983225.813
        36.500
    -65127.87147    -21514.60544  20674520.3914                   20674515.5124
        45.7504         26.5004
    644756.28547    513736.51645  20212220.5864                   20212219.1454
        46.7504         30.5004
   1528815.05546   1196921.46543  22577851.9534                   22577851.6214
        41.5004         18.2504
 19  3  5 22  9 25.0000000  0  8G07G11G13G17G27G28G30G08
   1505212.33247   1175821.99644  21616865.3364                   21616861.0514
        44.5004         27.0004
   1123530.977 6                  22905902.617
        41.250
   -349867.33247   -239321.96544  21670924.5864                   21670920.6024
        44.7504         28.7504
   1195165.320 6                  24137636.641
        37.250
   2093868.539 6                  24984543.164
        37.500
    -81681.84847    -34413.85545  20671369.7734                   20671365.5744
        45.5004         30.2504
    636384.18847    507212.78945  20210627.3674                   20210626.0864
        46.5004         32.7504
   1529665.96147   1197584.47743  22578013.3054                   22578013.1844
        42.0004         20.7504
 19  3  5 22  9 30.0000000  0  8G07G11G13G17G27G28G30G08
   1505790.07847   1176272.18844  21616974.9064                   21616971.4264
        44.2504         29.5004
   1101099.59046   1224810.19553  22901633.7194                   22901631.2854
        40.5004         20.0004
   -369051.32447   -254270.48444  21667273.3204                   21667270.0594
        43.0004         27.5004
   1165565.223 6                  24132003.797
        37.000
   2100808.551 5                  24985864.555
        34.750
    -98213.60547    -47295.72345  20668223.8054                   20668220.7074
        46.2504         31.2504
    628036.53147    500708.12545  20209038.8444                   20209038.1484
        46.5004         33.5004
   1530542.00846   1198267.12543  22578180.5704                   22578180.2704
        40.7504         22.7504
 19  3  5 22  9 35.0000000  0  8G07G11G13G17G27G28G30G08
   1506386.48847   1176736.91044  21617088.9844                   21617086.1174
        43.0004         28.2504
   1078690.20746   1207348.37143  22897370.0394                   22897367.5554
        39.0004         19.0004
   -388211.71547   -269200.69144  21663627.5474                   21663624.1484
        42.7504         28.5004
   1135978.359 6                  24126373.539
        40.000
   2107762.316 5                  24987187.414
        34.000
   -114726.69947    -60163.08245  20665082.2974                   20665078.6414
        46.5004         32.0004
    619709.99647    494219.91045  20207454.7584                   20207453.8134
        46.2504         34.0004
   1531438.86746   1198965.96543  22578351.6254                   22578351.4144
        39.2504         23.0004
 19  3  5 22  9 40.0000000  0  8G07G11G13G17G27G28G30G08
   1507002.78147   1177217.15644  21617206.9534                   21617202.3014
        45.2504         29.5004
   1056303.55946   1189904.19143  22893110.1094                   22893106.1954
        41.7504         19.0004
   -407343.85547   -284108.83244  21659988.0944                   21659983.8634
        44.2504         24.2504
   1106404.34446   1226677.10953  24120745.4144                   24120742.6764
        37.0004         21.7504
   2114732.605 6                  24988513.555
        36.750
   -131217.59447    -73013.11344  20661944.2734                   20661940.3524
        45.7504         29.7504
    611407.87947    487750.72345  20205875.3284                   20205873.0984
        46.5004         33.7504
   1532359.74247   1199683.52743  22578527.7034                   22578526.3484
        43.2504         22.2504
 19  3  5 22  9 45.0000000  0  8G07G11G13G17G27G28G30G08
   1507647.26647   1177719.32845  21617328.1644                   21617326.3634
        42.0004         31.2504
   1033949.43846   1172485.40643  22888854.6954                   22888852.9494
        37.5004         20.0004
   -426447.48047   -298994.77744  21656350.4614                   21656348.6644
        43.7504         28.5004
   1076849.72346   1203647.54343  24115121.6644                   24115119.5204
        39.5004         21.2504
   2121726.92646   1413008.42253  24989844.5084                   24989842.7894
        37.5004         21.0004
   -147684.09447    -85844.14545  20658810.4694                   20658806.9574
        46.0004         31.0004
    603134.57847    481304.00845  20204300.4924                   20204299.6374
        45.0004         34.0004
   1533311.69146   1200425.34043  22578707.1414                   22578707.9184
        39.0004         23.2504
 19  3  5 22  9 50.0000000  0  8G07G11G13G17G27G28G30G08
   1508306.44147   1178232.96944  21617452.6724                   21617451.3404
        43.5004         29.0004
   1011612.58246   1155080.03143  22884603.2504                   22884602.6604
        36.2504         18.2504
   -445522.24246   -313858.19943  21652721.1254                   21652718.2154
        41.5004         22.2504
   1047304.84046   1180625.58243  24109499.0164                   24109497.8714
        40.0004         21.5004
   2128735.92645   1418470.03943  24991178.5474                   24991177.1054
        30.2504         18.2504
   -164130.25447    -98659.32844  20655679.7814                   20655677.3984
        44.2504         29.7504
    594882.16447    474873.53545  20202728.9614                   20202728.9804
        45.0004         32.0004
   1534284.24246   1201183.14843  22578891.7504                   22578893.0434
        37.7504         21.5004
 19  3  5 22  9 55.0000000  0  8G07G11G13G17G27G28G30G08
   1508991.42246   1178766.69944  21617583.9924                   21617581.4694
        40.7504         24.5004
    989305.60245   1137698.07842  22880359.2274                   22880357.9804
        34.0004         16.7504
   -464575.05947   -328704.59443  21649096.3594                   21649093.4414
        43.5004         23.0004
   1017779.28946   1157618.62943  24103880.5234                   24103879.2504
        39.2504         20.0004
                                  24992513.7194                   24992514.3554
        28.7504         16.2504
   -180555.69147   -111458.41444  20652554.7584                   20652551.4884
        44.2504         28.2504
    586654.97347    468462.74245  20201164.1564                   20201163.3524
        44.2504         30.2504
   1535281.01646   1201959.81643  22579082.2734                   22579082.3834
        38.5004         20.2504
 19  3  5 22 10  0.0000000  0  8G07G11G13G17G27G28G30G08
   1509702.47347   1179320.74244  21617720.1094                   21617717.2344
        45.0004         29.7504
    967027.988 6                  22876121.930
        40.500
   -483599.10246   -343528.51243  21645475.5474                   21645472.9774
        40.7504         23.0004
    988274.61247   1134628.03343  24098266.7974                   24098265.3714
        43.0004         19.0004
   2142803.742 5                  24993855.375
        33.500
   -196956.32047   -124238.10944  20649433.9614                   20649430.5354
        45.2504         28.5004
    578455.50847    462073.53545  20199603.5234                   20199603.4494
        45.2504         31.7504
   1536304.75846   1202757.53943  22579277.2194                   22579277.7584
        38.7504         19.2504
 19  3  5 22 10  5.0000000  0  8G07G11G13G17G27G28G30G08
   1510446.19547   1179900.30544  21617860.5554                   21617857.8714
        44.0004         28.0004
    944785.87146   1121751.34453  22871887.8754                   22871883.8134
        39.7504         19.0004
   -502583.01247   -358321.16043  21641863.3134                   21641860.4414
        43.0004         23.7504
    958795.09446   1111656.98443  24092656.4064                   24092655.5984
        39.2504         20.0004
   2149875.30516                  24995200.359
        36.250
   -213322.25047   -136990.76244  20646319.3204                   20646316.0084
        44.2504         29.2504
    570293.14547    455713.28145  20198050.0704                   20198049.6724
        45.7504         31.5004
   1537364.54346   1203583.39843  22579478.2344                   22579478.5394
        39.7504         19.0004
 19  3  5 22 10 10.0000000  0  8G07G11G13G17G27G28G30G08
   1511218.52747   1180502.10544  21618007.8444                   21618005.7774
        43.0004         26.0004
    922576.29746   1104445.21142  22867661.5234                   22867657.5204
        36.0004         17.2504
   -521533.09046   -373087.43743  21638256.6724                   21638254.2274
        41.0004         22.5004
    929336.98047   1088702.62143  24087050.4144                   24087049.9534
        42.5004         19.2504
   2156973.266 5                  24996552.516
        30.500
   -229660.22747   -149721.66444  20643210.3674                   20643207.3284
        44.7504         27.7504
    562161.77347    449377.14144  20196503.0004                   20196502.5434
        44.7504         29.7504
   1538457.04346   1204434.64143  22579685.6954                   22579686.7274
        36.7504         19.5004
 19  3  5 22 10 15.0000000  0  8G07G11G13G17G27G28G30G08
   1512006.85947   1181116.39144  21618157.5864                   21618154.7974
        42.2504         25.2504
    900385.13746   1087153.33242  22863439.1954                   22863435.2274
        39.5004         15.5004
   -540452.02246   -387829.48744  21634656.2664                   21634654.0434
        41.5004         25.0004
    899891.41446   1065758.03143  24081447.4924                   24081446.8014
        39.2504         19.2504
   2164086.098 5                  24997905.141
        34.000
   -245975.38347   -162434.77744  20640105.2344                   20640102.1214
        44.7504         28.2504
    554053.12147    443058.71544  20194959.5704                   20194959.1604
        44.5004         29.0004
   1539570.51646   1205302.30543  22579897.8364                   22579899.0164
        39.0004         18.2504
 19  3  5 22 10 20.0000000  0  8G07G11G13G17G27G28G30G08
   1512821.43047   1181751.15244  21618312.0864                   21618309.9694
        43.0004         27.0004
    878223.91046   1069884.92642  22859221.2504                   22859218.3244
        38.5004         14.7504
   -559342.66046   -402549.43743  21631060.6804                   21631058.7664
        40.2504         22.7504
    870465.41046   1042828.72743  24075847.2274                   24075847.1804
        39.5004         19.5004
   2171218.691 5                  24999261.328
        32.750
   -262266.17647   -175128.85944  20637005.0234                   20637001.8054
        44.5004         28.0004
    545972.28947    436761.96945  20193421.5474                   20193421.2034
        44.7504         30.2504
   1540711.52746   1206191.45343  22580114.6024                   22580115.6134
        38.7504         19.2504
 19  3  5 22 10 25.0000000  0  8G07G11G13G17G27G28G30G08
   1513662.87147   1182406.79345  21618473.5164                   21618469.8794
        45.2504         30.2504
    856092.76246   1052639.87542  22855011.2734                   22855007.2034
        40.2504         17.2504
   -578202.39847   -417245.32443  21627473.4694                   21627470.1414
        42.2504         22.5004
    841060.76647   1019916.02743  24070252.5864                   24070251.1524
        42.2504         20.7504
   2178371.148 5                  25000623.508
        34.500
   -278530.12547   -187802.06644  20633911.0314                   20633906.6954
        45.2504         29.2504
    537920.94547    430488.19145  20191890.4064                   20191889.1484
        46.5004         32.0004
   1541880.52046   1207102.32843  22580338.6254                   22580337.9884
        41.5004         19.7504
 19  3  5 22 10 30.0000000  0  8G07G11G13G17G27G28G30G08
   1514526.07047   1183079.42644  21618637.7114                   21618635.0594
        42.5004         26.7504
    833986.41046   1035414.07042  22850804.2974                   22850800.4964
        38.5004         16.7504
   -597025.95747   -431913.05944  21623891.5164                   21623888.4304
        43.2504         25.0004
    811672.66446    997016.22343  24064659.9454                   24064658.6174
        38.5004         18.2504
   2185546.289 5                  25001988.594
        35.000
   -294766.62147   -200453.91044  20630821.1884                   20630817.7194
        45.2504         29.0004
    529897.62947    424236.26645  20190363.4844                   20190363.3554
        45.2504         30.5004
   1543077.73446   1208035.20343  22580565.9774                   22580565.8324
        39.7504         21.5004
 19  3  5 22 10 35.0000000  0  8G07G11G13G17G27G28G30G08
   1515411.57446   1183769.39144  21618805.3054                   21618803.4224
        41.0004         24.0004
    811906.02346   1018208.61742  22846601.1884                   22846599.3874
        37.7504         17.2504
   -615822.76946   -446559.92744  21620313.6254                   21620311.4024
        41.5004         25.0004
    782298.98446    974127.58642  24059070.0864                   24059069.8364
        38.5004         17.2504
   2192740.238 5                  25003357.633
        35.000
   -310981.63247   -213089.00044  20627734.8284                   20627731.6844
        43.7504         27.2504
    521899.07047    418003.59844  20188840.1564                   20188841.0354
        43.0004         28.2504
   1544300.84846   1208988.25443  22580798.1414                   22580798.7544
        37.5004         22.0004
 19  3  5 22 10 40.0000000  0  8G07G11G13G17G27G28G30G08
   1516319.15647   1184476.61744  21618979.0554                   21618975.5474
        43.5004         28.7504
    789851.14546   1001023.05542  22842405.0634                   22842402.1804
        38.7504         17.2504
   -634594.57446   -461187.32443  21616742.6024                   21616739.3754
        41.2504         22.7504
    752941.230 6                  24053484.000
        37.500
   2199948.47315                  25004730.227
        33.500
   -327175.35947   -225707.48044  20624654.5234                   20624649.7854
        44.7504         27.5004
    513924.96947    411790.00845  20187324.6094                   20187323.0704
        44.5004         30.0004
   1545546.80546   1209959.13343  22581036.0784                   22581035.5664
        38.5004         21.7504
 19  3  5 22 10 45.0000000  0  8G07G11G13G17G27G28G30G08
   1517244.78146   1185197.85944  21619153.8284                   21619151.4534
        41.0004         25.2504
    767818.00446    983854.35942  22838212.2974                   22838209.9574
        37.0004         15.5004
   -653341.38346   -475795.21543  21613174.1094                   21613171.7464
        40.7504         22.7504
    723595.344 6                  24047898.883
        37.500
   2207172.512 5                  25006103.383
        32.000
   -343350.47747   -238311.47344  20621575.3524                   20621571.8284
        43.5004         26.0004
    505971.98447    405592.89544  20185809.2584                   20185809.4144
        43.0004         28.2504
   1546814.76246   1210947.14843  22581276.5164                   22581276.8054
        36.2504         20.2504
 19  3  5 22 10 50.0000000  0  8G07G11G13G17G27G28G30G08
   1518186.13746   1185931.41244  21619332.8674                   21619330.7854
        41.2504         24.5004
    745803.83346    966700.45342  22834021.8284                   22834020.3134
        39.2504         15.5004
   -672062.13746   -490382.78543  21609611.1254                   21609608.8554
        40.5004         22.5004
    694259.906 6                  24042315.891
        38.750
   2214410.238 5                  25007480.633
        34.500
   -359506.55447   -250900.58944  20618500.8914                   20618497.5474
        44.0004         25.5004
    498039.46947    399411.72944  20184299.6804                   20184300.0044
        43.2504         27.5004
   1548102.86346   1211950.89143  22581520.8674                   22581521.8364
        37.2504         20.2504
 19  3  5 22 10 55.0000000  0  8G07G11G13G17G27G28G30G08
   1519150.08646   1186682.53543  21619516.8914                   21619514.5354
        37.5004         22.5004
    723815.88745    949566.94942  22829839.5084                   22829836.3794
        33.5004         15.5004
   -690757.23046   -504950.37943  21606054.5394                   21606052.0354
        41.2504         21.5004
    664939.918 5                  24036737.234
        31.000
                                  25008861.430
        31.000
   -375641.18047   -263473.02043  20615430.6954                   20615426.9494
        44.0004         22.7504
    490131.78946    393249.89844  20182795.4304                   20182795.0204
        41.2504         26.0004
   1549415.36746   1212973.64143  22581771.5084                   22581771.6414
        37.0004         18.5004
 19  3  5 22 11  0.0000000  0  8G07G11G13G17G27G28G30G08
   1520132.28146   1187447.83243  21619705.5164                   21619700.7424
        39.5004         22.0004
    701849.13745    932449.94152  22825658.7584                   22825656.2384
        34.5004         14.7504
   -709422.46946   -519494.76243  21602503.6724                   21602499.8324
        41.7504         22.7504
    635635.266 6                  24031161.703
        39.000
   2228933.465 5                  25010244.898
        31.000
   -391752.99647   -276027.72344  20612365.7974                   20612361.4804
        44.5004         25.5004
    482247.42647    387106.20744  20181296.6484                   20181295.1764
        42.2504         25.0004
   1550749.37945   1214013.05542  22582026.5554                   22582025.1994
        35.2504         17.7504
 19  3  5 22 11  5.0000000  0  7G07G11G13G17G28G30G08
                                  21619895.000
        39.750
                                  22821482.648
        34.250
                                  21598955.4924                   21598950.8554
        41.5004         22.2504
    606342.02056    956749.42653  24025586.8054                   24025582.3204
        37.7504         19.2504
   -407846.68557   -288568.09254  20609302.9304                   20609297.7384
        42.7504         26.0004
    474384.55957    380979.36954  20179800.2424                   20179798.5434
        43.0004         25.7504
   1552107.00056   1215071.27752  22582283.2814                   22582283.4884
        39.0004         16.7504
 19  3  5 22 11 10.0000000  0  8G07G11G13G17G27G28G30G08
   1522162.54746   1188110.42653  21620091.7734                   21620085.4454
        39.5004         20.7504
    657996.992 5                  22817315.148
        34.750
   -746688.05146   -548532.87543  21595411.5944                   21595407.0354
        41.2504         23.5004
    577068.62546    933938.97743  24020016.9924                   24020012.0864
        39.0004         18.2504
   2243517.57015                  25013021.477
        33.250
   -423921.12557   -301093.78554  20606244.5554                   20606237.9454
        44.2504         26.7504
    466548.28147    374873.12544  20178308.8524                   20178305.8594
        42.5004         27.0004
   1553489.96546   1216148.86742  22582548.5164                   22582546.4224
        37.7504         14.7504
 19  3  5 22 11 15.0000000  0  5G07G11G13G28G08
                                  21620291.0004                   21620285.7624
        43.5004         22.0004
                                  22813150.422
        38.250
                                  21591875.1334                   21591869.8014
        42.5004         22.0004
                                  20603190.5004                   20603185.8754
        45.0004         26.5004
                                  22582816.0004                   22582814.5354
        39.0004         18.2504
 19  3  5 22 11 20.0000000  0  8G07G11G13G17G27G28G30G08
   1524280.73447   1189760.93445  21620495.8444                   21620489.9104
        46.0004         30.2504
    614241.855 6                  22808989.359
        40.500
   -783827.64847   -577472.84843  21588345.9454                   21588339.7774
        42.2504         22.2504
    518573.19917                  24008886.227
        44.000
   2258176.91815                  25015811.789
        32.500
   -455989.05547   -326081.79344  20600143.7974                   20600136.3134
        45.5004         28.2504
   1566701.23057    365393.82855  20175342.8364                   20175339.0164
        47.0004         35.0004
   1556327.91846   1218360.18443  22583088.8364                   22583087.3204
        39.5004         19.0004
 19  3  5 22 11 25.0000000  0  8G07G11G13G17G27G28G30G08
   1525372.19147   1190611.42844  21620702.0704                   21620697.8714
        44.2504         26.2504
    592402.469 6                  22804831.891
        38.000
   -802359.19547   -591913.01243  21584818.1804                   21584814.1684
        42.5004         23.5004
    489345.43847    894744.95353  24003323.0234                   24003319.8014
        45.0004         22.5004
   2265530.355 5                  25017208.516
        32.750
   -471992.29347   -338551.85944  20597096.9614                   20597091.8404
        44.5004         28.5004
   1558940.07447    359346.23645  20173864.0864                   20173862.6804
        45.5004         31.0004
   1557783.55546   1219494.48443  22583364.7734                   22583363.4654
        37.0004         18.2504
 19  3  5 22 11 30.0000000  0  8G07G11G13G17G27G28G30G08
   1526480.73847   1191475.21144  21620913.5234                   21620908.5274
        43.0004         24.7504
    570583.277 6                  22800681.141
        37.250
   -820862.00447   -606330.80143  21581297.4844                   21581292.6884
        43.0004         22.0004
    460129.73446    871979.48043  23997763.9694                   23997759.6884
        39.2504         19.7504
                                  25018611.461
        35.000
   -487973.99647   -351005.13344  20594055.6484                   20594050.3284
        44.7504         28.0004
   1551201.36747    353316.05545  20172392.5234                   20172389.5394
        46.0004         31.5004
   1559260.38346   1220645.21542  22583646.1954                   22583644.4454
        39.0004         17.7504
 19  3  5 22 11 35.0000000  0  8G07G11G13G17G27G28G30G08
   1527609.02346   1192354.38344  21621128.1804                   21621123.2034
        40.7504         24.5004
    548787.277 5                  22796532.586
        35.750
   -839336.91847   -620726.83243  21577780.5634                   21577776.4224
        42.0004         22.2504
    430929.62146    849226.13343  23992206.7504                   23992203.4534
        39.2504         18.5004
   2280281.754 5                  25020016.719
        31.250
   -503933.93047   -363441.44544  20591018.5474                   20591012.9574
        43.7504         26.5004
   1543486.22347    347304.25445  20170923.9774                   20170921.4924
        43.7504         30.5004
   1560759.68046   1221813.49642  22583930.9694                   22583929.5744
        36.7504         17.7504
 19  3  5 22 11 40.0000000  0  8G07G11G13G17G27G28G30G08
   1528756.96146   1193248.91443  21621345.7584                   21621342.1914
        39.2504         22.0004
    527014.750 6                  22792389.320
        39.250
   -857783.89147   -635101.08643  21574271.0474                   21574266.7664
        43.2504         22.0004
    401741.23046    826481.94943  23986652.3444                   23986649.0204
        41.5004         18.2504
   2287683.730 5                  25021424.398
        34.750
   -519872.80947   -375861.35544  20587985.0554                   20587980.7544
        46.0004         25.5004
   1535794.79747    341310.95744  20169459.6954                   20169458.5984
        44.7504         29.0004
   1562284.08646   1223001.37542  22584220.6414                   22584220.0744
        40.0004         17.2504
 19  3  5 22 11 45.0000000  0  7G07G11G13G17G28G30G08
   1529922.86746   1194157.38343  21621567.6484                   21621564.4844
        41.7504         23.2504
    505263.625 6                  22788248.266
        39.000
   -876207.12146   -649456.85243  21570764.5784                   21570761.7304
        41.0004         22.2504
    372565.72746    803747.80542  23981099.8364                   23981097.6564
        41.5004         17.7504
   -535792.90647   -388266.62944  20584954.7274                   20584952.2424
        44.2504         25.7504
   1528124.51247    335334.07044  20167999.3834                   20167999.7624
        44.7504         28.5004
   1563828.15246   1224204.49242  22584513.8834                   22584514.1174
        37.7504         17.2504
 19  3  5 22 11 50.0000000  0  8G07G11G13G17G27G28G30G08
   1531113.41046   1195085.07843  21621793.3754                   21621790.6054
        41.0004         22.5004
    483541.41446    926347.32753  22784115.6954                   22784111.6564
        38.2504         20.2504
   -894607.62146   -663794.92643  21567263.0164                   21567259.8524
        41.7504         22.5004
    343407.02746    781026.75442  23975550.7974                   23975549.1844
        38.7504         17.2504
   2302529.33215                  25024248.367
        30.750
   -551692.94947   -400656.25044  20581929.6094                   20581925.2034
        45.2504         26.5004
   1520479.02347    329376.57445  20166544.7894                   20166543.3444
        44.7504         30.7504
   1565397.14846   1225427.06642  22584812.3754                   22584812.4534
        38.7504         16.7504
 19  3  5 22 11 55.0000000  0  8G07G11G13G17G27G28G30G08
   1532319.48847   1196024.84443  21622024.6334                   21622019.7814
        42.0004         22.2504
    461838.39846    909435.87143  22779985.5314                   22779981.7704
        38.0004         19.0004
   -912984.80947   -678114.82843  21563766.4614                   21563761.8404
        42.5004         22.2504
    314259.42646    758314.33243  23970005.0234                   23970002.8364
        41.2504         18.2504
   2309971.402 5                  25025665.008
        34.250
   -567575.78547   -413032.52044  20578907.2194                   20578901.7274
        44.2504         27.5004
   1512852.62147    323433.89845  20165094.2664                   20165091.6524
        43.7504         30.2504
   1566984.29746   1226663.78542  22585115.0704                   22585114.4844
        39.5004         16.7504
 19  3  5 22 12  0.0000000  0  8G07G11G13G17G27G28G30G08
   1533541.00447   1196976.70744  21622255.4064                   21622251.9694
        42.7504         25.5004
    440153.73446    892538.80142  22775859.0004                   22775855.6414
        38.0004         17.7504
   -931334.09847   -692412.96143  21560274.3364                   21560269.7544
        42.0004         22.7504
    285123.17646    735610.77343  23964460.2584                   23964458.1724
        40.5004         18.5004
   2317426.000 5                  25027083.758
        35.000
   -583438.03547   -425392.70744  20575889.0314                   20575883.1604
        44.5004         27.0004
   1505247.43847    317507.78945  20163646.1884                   20163644.2344
        44.2504         31.0004
   1568590.93846   1227915.72743  22585419.9614                   22585419.8164
        39.0004         19.0004
 19  3  5 22 12  5.0000000  0  8G07G11G13G17G27G28G30G08
   1534787.43846   1197947.89843  21622492.4304                   21622489.3714
        39.5004         21.5004
                                  22771737.8134                   22771735.3244
        36.2504         17.2504
   -949660.55546   -706693.34043  21556786.5084                   21556783.0704
        37.5004         22.2504
    256001.96146    712918.90242  23958917.6954                   23958916.5434
        38.5004         17.2504
   2324899.51215                  25028504.086
        30.500
   -599280.70346   -437737.65243  20572873.9454                   20572868.6884
        41.5004         22.5004
   1497667.26246    311601.16844  20162203.6024                   20162202.0824
        41.0004         26.0004
   1570224.43845   1229188.59443  22585731.9064                   22585731.3984
        35.5004         18.5004
 19  3  5 22 12 10.0000000  0  8G07G11G13G17G27G28G30G08
   1536045.95346   1198928.57844  21622732.8204                   21622729.0434
        41.7504         25.0004
    396858.65246    858802.32842  22767619.2114                   22767617.2424
        38.0004         17.7504
   -967958.21946   -720951.24243  21553304.4694                   21553301.0474
        40.0004         22.0004
    226888.84046    690233.37942  23953378.3674                   23953376.6174
        41.0004         16.2504
   2332385.133 5                  25029930.156
        35.500
   -615103.70347   -450067.24644  20569862.4224                   20569857.8244
        44.5004         25.5004
   1490106.53147    305709.66444  20160765.3984                   20160763.8594
        43.2504         29.5004
   1571875.86346   1230475.40242  22586045.2814                   22586045.0824
        37.7504         17.7504
 19  3  5 22 12 15.0000000  0  8G07G11G13G17G27G28G30G08
   1537324.84446   1199925.11744  21622975.4534                   21622972.3284
        41.2504         24.5004
    375242.57846    841958.64842  22763506.6254                   22763504.2074
        37.7504         17.7504
   -986231.37946   -735190.08643  21549827.8594                   21549823.7424
        39.5004         21.5004
    197791.05146    667559.73442  23947841.1884                   23947839.6334
        39.2504         16.7504
   2339883.813 5                  25031356.703
        30.500
   -630906.50447   -462381.13344  20566855.3914                   20566850.8594
        43.0004         24.7504
   1482568.75447    299836.07844  20159330.7504                   20159329.4534
        42.7504         29.2504
   1573548.55946   1231778.77342  22586363.8284                   22586363.6374
        37.5004         17.7504
 19  3  5 22 12 20.0000000  0  8G07G11G13G17G27G28G30G08
   1538620.76246   1200934.94543  21623222.6484                   21623219.4264
        40.0004         22.2504
    353647.44115                  22759397.430
        33.250
  -1004484.49246   -749413.25043  21546354.2194                   21546350.3444
        40.2504         21.5004
    168704.64146    644895.13742  23942305.8914                   23942305.0004
        39.0004         15.5004
                                  25032784.359
        29.250
   -646693.44947   -474682.62944  20563851.1174                   20563847.2814
        42.7504         24.0004
   1475050.02746    293977.35244  20157899.8204                   20157898.8134
        41.5004         28.0004
   1575239.25046   1233096.23442  22586685.5554                   22586685.4654
        36.0004         16.7504
 19  3  5 22 12 25.0000000  0  8G07G11G13G17G27G28G30G08
   1539925.44147   1201951.61744  21623471.1254                   21623467.8404
        44.0004         26.0004
    332064.250 6                  22755290.563
        41.250
  -1022715.64846   -763619.32443  21542885.4924                   21542881.6994
        41.5004         22.0004
    139623.87946    622234.82642  23936773.0234                   23936771.7034
        40.2504         15.5004
                                  25034216.508
        36.500
   -662466.36347   -486973.18044  20560850.2194                   20560846.6454
        45.0004         27.0004
   1467545.76347    288129.89045  20156472.4534                   20156471.8954
        45.2504         30.5004
   1576942.85146   1234423.71843  22587010.0084                   22587009.7704
        39.2504         18.5004
 19  3  5 22 12 30.0000000  0  8G07G11G13G17G27G28G30G08
   1541249.03147   1202982.93444  21623723.1804                   21623720.4654
        44.0004         26.2504
    310503.88346    821775.95753  22751187.6564                   22751184.5744
        39.7504         20.5004
  -1040923.07046   -777806.95343  21539419.9774                   21539416.8554
        41.0004         22.0004
    110554.62947    599583.41442  23931240.5004                   23931240.4264
        42.0004         13.7504
   2362438.020 5                  25035649.383
        35.500
   -678220.63347   -499249.24644  20557851.8524                   20557848.4534
        44.7504         26.2504
   1460063.30147    282299.38345  20155048.3674                   20155048.2934
        45.5004         30.7504
   1578668.07046   1235768.03543  22587338.2034                   22587338.4024
        38.0004         20.5004
 19  3  5 22 12 35.0000000  0  8G07G11G13G17G27G28G30G08
   1542588.90647   1204027.00444  21623978.3364                   21623975.5234
        44.0004         28.0004
    288963.49946    804991.25443  22747088.7194                   22747085.7624
        39.5004         21.0004
  -1059105.59047   -791975.14143  21535960.2894                   21535957.3284
        42.5004         22.7504
     81495.36347    576939.87142  23925710.7894                   23925710.2304
        43.0004         15.5004
   2369980.926 5                  25037086.430
        35.250
   -693956.49647   -511510.97344  20554857.6334                   20554854.1884
        45.5004         28.2504
   1452601.46947    276484.96945  20153628.5084                   20153628.5164
        45.7504         32.5004
   1580413.67246   1237128.23043  22587669.9064                   22587670.3874
        38.7504         20.2504
 19  3  5 22 12 40.0000000  0  8G07G11G13G17G27G28G30G08
   1543949.06347   1205086.83644  21624237.1484                   21624234.5004
        43.2504         24.5004
    267448.02046    788225.88343  22742994.1414                   22742991.9924
        37.5004         21.2504
  -1077270.30947   -806129.47743  21532503.3134                   21532500.8324
        42.0004         22.7504
     52448.45746    554305.94742  23920184.1024                   23920183.1604
        38.5004         15.5004
   2377536.188 5                  25038523.172
        34.000
   -709677.31247   -523760.97744  20551865.8834                   20551863.2234
        45.0004         26.5004
   1445159.71947    270686.17244  20152212.2504                   20152212.5984
        45.5004         29.2504
   1582179.80546   1238504.43843  22588006.8524                   22588007.3954
        38.7504         20.0004
 19  3  5 22 12 45.0000000  0  8G07G11G13G17G27G28G30G08
   1545319.03146   1206154.35243  21624497.1644                   21624494.8524
        41.2504         22.7504
    245945.727 5                  22738901.773
        35.500
  -1095413.90646   -820267.32843  21529050.5314                   21529048.6884
        41.5004         22.0004
     23408.17246    531677.15242  23914656.9144                   23914657.5744
        39.5004         16.2504
   2385097.930 5                  25039961.188
        32.500
   -725384.15647   -536000.06644  20548877.2344                   20548874.1214
        44.5004         25.2504
   1437732.77047    264898.94544  20150798.8444                   20150798.7584
        44.2504         28.0004
   1583958.98846   1239890.77343  22588344.7274                   22588345.5824
        36.5004         19.2504
 19  3  5 22 12 50.0000000  0  8G07G11G13G17G27G28G30G08
   1546701.81646   1207231.80943  21624762.4534                   21624759.1644
        41.2504         22.2504
    224459.680 5                  22734815.914
        35.000
  -1113534.50446   -834387.34843  21525604.7114                   21525600.3984
        39.5004         20.5004
     -5622.58646    509055.69142  23909134.6094                   23909133.8094
        39.7504         14.7504
   2392668.39515                  25041401.852
        32.250
   -741074.66447   -548226.46143  20545893.3054                   20545889.3634
        43.5004         22.7504
   1430323.27047    259125.28544  20149390.7584                   20149389.9924
        42.5004         25.5004
   1585753.71946   1241289.22742  22588688.4454                   22588687.7624
        37.5004         17.7504
 19  3  5 22 12 55.0000000  0  6G07G13G17G28G30G08
   1548105.60546   1208325.69143  21625027.6254                   21625026.4224
        38.2504         21.5004
  -1131633.30546   -848490.26643  21522158.9844                   21522157.1134
        41.5004         20.0004
    -34638.65646    486445.81342  23903611.6174                   23903612.3094
        37.7504         13.7504
   -756746.75847   -560438.48444  20542909.7274                   20542907.5944
        43.5004         25.0004
   1422936.03546    253369.01644  20147983.9534                   20147984.7304
        41.5004         28.0004
   1587569.49646   1242704.10242  22589032.6954                   22589033.3054
        37.0004         16.2504
 19  3  5 22 13  0.0000000  0  7G07G13G17G27G28G30G08
   1549526.62546   1209432.96143  21625299.8524                   21625296.7234
        38.2504         20.7504
  -1149708.56246   -862574.88343  21518719.4694                   21518717.5744
        40.7504         21.7504
    -63645.18046    463843.41842  23898093.2734                   23898093.2464
        38.5004         15.5004
                                  25044289.445
        28.500
   -772401.72347   -572637.14544  20539931.2974                   20539927.7234
        42.2504         24.5004
   1415569.08247    247628.54744  20146582.1644                   20146581.8674
        42.0004         29.7504
   1589407.25446   1244136.14842  22589382.5314                   22589382.9064
        36.5004         17.2504
 19  3  5 22 13  5.0000000  0  8G07G11G13G17G27G28G30G08
   1550962.64146   1210551.90243  21625575.6484                   21625569.0634
        37.5004         22.5004
                                  22722577.266
        34.750
  -1167756.70346   -876638.39543  21515287.7974                   21515282.3674
        39.7504         22.5004
    -92641.51646    441248.79342  23892578.4534                   23892574.9884
        36.7504         16.2504
                                  25045739.680
        27.500
   -788037.62146   -584821.01244  20536958.8054                   20536951.1604
        40.7504         26.2504
   1408222.39146    241903.81645  20145187.1414                   20145182.6914
        40.5004         30.0004
   1591265.09046   1245583.79343  22589738.2194                   22589736.2854
        36.2504         18.2504
 19  3  5 22 13 10.0000000  0  6G07G11G13G17G28G30
   1552417.15616                  21625849.797
        40.250
                                  22718504.836
        35.000
  -1185781.49257   -889560.30254  21511857.1804                   21511852.5234
        42.5004         26.7504
   -121622.53817                  23887058.813
        42.750
                                  20533983.0164                   20533979.6684
        44.5004         26.5004
                                  20143790.7734                   20143789.8554
        42.5004         29.5004
 19  3  5 22 13 15.0000000  0  7G07G11G13G17G28G30G08
   1553892.31347   1211692.53954  21626129.8754                   21626125.0944
        43.2504         24.2504
    117370.191 6                  22714436.477
        39.000
  -1203777.32047   -903583.08244  21508432.3984                   21508427.1564
        44.2504         26.2504
   -150588.02046    420478.22353  23881547.5004                   23881543.5744
        41.0004         20.7504
   -819248.49247   -609141.34044  20531016.5164                   20531011.4654
        44.7504         26.7504
   1393597.69947    230507.98045  20142401.0944                   20142398.5314
        45.7504         31.5004
   1595046.59056   1246937.64553  22590455.7114                   22590454.1414
        39.0004         22.7504
 19  3  5 22 13 20.0000000  0  7G07G11G13G17G28G30G08
   1555389.18457   1212858.95355  21626415.2424                   21626411.9104
        45.0004         30.0004
     96021.34856    770892.32453  22710373.5944                   22710368.6414
        39.7504         19.2504
  -1221738.70357   -917578.67253  21505013.8054                   21505009.0434
        42.5004         22.2504
   -179538.70756    397919.23853  23876038.0164                   23876034.8914
        41.7504         18.5004
   -834815.90257   -621271.51254  20528054.1094                   20528050.4064
        44.7504         26.7504
   1386323.36757    224839.37555  20141017.4224                   20141017.4414
        46.5004         32.0004
   1596972.65256   1248438.19953  22590822.5004                   22590821.5164
        40.0004         22.2504
 19  3  5 22 13 25.0000000  0  7G07G11G13G17G28G30G08
   1556910.46947   1214044.41444  21626704.6414                   21626700.9804
        45.7504         28.0004
     74700.31346    754278.64543  22706316.1334                   22706311.5634
        39.0004         19.5004
  -1239670.00047   -931551.12143  21501601.2034                   21501597.1604
        45.2504         22.5004
   -208470.62146    375375.00842  23870532.8364                   23870529.7544
        40.5004         17.7504
   -850358.03947   -633382.30944  20525096.2424                   20525091.7934
        45.5004         28.5004
   1379078.64847    219194.25045  20139638.6334                   20139637.5084
        47.5004         31.7504
   1598925.50046   1249960.00843  22591194.0234                   22591193.4224
        39.0004         21.5004
 19  3  5 22 13 30.0000000  0  8G07G11G13G17G27G28G30G08
   3133862.71947   2442838.37144  21926787.8054                   21926784.6914
        46.2504         28.0004
   1628818.94546   1965280.14843  23002054.6804                   23002050.8674
        40.0004         19.5004
    317842.36747    282094.87543  21797985.9064                   21797982.0904
        43.7504         23.0004
   1338029.28546   1580439.85242  24164821.1724                   24164818.8554
        41.7504         16.7504
                                  25352818.117
        34.500
    709535.94947    582119.51244  20821934.0704                   20821929.7074
        45.2504         26.5004
   2947270.37148   1441161.80145  20438054.9304                   20438053.8754
        48.0004         32.0004
   3176313.39846   2479093.37543  22891360.0944                   22891359.6884
        41.7504         21.2504
 19  3  5 22 13 35.0000000  0  6G07G11G13G28G30G08
                                  21927081.898
        42.000
                                  22998003.422
        38.000
                                  21794580.563
        40.000
                                  20818981.2664                   20818976.5044
        41.2504         22.5004
                                  20436682.4844                   20436681.7624
        43.7504         32.7504
                                  22891737.664
        39.250
 19  3  5 22 13 40.0000000  0  7G07G11G13G17G28G30G08
   3152954.20347   2444644.33254  21927377.8594                   21927375.0314
        45.2504         25.2504
   1586262.84816                  22993955.352
        41.000
    282072.54757    260911.52055  21791178.7424                   21791166.1604
        43.0004         32.5004
   3112671.40216                  24153815.000
        40.750
    678511.91057    557944.72354  20816030.6804                   20816027.5394
        44.2504         27.0004
   2932854.57457   1430378.49255  20435312.4384                   20435311.3404
        47.0004         34.0004
   3180301.10916                  22892117.938
        41.250
 19  3  5 22 13 45.0000000  0  7G07G11G13G17G28G30G08
   3154527.24647   2445870.08243  21927676.7114                   21927673.9454
        42.7504         22.5004
   1565010.39146   1946058.74253  22989911.2424                   22989906.2074
        38.0004         20.5004
    264211.69547    246993.98854  21787778.9614                   21787774.3404
        42.5004         24.2504
   3083766.863 6                  24148314.539
        37.750
    663019.31347    545872.57044  20813081.8444                   20813077.8014
        43.7504         26.2504
   2925671.79747   1424781.53545  20433944.7664                   20433943.8324
        45.5004         32.2504
   3182314.68446   2480844.28153  22892501.0864                   22892500.3674
        39.7504         21.7504
 19  3  5 22 13 50.0000000  0  7G07G11G13G17G28G30G08
   3156110.44947   2447103.69143  21927978.4924                   21927974.5004
        44.5004         21.5004
   1543772.71146   1929509.82843  22985869.6564                   22985865.0394
        39.7504         18.5004
    246366.55147    233088.63343  21784384.2814                   21784379.2304
        42.7504         23.2504
   3054865.832 6                  24142815.102
        40.750
    647536.09447    533807.68044  20810135.9454                   20810131.3324
        44.2504         26.2504
   2918501.67247   1419194.40645  20432581.1024                   20432579.1334
        46.2504         32.0004
   3184342.28546   2482424.18443  22892886.5864                   22892885.8754
        39.0004         20.5004
 19  3  5 22 13 55.0000000  0  7G07G11G13G17G28G30G08
   3157705.62157   2448346.88753  21928281.3134                   21928279.5784
        45.7504         23.0004
                                  22981830.2664                   22981827.0944
        40.7504         18.5004
    228547.27357    219203.52053  21780992.9534                   21780988.4694
        42.0004         21.7504
                                  24137316.7584                   24137314.0784
        41.5004         20.0004
                                  20807192.5554                   20807189.4064
        44.0004         27.0004
                                  20431219.3594                   20431219.5124
        46.5004         30.5004
                                  22893274.9614                   22893274.6564
        40.5004         19.2504
 19  3  5 22 14  0.0000000  0  8G07G11G13G17G27G28G30G08
   3159321.51247   2449606.07843  21928589.3134                   21928586.1914
        43.7504         22.5004
   1501351.27346   1896454.24243  22977796.4384                   22977793.0314
        38.2504         18.2504
    210755.73447    205339.99643  21777607.2814                   21777602.9614
        45.0004         22.7504
   2997094.07046   1533607.83243  24131821.1724                   24131819.5664
        37.5004         18.5004
   3167228.83615                  25361625.945
        32.750
    616628.99647    509724.49644  20804253.9614                   20804249.0004
        45.0004         26.0004
   2904223.49247   1408068.78945  20429863.3444                   20429861.3594
        46.0004         31.0004
   3188450.35546   2485625.04743  22893668.5004                   22893668.5594
        40.5004         19.0004
 19  3  5 22 14  5.0000000  0  8G07G11G13G17G27G28G30G08
   3160955.05547   2450878.94944  21928899.7114                   21928896.7114
        46.0004         27.2504
   1480174.99246   1879953.28543  22973766.6414                   22973762.8134
        39.7504         18.5004
    192987.39847    191494.52743  21774225.5314                   21774222.1054
        42.5004         23.0004
   2968230.95346   1511117.05942  24126328.6174                   24126327.1644
        41.2504         17.7504
                                  25363101.727
        32.000
    601204.13747    497705.12144  20801318.7034                   20801313.8054
        44.7504         28.5004
   2897116.77747   1402531.08245  20428510.9844                   20428509.0514
        46.5004         32.7504
   3190535.14846   2487249.57843  22894064.9694                   22894065.1254
        40.5004         19.7504
 19  3  5 22 14 10.0000000  0  8G07G11G13G17G27G28G30G08
   3162607.30447   2452166.43144  21929214.8284                   21929210.5944
        46.7504         26.5004
   1459021.88746   1863470.30942  22969741.5394                   22969737.8874
        37.7504         17.2504
    175240.64547    177665.93743  21770848.8834                   21770844.6174
        42.5004         23.0004
   2939379.34447   1488635.32042  24120839.2344                   24120837.1094
        42.2504         17.2504
   3182744.578 5                  25364578.203
        32.000
    585796.21547    485698.95744  20798386.7194                   20798381.9024
        44.5004         26.5004
   2890030.75047   1397009.52745  20427162.4924                   20427160.6804
        47.0004         31.5004
   3192640.70746   2488890.28943  22894465.9064                   22894465.6844
        39.5004         19.5004
 19  3  5 22 14 15.0000000  0  8G07G11G13G17G27G28G30G08
   3164274.97347   2453465.91844  21929531.5234                   21929528.3014
        46.5004         29.2504
   1437887.65646   1847002.12542  22965719.7584                   22965716.6254
        40.2504         17.7504
    157518.79346    163856.69543  21767476.4304                   21767472.3094
        41.7504         23.2504
   2910540.11346   1466163.22743  24115350.5004                   24115349.1024
        41.5004         18.5004
   3190518.059 5                  25366056.602
        31.250
    570407.14847    473707.49244  20795458.2814                   20795453.5944
        44.2504         28.0004
   2882964.89147   1391503.64545  20425817.5394                   20425815.9614
        46.5004         32.7504
   3194763.20346   2490544.16843  22894869.9304                   22894869.9384
        40.0004         20.0004
 19  3  5 22 14 20.0000000  0  8G07G11G13G17G27G28G30G08
   3165960.70347   2454779.45744  21929852.6414                   21929849.0664
        46.2504         26.7504
   1416775.50146   1830551.04042  22961702.4844                   22961699.2074
        41.0004         17.2504
    139823.36647    150068.01043  21764109.0004                   21764104.9924
        42.5004         23.0004
   2881714.07446   1443701.42643  24109865.1024                   24109864.0784
        38.2504         18.2504
   3198305.863 5                  25367539.969
        35.000
    555038.06647    461731.56344  20792533.1804                   20792529.1914
        44.7504         26.5004
   2875920.98047   1386014.87145  20424477.5084                   20424475.9574
        47.2504         32.0004
   3196906.58446   2492214.32043  22895277.6254                   22895277.7734
        40.5004         19.7504
 19  3  5 22 14 25.0000000  0  8G07G11G13G17G27G28G30G08
   3167662.91847   2456105.88344  21930176.0554                   21930172.8714
        45.5004         26.0004
   1395683.90246   1814116.07443  22957688.9694                   22957685.3164
        41.2504         19.2504
    122156.39147    136301.56643  21760747.3204                   21760743.5514
        42.5004         23.5004
   2852899.23846   1421248.26642  24104382.0784                   24104380.4964
        41.0004         16.7504
   3206109.035 5                  25369025.258
        33.500
    539689.59047    449771.72344  20789612.6564                   20789608.3714
        44.7504         27.5004
   2868898.99647   1380543.22345  20423141.0314                   20423139.4384
        47.0004         31.5004
   3199071.79346   2493901.52743  22895689.9534                   22895689.6644
        40.2504         19.7504
 19  3  5 22 14 30.0000000  0  8G07G11G13G17G27G28G30G08
   3169380.89847   2457444.55143  21930503.1954                   21930499.9614
        45.5004         22.7504
   1374611.90246   1797696.32043  22953679.0554                   22953675.5984
        41.2504         18.5004
    104511.53947    122552.30943  21757389.6564                   21757385.8874
        43.0004         23.2504
   2824097.35246   1398805.26242  24098901.3524                   24098899.7664
        41.2504         16.2504
   3213920.738 6                  25370511.344
        36.000
    524357.96147    437824.99244  20786695.4534                   20786690.7194
        44.5004         27.0004
   2861895.82447   1375086.19545  20421808.6804                   20421807.2704
        47.5004         32.0004
   3201253.03946   2495601.17643  22896104.9454                   22896104.7854
        41.5004         20.2504
 19  3  5 22 14 35.0000000  0  8G07G11G13G17G27G28G30G08
   3171112.99647   2458794.22343  21930832.8364                   21930829.7624
        45.2504         22.0004
   1353558.15646   1781290.83643  22949672.4304                   22949668.9144
        40.0004         19.0004
     86890.36347    108821.52344  21754036.3834                   21754032.6524
        43.5004         24.5004
   2795304.40446   1376369.23142  24093421.7274                   24093420.8054
        40.2504         15.5004
   3221743.828 5                  25372000.398
        33.000
    509042.98047    425891.22744  20783781.0084                   20783776.5274
        45.0004         27.0004
   2854911.18847   1369643.62145  20420479.2274                   20420477.9614
        46.7504         31.2504
   3203452.29347   2497314.84843  22896523.2894                   22896522.8714
        42.0004         19.7504
 19  3  5 22 14 40.0000000  0  8G07G11G13G17G27G28G30G08
   3172861.27047   2460156.50943  21931166.2424                   21931162.6684
        44.5004         22.5004
   1332525.46646   1764901.70143  22945670.8984                   22945667.0904
        39.2504         18.2504
     69290.38147     95107.24444  21750687.3284                   21750683.4964
        44.2504         24.5004
   2766520.14146   1353940.03142  24087944.9384                   24087943.6994
        40.2504         15.5004
   3229580.320 5                  25373491.555
        32.750
    493743.19547    413969.32044  20780869.8674                   20780865.2154
        45.5004         27.2504
   2847945.26247   1364215.62545  20419154.1024                   20419153.0634
        46.7504         31.0004
   3205671.72346   2499044.32443  22896946.4694                   22896945.6564
        40.7504         19.7504
 19  3  5 22 14 45.0000000  0  8G07G11G13G17G27G28G30G08
   3174626.42647   2461531.96544  21931501.1484                   21931499.1484
        43.7504         24.2504
   1311513.88346   1748529.00042  22941670.9534                   22941669.0704
        36.2504         16.2504
     51712.77047     81410.43443  21747342.1564                   21747339.7464
        43.0004         23.0004
   2737746.85246   1331519.20742  24082468.9844                   24082468.7544
        40.0004         16.2504
   3237428.305 5                  25374983.383
        30.500
    478460.41847    402060.66044  20777960.9694                   20777958.4884
        44.2504         27.2504
   2840999.32047   1358803.18844  20417831.7114                   20417832.3364
        45.5004         29.7504
   3207910.17246   2500788.55143  22897371.4064                   22897371.8754
        38.7504         20.0004
 19  3  5 22 14 50.0000000  0  7G07G11G13G17G28G30G08
   3176410.00957   2462810.51554  21931845.6334                   21931835.3554
        45.2504         28.0004
   1290525.58516                  22937681.641
        41.000
     34160.25057     67733.06353  21744006.9144                   21743999.6134
        43.0004         22.5004
   2708989.81657   1309111.34452  24077000.5234                   24076996.6054
        43.7504         17.7504
    463197.85557    390167.71554  20775061.3914                   20775055.0234
        44.7504         27.7504
   2834077.04757   1353409.44955  20416519.6174                   20416515.1564
        46.0004         31.0004
   3210167.56716                  22897804.953
        40.750
 19  3  5 22 14 55.0000000  0  7G07G11G13G17G28G30G08
   3178213.04347   2464215.50043  21932184.7584                   21932180.8984
        44.5004         23.2504
   1269560.047 6                  22933688.227
        38.500
     16633.84847     54076.21544  21740667.5634                   21740664.9884
        44.5004         25.2504
   2680244.46147   1286712.37143  24071526.8594                   24071526.6374
        42.7504         18.2504
    447955.13947    378290.33544  20772156.8054                   20772154.1684
        44.5004         27.2504
   2827176.07047   1348032.04745  20415202.0394                   20415201.7304
        46.0004         30.5004
   3212447.531 6                  22898235.773
        41.500
 19  3  5 22 15  0.0000000  0  7G07G11G13G17G28G30G08
   3180031.62547   2465632.53143  21932530.6174                   21932527.1174
        43.2504         22.7504
   1248613.094 6                  22929703.305
        36.500
      -865.36447     40440.37144  21737337.6094                   21737333.9924
        44.7504         24.5004
   2651512.32446   1264323.71143  24066059.0004                   24066058.9344
        39.5004         19.0004
    432733.75847    366429.53244  20769259.5784                   20769257.2974
        45.0004         26.5004
   2820296.53547   1342671.32845  20413892.9304                   20413891.3594
        47.0004         31.7504
   3214744.31346   2502995.59453  22898673.0314                   22898672.2384
        40.7504         22.0004
 19  3  5 22 15  5.0000000  0  7G07G11G13G17G28G30G08
   3181862.49247   2467059.16043  21932879.7974                   21932876.3594
        44.7504         22.7504
                                  22925720.547
        37.750
    -18345.74646     26819.30143  21734010.1724                   21734007.4734
        40.5004         22.0004
   2622784.98447   1241938.73443  24060593.0314                   24060592.6254
        42.5004         18.2504
    417523.95757    354577.89154  20766365.9844                   20766361.6294
        43.0004         26.0004
                                  20412586.3914                   20412585.0594
        44.7504         29.2504
                                  22899114.1644                   22899113.5274
        37.5004         19.5004
 19  3  5 22 15 10.0000000  0  7G07G11G13G17G28G30G08
   3183709.80147   2468498.62944  21933232.0944                   21933227.4654
        46.0004         27.0004
   1206775.039 6                  22921742.578
        39.250
    -35807.17246     13213.01243  21730690.0234                   21730684.1524
        40.7504         22.2504
   2594068.85547   1219562.55143  24055129.3674                   24055127.6644
        42.0004         19.0004
    402328.69147    342737.42244  20763475.5864                   20763469.6214
        43.7504         24.0004
   2806585.67247   1331987.54345  20411284.7034                   20411281.8794
        46.2504         30.5004
   3219389.99646   2506615.59443  22899558.1644                   22899556.1564
        41.5004         18.5004
 19  3  5 22 15 15.0000000  0  8G07G11G13G17G27G28G30G08
   3185573.39847   2469950.80544  21933585.6804                   21933581.5204
        45.0004         24.0004
   1185886.30146   1739379.49653  22917766.7974                   22917758.5514
        39.2504         20.2504
    -53246.33647      -375.90243  21727369.3914                   21727365.7424
        42.0004         21.7504
   2565365.10246   1197196.03942  24049666.3674                   24049665.1844
        41.2504         17.7504
   3166073.60914                  25383992.484
        28.250
    387150.88747    330910.59444  20760586.2034                   20760580.8554
        44.5004         25.2504
   2799759.33647   1326668.33245  20409985.0234                   20409982.6254
        46.2504         30.5004
   3221737.31646   2508444.66843  22900003.8834                   22900003.0164
        39.2504         20.0004
 19  3  5 22 15 20.0000000  0  8G07G11G13G17G27G28G30G08
   3187463.90647   2471423.90643  21933945.6804                   21933940.9534
        45.0004         23.5004
   1165030.92646   1723128.44143  22913797.5944                   22913790.4304
        39.5004         19.0004
    -70670.13747    -13952.96143  21724054.9534                   21724049.4574
        43.2504         22.7504
   2536674.87146   1174840.04342  24044207.4694                   24044204.7894
        41.2504         16.2504
   3174003.570 5                  25385499.555
        31.000
    371987.41047    319094.87144  20757701.3284                   20757695.2154
        45.2504         28.0004
   2792956.20347   1321367.16445  20408690.7034                   20408687.4064
        46.5004         30.5004
   3224112.14846   2510295.19143  22900455.0864                   22900454.8244
        40.7504         19.5004
 19  3  5 22 15 25.0000000  0  8G07G11G13G17G27G28G30G08
   3189363.53147   2472904.14144  21934307.0704                   21934302.6094
        44.5004         26.0004
   1144187.98456   1706887.22353  22909832.7734                   22909824.2234
        40.5004         18.2504
    -88064.68746    -27507.12943  21720744.8674                   21720739.1884
        41.2504         22.7504
   2507992.56646   1152490.17242  24038749.4774                   24038747.2734
        41.2504         17.2504
   3181942.66015                  25387010.969
        31.000
    356843.03947    307294.07444  20754819.9224                   20754813.7344
        44.2504         27.0004
   2786170.71147   1316079.77345  20407399.7814                   20407396.6134
        47.0004         32.5004
   3226501.76256   2512157.23053  22900910.8594                   22900909.3324
        41.5004         21.2504
 19  3  5 22 15 30.0000000  0  7G07G11G13G17G28G30G08
   3191280.37147   2474397.78544  21934671.8364                   21934667.2854
        44.2504         24.0004
   1123366.16646   1690662.43842  22905869.3134                   22905862.6484
        38.7504         17.7504
   -105432.96147    -41040.79743  21717438.4454                   21717434.3524
        42.5004         22.5004
   2479322.98446   1130150.30942  24033292.6954                   24033291.4964
        38.0004         17.2504
    341718.95347    295509.08244  20751940.2894                   20751935.7584
        45.0004         27.5004
   2779407.23447   1310809.54745  20406112.0314                   20406109.9264
        47.5004         33.0004
   3228910.63747   2514034.27643  22901369.5634                   22901367.7074
        42.0004         20.7504
 19  3  5 22 15 35.0000000  0  7G07G11G13G17G28G30G08
   3193213.57847   2475904.21144  21935039.3984                   21935034.6334
        45.5004         27.0004
   1102564.75047   1674453.60942  22901910.7114                   22901905.1914
        42.0004         16.7504
   -122780.52546    -54558.37143  21714137.4924                   21714133.1374
        41.5004         22.0004
   2450666.38346   1107820.44142  24027839.7584                   24027838.2464
        38.2504         15.5004
    326610.91847    283736.59844  20749065.2424                   20749059.8914
        44.5004         27.2504
   2772662.50447   1305553.92645  20404828.3204                   20404825.1764
        47.5004         34.0004
   3231335.49246   2515923.79343  22901829.9384                   22901828.6804
        41.7504         22.7504
 19  3  5 22 15 40.0000000  0  7G07G11G13G17G28G30G08
   3195160.43447   2477421.21143  21935410.2194                   21935405.1094
        44.7504         22.2504
   1081781.54746   1658258.84043  22897955.8754                   22897950.5044
        41.2504         20.0004
   -140108.68447    -68060.86744  21710840.9454                   21710835.5904
        43.7504         24.7504
   2422017.574 6                  24022388.031
        36.500
    311516.47747    271974.69544  20746193.8204                   20746187.6334
        45.5004         28.2504
   2765934.42247   1300311.25445  20403549.0234                   20403545.5274
        47.7504         33.7504
   3233776.41846   2517825.80144  22902295.0164                   22902292.4734
        41.5004         24.2504
 19  3  5 22 15 45.0000000  0  7G07G11G13G17G28G30G08
   3197116.97657   2478945.55453  21935779.9924                   21935777.5394
        43.5004         22.0004
   1061011.97716                  22894002.828
        38.250
   -157415.98857    -81546.66854  21707544.8204                   21707542.0904
        43.0004         28.7504
   2393371.25016                  24016935.602
        36.500
    296434.42257    260222.51254  20743321.2814                   20743319.8754
        43.7504         29.5004
   2759221.03957   1295080.12555  20402268.3524                   20402269.0354
        44.5004         33.0004
   3236233.21456   2519740.22753  22902759.5234                   22902760.0164
        39.0004         22.0004
 19  3  5 22 15 50.0000000  0  7G07G11G13G17G28G30G08
   3199080.73447   2480475.91044  21936155.4774                   21936153.6214
        46.5004         28.2504
   1040253.38747   1641436.91453  22890052.7974                   22890050.9614
        43.2504         21.0004
   -174702.66447    -95016.91044  21704256.6414                   21704254.6954
        43.0004         28.0004
   2364734.113 6                  24011485.570
        36.250
    281366.55947    248481.37944  20740455.1254                   20740453.4884
        46.0004         29.2504
   2752520.88347   1289859.27045  20400995.1954                   20400996.0044
        47.7504         34.0004
   3238696.96146   2521660.14144  22903229.9224                   22903230.3714
        38.7504         25.5004
 19  3  5 22 15 55.0000000  0  7G07G11G13G17G28G30G08
   3201060.71147   2482018.62944  21936531.3134                   21936529.3794
        46.5004         29.2504
   1019517.82746   1625279.29543  22886106.6414                   22886104.7114
        38.0004         20.0004
   -191973.47347   -108474.70344  21700969.3054                   21700967.8094
        43.0004         26.5004
   2336098.344 5                  24006037.477
        30.500
    266308.77047    236747.95344  20737589.4064                   20737586.4024
        44.7504         29.2504
   2745837.46147   1284651.32445  20399722.7274                   20399722.6914
        47.2504         34.5004
   3241184.63747   2523598.48243  22903703.2504                   22903703.7424
        42.0004         22.5004
 19  3  5 22 16  0.0000000  0  7G07G11G13G17G28G30G08
   3203053.34847   2483571.37544  21936910.9064                   21936908.8164
        45.5004         28.0004
    998797.93046   1609133.90643  22882164.1094                   22882162.2974
        39.0004         18.5004
   -209219.79347   -121913.36344  21697688.0944                   21697685.6374
        42.7504         25.0004
   2307476.480 5                  24000590.219
        33.500
    251269.07047    225028.73844  20734727.5314                   20734724.6134
        44.5004         29.5004
   2739171.99647   1279457.48045  20398454.3754                   20398454.1374
        46.7504         33.2504
   3243684.12946   2525546.17643  22904179.1484                   22904179.7734
        40.2504         22.0004
 19  3  5 22 16  5.0000000  0  7G07G11G13G17G28G30G08
   3205062.95347   2485137.29344  21937293.6334                   21937291.4804
        46.2504         26.0004
    978099.46946   1593005.28142  22878225.9614                   22878223.5044
        39.7504         17.7504
   -226441.88646   -135333.19143  21694411.1564                   21694408.6684
        41.2504         22.7504
   2278867.27715                  23995146.719
        33.750
    236247.51647    213323.62944  20731869.3594                   20731866.7734
        44.0004         26.5004
   2732527.07247   1274279.62845  20397190.2114                   20397190.0204
        46.5004         30.7504
   3246202.52946   2527508.55743  22904658.5554                   22904659.1484
        39.0004         21.5004
 19  3  5 22 16 10.0000000  0  7G07G11G13G17G28G30G08
   3207094.88747   2486720.59844  21937680.4844                   21937678.6994
        47.0004         28.5004
    957428.09847   1576897.68042  22874290.9774                   22874289.9144
        42.0004         16.7504
   -243642.85947   -148736.54343  21691138.0394                   21691135.6644
        42.2504         22.5004
   2250273.141 6                  23989705.797
        37.250
    221243.79347    201632.40244  20729014.2814                   20729011.6844
        44.5004         27.2504
   2725904.96147   1269119.51645  20395929.9694                   20395930.1054
        47.0004         32.5004
   3248743.08246   2529488.17643  22905141.6484                   22905142.8444
        40.2504         20.2504
 19  3  5 22 16 15.0000000  0  7G07G11G13G17G28G30G08
   3209144.32847   2488317.58644  21938070.0944                   21938068.4184
        44.5004         24.5004
    936779.34446   1560807.77742  22870361.5004                   22870360.9264
        38.0004         16.7504
   -260815.29347   -162117.66444  21687869.2734                   21687867.2734
        42.2504         24.7504
   2221689.563 5                  23984266.883
        35.750
    206260.57847    189957.18844  20726162.9304                   20726160.3164
        44.2504         29.7504
   2719305.41847   1263977.03945  20394674.0394                   20394674.2384
        46.2504         34.2504
   3251307.52046   2531486.47343  22905630.3674                   22905630.9574
        40.7504         20.2504
 19  3  5 22 16 20.0000000  0  7G07G11G13G17G28G30G08
   3211210.27047   2489927.38343  21938463.7974                   21938462.2384
        45.5004         22.2504
    916150.85546   1544733.54742  22866437.7584                   22866435.5824
        40.5004         16.2504
   -277961.51247   -175478.39143  21684606.9844                   21684604.8754
        43.2504         23.5004
   2193120.07015                  23978829.984
        34.250
    191297.05147    178297.25844  20723315.5554                   20723312.8524
        45.5004         27.5004
   2712726.76647   1258850.78145  20393422.3984                   20393422.7194
        47.0004         31.5004
   3253889.71946   2533498.57043  22906120.5784                   22906122.9264
        40.2504         21.0004
 19  3  5 22 16 25.0000000  0  7G07G11G13G17G28G30G08
   3213290.36747   2491548.26244  21938859.4224                   21938858.4264
        45.5004         24.0004
    895541.22346   1528674.18842  22862515.2344                   22862513.8164
        38.2504         14.7504
   -295082.46647   -188819.35143  21681349.3754                   21681347.8324
        42.5004         21.5004
   2164560.418 5                  23973394.438
        34.250
    176351.18447    166651.16044  20720471.2584                   20720469.8794
        44.2504         25.0004
   2706167.29347   1253739.51645  20392174.0004                   20392175.6214
        46.5004         30.0004
   3256490.41846   2535525.07843  22906616.2664                   22906617.4844
        40.7504         20.2504
 19  3  5 22 16 30.0000000  0  7G07G11G13G17G28G30G08
   3215384.98047   2493180.41443  21939257.8204                   21939257.6604
        45.2504         23.0004
    874949.74647   1512628.85542  22858596.7504                   22858596.0164
        43.0004         14.7504
   -312180.89147   -202142.80543  21678095.0864                   21678093.6334
        42.5004         21.7504
   2136013.551 5                  23967961.680
        30.250
    161422.12547    155018.12144  20717630.6644                   20717629.4694
        43.7504         24.7504
   2699626.15647   1248642.52045  20390929.2344                   20390931.3754
        47.0004         30.2504
   3259105.51247   2537562.81643  22907113.8284                   22907115.5824
        43.5004         20.0004
 19  3  5 22 16 35.0000000  0  7G07G11G13G17G28G30G08
   3217500.99647   2494829.28543  21939660.3984                   21939660.8094
        43.2504         22.2504
    854385.26646   1496604.59842  22854682.8524                   22854683.1024
        37.7504         16.2504
   -329254.14147   -215446.63743  21674845.8754                   21674845.8834
        43.0004         22.7504
                                  23962532.734
        31.750
    146512.50847    143400.25044  20714793.3914                   20714792.9454
        44.5004         26.5004
   2693108.80947   1243564.08644  20389689.1334                   20389692.0514
        46.2504         29.7504
   3261746.39846   2539620.68843  22907616.7584                   22907619.1414
        40.2504         19.2504
 19  3  5 22 16 40.0000000  0  7G07G11G13G17G28G30G08
   3219633.12947   2496490.62943  21940066.6564                   21940066.9494
        45.5004         22.0004
    833842.06646   1480596.98842  22850774.6254                   22850774.5004
        38.2504         16.2504
   -346307.05147   -228734.62143  21671601.2734                   21671601.2194
        43.0004         21.5004
   2078953.938 5                  23957104.547
        30.500
    131617.60247    131793.80944  20711959.0784                   20711959.3954
        45.0004         26.0004
   2686609.70347   1238499.82444  20388452.9844                   20388456.2624
        46.7504         29.0004
   3264405.95346   2541693.02743  22908122.5704                   22908125.7424
        40.2504         18.5004
 19  3  5 22 16 45.0000000  0  7G07G11G13G17G28G30G08
   3221781.75047   2498164.88744  21940475.1334                   21940475.4344
        46.0004         26.0004
    813318.58546   1464604.51742  22846868.7194                   22846869.0044
        38.2504         16.2504
   -363329.82047   -241999.13743  21668362.1024                   21668362.1604
        43.0004         21.2504
                                  23951679.797
        27.250
    116745.77347    120205.36344  20709128.9064                   20709128.6374
        44.7504         25.7504
   2680133.61347   1233453.50845  20387219.8444                   20387222.2384
        47.0004         31.0004
   3267082.96147   2543778.98843  22908631.6484                   22908635.1134
        42.5004         19.2504
 19  3  5 22 16 50.0000000  0  7G07G11G13G17G28G30G08
   3223955.35947   2499858.60543  21940889.1334                   21940889.1484
        46.0004         23.2504
    792824.46146   1448635.16042  22842968.9614                   22842969.1564
        41.0004         15.5004
   -380326.79747   -255243.53943  21665128.6094                   21665127.0354
        44.5004         23.5004
   2021957.11314                  23946258.953
        28.750
    101896.09447    108634.18844  20706303.4304                   20706302.0824
        45.7504         27.2504
   2673683.50848   1228427.47745  20385992.4844                   20385993.8244
        48.0004         31.5004
   3269783.35247   2545883.21543  22909145.8524                   22909148.7814
        42.0004         20.2504
 19  3  5 22 16 55.0000000  0  6G07G11G13G28G30G08
   3226148.20747   2501567.30543  21941305.8444                   21941304.8054
        45.5004         23.7504
    772355.254 6                  22839073.547
        38.750
   -397299.29347   -268468.84043  21661898.2194                   21661896.8484
        44.5004         22.7504
     87064.41447     97077.02344  20703480.7424                   20703478.0634
        45.5004         27.5004
   2667255.55547   1223418.66845  20384769.5474                   20384769.6524
        47.2504         31.5004
   3272508.50846   2548006.68043  22909664.1484                   22909666.4384
        41.0004         19.5004
 19  3  5 22 17  0.0000000  0  6G07G11G13G28G30G08
   3228352.05147   2503284.56344  21941726.0634                   21941723.9964
        46.7504         26.0004
    751900.820 6                  22835181.750
        40.250
   -414246.80147   -281674.71544  21658672.6954                   21658670.9344
        44.2504         24.7504
     72250.05147     85533.36344  20700661.7814                   20700658.7774
        45.5004         29.0004
   2660844.83247   1218423.28945  20383549.2584                   20383549.5594
        47.2504         33.0004
   3275246.88347   2550140.46143  22910185.4064                   22910187.0234
        42.5004         20.0004
 19  3  5 22 17  5.0000000  0  6G07G11G13G28G30G08
   3230570.28547   2505013.07444  21942147.3054                   21942145.8164
        44.5004         24.7504
    731464.66046   1432694.29753  22831292.0084                   22831289.3324
        40.5004         21.0004
   -431169.22747   -294861.03144  21655452.6334                   21655450.2154
        44.2504         25.0004
     57454.19547     74004.12544  20697846.1414                   20697843.1524
        45.5004         29.5004
   2654453.75847   1213443.21945  20382332.9304                   20382333.4344
        47.0004         34.7504
   3278001.05946   2552286.59443  22910709.4534                   22910711.3484
        40.7504         21.0004
 19  3  5 22 17 10.0000000  0  6G07G11G13G28G30G08
   3232805.98847   2506755.11743  21942572.4924                   21942570.7544
        45.0004         23.0004
    711051.55546   1416788.00043  22827408.3054                   22827405.0474
        37.7504         19.5004
   -448068.72347   -308029.49643  21652236.1884                   21652234.5084
        43.7504         22.7504
     42674.86347     62487.71944  20695033.2504                   20695030.3914
        44.7504         27.5004
   2648082.98447   1208478.95345  20381120.5784                   20381120.8874
        46.5004         31.7504
   3280777.36746   2554449.88343  22911237.4224                   22911238.7194
        40.7504         20.2504
 19  3  5 22 17 15.0000000  0  6G07G11G13G28G30G08
   3235053.04347   2508506.11343  21943000.3984                   21942999.4144
        44.0004         23.0004
    690654.58646   1400894.14542  22823525.9924                   22823524.5164
        39.2504         17.7504
   -464950.76246   -321184.31243  21649023.3204                   21649022.3594
        40.2504         21.7504
     27906.92647     50980.25844  20692223.0864                   20692220.7854
        43.0004         25.0004
   2641726.44947   1203525.82444  20379911.2114                   20379911.6844
        45.0004         29.0004
   3283567.06346   2556623.73843  22911768.3524                   22911770.5204
        37.5004         18.5004
 19  3  5 22 17 20.0000000  0  6G07G11G13G28G30G08
   3237312.33947   2510266.62444  21943430.8204                   21943429.3244
        47.5004         24.5004
    670273.68447   1385013.03942  22819648.1254                   22819646.1604
        42.0004         17.7504
   -481814.69447   -334325.01543  21645814.8284                   21645812.8524
        42.5004         22.2504
     13152.43047     39483.26644  20689415.7344                   20689412.7734
        44.5004         25.5004
   2635385.57447   1198584.89545  20378704.8754                   20378704.6564
        47.5004         32.0004
   3286367.54847   2558805.90143  22912301.7894                   22912302.5824
        42.5004         20.7504
 19  3  5 22 17 25.0000000  0  6G07G11G13G28G30G08
   3239589.54947   2512041.08444  21943864.0084                   21943862.2034
        45.0004         28.0004
    649916.10646   1369149.97942  22815774.1644                   22815772.4774
        38.2504         17.2504
   -498656.14147   -347448.21943  21642609.9304                   21642608.1024
        43.5004         23.5004
     -1585.35947     27999.27044  20686610.7344                   20686608.3284
        44.7504         27.5004
   2629065.34047   1193660.04745  20377501.9694                   20377502.2344
        47.0004         33.0004
   3289189.53746   2561004.89543  22912838.3364                   22912840.0084
        41.0004         20.7504
 19  3  5 22 17 30.0000000  0  6G07G11G13G28G30G08
   3241880.24647   2513826.02744  21944299.7584                   21944297.9534
        47.0004         28.0004
    629576.94146   1353301.30142  22811903.7274                   22811902.4454
        40.2504         16.7504
   -515474.82046   -360553.66443  21639410.1884                   21639406.9574
        41.5004         21.5004
    -16307.73047     16527.30944  20683809.5864                   20683806.2544
        44.2504         24.0004
   2622762.53947   1188748.78145  20376302.5474                   20376302.3594
        47.0004         31.0004
   3292028.66046   2563217.18443  22913379.1414                   22913380.1254
        38.2504         19.0004
 19  3  5 22 17 35.0000000  0  6G07G11G13G28G30G08
   3244185.11747   2515622.00844  21944738.2114                   21944736.2424
        46.5004         28.5004
    609256.52046   1337467.19542  22808036.8834                   22808036.4494
        40.2504         16.7504
   -532271.58246   -373642.05943  21636212.6564                   21636211.2424
        41.5004         21.2504
    -31014.27747      5067.65244  20681010.4144                   20681007.9224
        44.0004         25.7504
   2616478.04347   1183851.76645  20375106.6484                   20375106.3324
        47.0004         31.5004
   3294884.26246   2565442.31643  22913921.8984                   22913923.7974
        41.0004         19.0004
 19  3  5 22 17 40.0000000  0  6G07G11G13G28G30G08
   3246506.18847   2517430.62943  21945179.8524                   21945177.9614
        43.5004         23.5004
    588957.08645   1321649.46942  22804174.3754                   22804173.3054
        35.7504         16.7504
   -549046.80547   -386713.66843  21633020.9774                   21633018.8324
        43.7504         22.0004
    -45704.74647     -6379.45744  20678215.4304                   20678212.8324
        44.5004         27.7504
   2610212.64847   1178969.64845  20373914.4774                   20373914.5004
        46.2504         32.0004
   3297757.35246   2567681.12143  22914469.3524                   22914470.2114
        39.5004         19.5004
 19  3  5 22 17 45.0000000  0  6G07G11G13G28G30G08
   3248838.48447   2519248.01644  21945624.0084                   21945621.9774
        46.0004         26.5004
    568672.54746   1305843.32843  22800313.6564                   22800312.6644
        41.0004         19.2504
   -565797.34047   -399766.01243  21629833.8984                   21629831.1414
        43.2504         22.0004
    -60378.03147    -17813.19544  20675423.0704                   20675420.4454
        44.5004         27.5004
   2603964.52747   1174100.97345  20372725.4774                   20372725.3404
        47.0004         31.7504
   3300642.98846   2569929.66443  22915018.0474                   22915019.2034
        40.7504         20.7504
 19  3  5 22 17 50.0000000  0  6G07G11G13G28G30G08
   3251186.07447   2521077.32444  21946070.7894                   21946068.4264
        45.0004         25.7504
    548409.43046   1290053.87543  22796457.5164                   22796456.7704
        38.7504         18.2504
   -582527.99247   -412802.90244  21626649.7424                   21626647.1564
        43.7504         24.7504
    -75038.06247    -29236.59044  20672633.8754                   20672630.3444
        44.7504         28.5004
   2597734.02347   1169246.02745  20371539.7974                   20371539.3014
        46.5004         32.5004
   3303549.28546   2572194.28543  22915571.4064                   22915572.1334
        40.7504         20.5004
 19  3  5 22 17 55.0000000  0  6G07G11G13G28G30G08
   3253546.72047   2522916.79944  21946520.3204                   21946517.6564
        46.7504         27.2504
    528163.57547   1274277.90243  22792605.2894                   22792603.3714
        42.0004         19.0004
   -599238.92646   -425824.39843  21623469.9384                   21623467.0904
        41.7504         22.7504
    -89683.61947    -40648.70544  20669846.6174                   20669843.3554
        43.7504         27.2504
   2591520.20847   1164404.10545  20370357.6254                   20370357.1334
        46.7504         33.0004
   3306468.57446   2574469.05943  22916126.8834                   22916127.8714
        40.0004         19.7504
 19  3  5 22 18  0.0000000  0  6G07G11G13G28G30G08
   3255919.45347   2524765.64143  21946971.3444                   21946968.9144
        44.0004         21.7504
    507935.11746   1258515.38742  22788754.8054                   22788754.0824
        37.0004         17.2504
   -615928.66447   -438829.39143  21620294.3594                   21620291.3284
        42.0004         22.7504
   -104315.26847    -52050.00644  20667062.2344                   20667058.9844
        43.7504         26.7504
   2585322.56347   1159574.75445  20369178.1024                   20369177.9804
        47.0004         33.0004
   3309404.27746   2576756.60943  22916686.0314                   22916686.4494
        41.5004         18.5004
 19  3  5 22 18  5.0000000  0  6G07G11G13G28G30G08
   3258307.48847   2526626.44144  21947425.6954                   21947422.8954
        44.2504         24.0004
    487725.25047   1242767.51243  22784909.9064                   22784907.7664
        42.2504         19.5004
   -632597.28946   -451817.93043  21617122.2584                   21617118.8794
        41.5004         22.5004
   -118930.02747    -63438.13744  20664280.9924                   20664277.0744
        44.5004         27.2504
   2579143.88347   1154760.18845  20368002.4454                   20368001.3014
        46.5004         32.7504
   3312351.75346   2579053.32643  22917246.8914                   22917246.6134
        41.0004         19.2504
 19  3  5 22 18 10.0000000  0  6G07G11G13G28G30G08
   3260709.42647   2528498.09844  21947883.2974                   21947879.6054
        46.0004         27.7504
    467534.42646   1227034.41043  22781068.1724                   22781064.8164
        41.0004         21.0004
   -649239.87546   -464786.20343  21613954.8134                   21613951.3874
        40.7504         22.5004
   -133527.03947    -74812.41444  20661503.0474                   20661499.4534
        44.0004         26.7504
   2572984.34047   1149960.56345  20366829.8674                   20366828.8794
        46.2504         33.0004
   3315318.37146   2581364.97343  22917810.4144                   22917811.3984
        40.5004         19.7504
 19  3  5 22 18 15.0000000  0  6G07G11G13G28G30G08
   3263128.78147   2530383.31343  21948343.4384                   21948339.9574
        45.2504         23.7504
    447366.98447   1211319.52043  22777230.6724                   22777227.0824
        42.0004         21.0004
   -665864.55447   -477740.45944  21610792.3834                   21610787.8984
        43.5004         24.7504
   -148111.05947    -86176.57644  20658728.7274                   20658724.4844
        44.2504         28.5004
   2566842.88347   1145175.02645  20365661.7894                   20365660.2424
        47.2504         33.5004
   3318305.19546   2583692.41843  22918379.1724                   22918379.2384
        41.5004         20.0004
 19  3  5 22 18 20.0000000  0  6G07G11G13G28G30G08
   3265560.03147   2532277.79444  21948806.1094                   21948802.7114
        45.7504         26.5004
    427215.74346   1195617.24543  22773396.1644                   22773392.0944
        41.5004         21.2504
   -682467.72347   -490678.00543  21607631.8364                   21607628.0394
        42.0004         23.0004
   -162680.15947    -97529.11944  20655955.9614                   20655951.2814
        45.0004         27.5004
   2560717.94847   1140402.33845  20364496.2274                   20364494.9104
        47.5004         34.0004
   3321305.27647   2586030.13443  22918949.9774                   22918949.4454
        42.5004         19.5004
 19  3  5 22 18 25.0000000  0  6G07G11G13G28G30G08
   3268005.03547   2534182.98043  21949271.7424                   21949267.6604
        44.5004         23.7504
    407082.73446   1179929.21543  22769564.4224                   22769560.7664
        38.5004         18.2504
   -699049.77047   -503599.09044  21604477.0164                   21604472.2114
        43.0004         24.0004
   -177233.95347   -108869.76244  20653186.9064                   20653181.9964
        45.0004         28.0004
   2554610.46147   1135643.24645  20363334.1644                   20363331.8164
        47.2504         33.5004
   3324319.54746   2588378.90243  22919524.2424                   22919523.5004
        41.7504         20.7504
 19  3  5 22 18 30.0000000  0  6G07G11G13G28G30G08
   3270465.85247   2536100.53544  21949739.0314                   21949735.5554
        45.7504         26.5004
    386970.94946   1164257.69542  22765737.0084                   22765734.1024
        38.5004         17.7504
   -715607.03947   -516500.85544  21601325.5234                   21601321.6884
        43.2504         24.0004
   -191770.14847   -120196.66444  20650419.3594                   20650415.6914
        44.5004         28.7504
   2548523.14847   1130899.87945  20362174.6954                   20362173.4264
        47.0004         33.5004
   3327354.35246   2590743.66443  22920100.7034                   22920099.9654
        40.7504         22.2504
 19  3  5 22 18 35.0000000  0  6G07G11G13G28G30G08
   3272942.75448   2538030.54344  21950211.7344                   21950207.6174
        48.0004         27.5004
    366880.09446   1148602.46942  22761914.8524                   22761910.9614
        39.5004         17.2504
   -732142.95347   -529386.01243  21598179.4064                   21598174.1174
        43.7504         23.7504
   -206290.57847   -131511.30144  20647657.4384                   20647652.3754
        45.7504         27.0004
   2542454.69548   1126171.20745  20361021.0864                   20361018.8674
        48.0004         32.5004
   3330406.01247   2593121.60243  22920682.6484                   22920681.2384
        42.2504         21.2504
 19  3  5 22 18 40.0000000  0  6G07G11G13G28G30G08
   3275434.11747   2539971.88344  21950684.5474                   21950681.8754
        46.5004         27.2504
    346808.92646   1132962.60242  22758094.5944                   22758091.5944
        39.0004         16.2504
   -748657.86747   -542254.71543  21595036.6724                   21595032.6484
        43.5004         23.0004
   -220796.10947   -142814.28144  20644896.4774                   20644892.7774
        44.7504         28.2504
   2536404.12547   1121456.50445  20359868.8914                   20359868.4064
        46.7504         33.2504
   3333474.63346   2595512.74243  22921266.1644                   22921265.4104
        40.2504         21.5004
 19  3  5 22 18 45.0000000  0  6G07G11G13G28G30G08
   3277940.97347   2541925.29344  21951162.1484                   21951158.9024
        47.0004         26.5004
    326757.87546   1117338.49642  22754278.9064                   22754276.3054
        40.5004         16.7504
   -765150.55947   -555106.18744  21591898.0864                   21591894.4774
        43.2504         24.7504
   -235285.29747   -154104.56244  20642140.0704                   20642135.6684
        45.5004         27.7504
   2530372.43847   1116756.48845  20358721.5634                   20358720.3244
        47.2504         32.5004
   3336559.41046   2597916.46943  22921852.2664                   22921852.1054
        41.5004         21.5004
 19  3  5 22 18 50.0000000  0  6G07G11G13G28G30G08
   3280461.66847   2543889.48844  21951641.6484                   21951638.6764
        47.0004         27.0004
    306725.66446   1101728.91842  22750467.1334                   22750464.4734
        40.7504         17.2504
   -781620.54746   -567939.93443  21588763.7584                   21588760.7854
        41.7504         23.2504
   -249758.53547   -165382.42244  20639385.5864                   20639382.2544
        44.2504         26.7504
   2524358.93847   1112070.63745  20357577.0164                   20357576.2424
        47.5004         33.2504
   3339660.98846   2600333.28543  22922443.4304                   22922443.4304
        41.2504         21.5004
 19  3  5 22 18 55.0000000  0  6G07G11G13G28G30G08
   3282998.37547   2545866.06644  21952124.7894                   21952121.5704
        46.7504         27.5004
    286715.12546   1086136.25042  22746659.5704                   22746656.6374
        37.0004         16.2504
   -798070.38747   -580758.00043  21585633.9694                   21585630.0004
        43.7504         22.0004
   -264217.25447   -176648.96144  20636634.7974                   20636630.5084
        45.5004         26.7504
   2518363.87148   1107399.14845  20356437.0314                   20356435.8984
        48.0004         32.5004
   3342781.29747   2602764.67643  22923038.0004                   22923036.8554
        42.5004         22.0004
 19  3  5 22 19  0.0000000  0  6G07G11G13G28G30G08
   3285548.31348   2547853.02344  21952609.8674                   21952606.9964
        48.7504         28.5004
    266722.58646   1070557.64142  22742855.1094                   22742852.7194
        41.2504         16.7504
   -814502.06646   -593561.90243  21582506.5314                   21582503.2384
        41.5004         22.0004
   -278663.25847   -187905.57844  20633885.1804                   20633880.9804
        44.5004         26.5004
   2512384.63747   1102740.01245  20355298.7274                   20355297.7854
        47.7504         33.2504
   3345915.43047   2605206.85543  22923633.6644                   22923633.4184
        43.2504         21.7504
 19  3  5 22 19  5.0000000  0  6G07G11G13G28G30G08
   3288114.37147   2549852.55144  21953098.1024                   21953095.2854
        47.0004         26.5004
    246751.25846   1054995.59842  22739054.8674                   22739051.8714
        40.0004         16.7504
   -830913.02347   -606349.67243  21579384.5944                   21579380.8364
        42.7504         22.0004
   -293093.84447   -199150.18044  20631139.1884                   20631135.7464
        45.2504         26.5004
   2506424.41047   1098095.68845  20354164.6174                   20354163.4454
        47.2504         30.7504
   3349067.06346   2607662.67643  22924232.9534                   22924232.9344
        39.0004         20.7504
 19  3  5 22 19 10.0000000  0  6G07G11G13G28G30G08
   3290692.67247   2551861.65644  21953588.6414                   21953586.0234
        45.0004         24.5004
    226798.00446   1039447.64142  22735257.4924                   22735255.0274
        39.7504         16.7504
   -847302.13747   -619120.39543  21576264.8284                   21576261.4694
        42.5004         21.7504
   -307510.35247   -210383.83244  20628395.7034                   20628392.7034
        44.2504         27.5004
   2500480.64547   1093464.17245  20353033.1094                   20353032.3754
        47.2504         32.5004
   3352236.24246   2610132.15243  22924835.3834                   22924835.2384
        41.0004         19.5004
 19  3  5 22 19 15.0000000  0  6G07G11G13G28G30G08
   3293282.46547   2553879.60944  21954082.1024                   21954079.3204
        46.5004         27.2504
    206860.78546   1023912.10543  22731464.0164                   22731461.2854
        39.0004         18.2504
   -863674.00047   -631877.69143  21573149.8914                   21573146.3054
        42.0004         21.0004
   -321914.76247   -221608.03944  20625654.6174                   20625651.3054
        44.7504         25.5004
   2494551.70747   1088844.21945  20351905.0004                   20351904.4774
        47.0004         31.2504
   3355416.54346   2612610.29743  22925440.9384                   22925441.4184
        40.0004         19.0004
 19  3  5 22 19 20.0000000  0  6G07G11G13G28G30G08
   3295881.83647   2555905.12544  21954576.2114                   21954573.5474
        46.7504         27.5004
    186938.25846   1008388.06642  22727672.3364                   22727670.4224
        41.0004         16.7504
   -880024.82846   -644618.60543  21570038.3524                   21570034.8674
        41.7504         21.5004
   -336306.19947   -232822.15644  20622915.9774                   20622912.8484
        44.5004         26.7504
   2488637.11747   1084235.44145  20350779.9774                   20350779.4264
        47.2504         32.2504
   3358610.07046   2615098.78942  22926049.3524                   22926049.5704
        39.5004         17.2504
 19  3  5 22 19 25.0000000  0  6G07G11G13G28G30G08
   3298494.23447   2557940.69544  21955072.4844                   21955071.1294
        46.5004         26.5004
    167033.59046    992877.87142  22723884.6644                   22723883.1214
        37.7504         16.7504
   -896352.11746   -657341.23043  21566930.7034                   21566927.6724
        41.5004         20.7504
   -350681.05947   -244023.37144  20620180.3364                   20620176.6604
        44.0004         24.0004
   2482740.77047   1079640.85945  20349656.8754                   20349657.0354
        45.7504         30.0004
   3361819.10946   2617599.32042  22926659.3984                   22926660.2584
        39.5004         17.7504
 19  3  5 22 19 30.0000000  0  6G07G11G13G28G30G08
   3301119.25047   2559986.20744  21955572.8134                   21955569.9064
        46.5004         26.7504
    147146.16846    977381.25442  22720100.4694                   22720098.8244
        38.5004         15.5004
   -912658.98047   -670047.82443  21563827.5554                   21563824.7814
        42.0004         20.2504
   -365041.71147   -255213.45744  20617447.8364                   20617443.8524
        45.0004         25.2504
   2476860.66047   1075058.98445  20348538.8364                   20348537.5274
        47.0004         31.2504
   3365041.15646   2620110.00042  22927272.5784                   22927273.3444
        41.7504         17.7504
 19  3  5 22 19 35.0000000  0  6G07G11G13G28G30G08
   3303759.95347   2562043.86744  21956075.3444                   21956071.8714
        46.7504         26.0004
    127279.78546    961900.97342  22716320.2814                   22716317.9264
        37.2504         13.7504
   -928942.30546   -682736.14543  21560729.4774                   21560726.3874
        41.2504         20.7504
   -379385.52747   -266390.46944  20614718.3674                   20614714.0594
        44.5004         25.5004
   2470999.97747   1070492.19945  20347423.3444                   20347422.1604
        46.5004         30.5004
   3368281.69946   2622635.06643  22927889.2194                   22927889.6134
        41.2504         18.2504
 19  3  5 22 19 40.0000000  0  6G07G11G13G28G30G08
   3306414.27347   2564112.18044  21956580.5234                   21956577.6724
        46.2504         25.2504
    107431.78546    946434.96142  22712543.1094                   22712541.5234
        38.7504         16.2504
   -945204.16047   -695407.68743  21557634.9614                   21557631.8244
        42.2504         20.7504
   -393714.16447   -277555.63344  20611991.2584                   20611987.5824
        44.5004         26.0004
   2465156.69547   1065939.01245  20346311.6334                   20346310.4534
        46.5004         31.5004
   3371536.79746   2625171.53542  22928508.6954                   22928509.0394
        40.7504         17.7504
 19  3  5 22 19 45.0000000  0  6G07G11G13G28G30G08
   3309081.37946   2566190.44543  21957087.1954                   21957084.6294
        41.0004         21.7504
     87601.25046    930982.55942  22708769.2114                   22708767.4734
        39.0004         15.5004
   -961444.60547   -708062.59443  21554544.2664                   21554541.0084
        42.7504         22.0004
   -408027.97347   -288709.25044  20609267.4844                   20609263.8284
        44.5004         25.5004
   2459330.29347   1061398.95745  20345202.2974                   20345201.7974
        46.0004         31.0004
   3374806.00846   2627718.99243  22929130.7194                   22929130.8914
        41.0004         19.2504
 19  3  5 22 19 50.0000000  0  6G07G11G13G28G30G08
   3311760.87946   2568278.39143  21957598.1954                   21957594.9804
        41.2504         19.2504
     67789.09446    915544.55142  22704999.2504                   22704996.9694
        39.0004         16.2504
   -977665.93747   -720702.57443  21551458.2034                   21551454.7194
        42.7504         22.5004
   -422329.42247   -299853.23844  20606546.3674                   20606542.5204
        44.7504         26.5004
   2453519.53547   1056871.10245  20344096.8914                   20344095.1604
        47.0004         31.2504
   3378091.80946   2630279.37942  22929756.0864                   22929756.1564
        41.0004         17.2504
 19  3  5 22 19 55.0000000  0  6G07G11G13G28G30G08
   3314452.887 6                  21958109.828
        37.500
     47994.97346    900120.57442  22701232.4614                   22701230.7074
        38.0004         15.5004
   -993869.50847   -733328.76643  21548374.3204                   21548371.3204
        42.0004         22.5004
   -436619.10247   -310988.07044  20603826.9224                   20603823.5514
        44.0004         25.2504
   2447724.09447   1052355.14845  20342993.5234                   20342993.3834
        46.0004         31.0004
   3381392.48846   2632851.29742  22930383.8524                   22930385.2384
        40.2504         17.7504
 19  3  5 22 20  0.0000000  0  6G07G11G13G28G30G08
   3317157.180 6                  21958624.961
        37.750
     28217.09846    884709.22742  22697468.9224                   22697466.9224
        38.0004         14.7504
  -1010051.09446   -745937.77743  21545294.8444                   21545291.9734
        41.5004         22.0004
   -450892.91847   -322110.51244  20601111.0864                   20601107.6454
        45.0004         24.0004
   2441945.64547   1047852.46145  20341894.5084                   20341894.1644
        46.2504         31.2504
   3384704.20346   2635431.83643  22931014.9064                   22931015.0944
        41.2504         18.5004
 19  3  5 22 20  5.0000000  0  6G07G11G13G28G30G08
   3319875.871 6                  21959141.805
        36.500
      8458.68446    869313.01642  22693708.8834                   22693707.4574
        39.0004         14.7504
  -1026210.03547   -758529.17643  21542220.2504                   21542216.6804
        43.2504         22.5004
   -465150.87947   -333220.60944  20598397.5704                   20598394.2894
        44.5004         24.7504
   2436185.41047   1043363.96545  20340798.1484                   20340797.5474
        46.0004         30.0004
   3388032.25447   2638025.11343  22931647.8284                   22931647.9384
        42.2504         20.0004
 19  3  5 22 20 10.0000000  0  6G07G11G13G28G30G08
   3322607.352 5                  21959661.695
        33.500
    -11281.13746    853931.37142  22689952.8594                   22689950.6254
        37.0004         14.7504
  -1042348.25847   -771104.40643  21539149.2734                   21539146.2274
        42.5004         22.0004
   -479395.04747   -344319.96144  20595687.3284                   20595683.7154
        44.7504         25.0004
   2430441.77347   1038888.41445  20339705.4144                   20339704.7814
        46.5004         30.5004
   3391376.84446   2640631.29743  22932284.8364                   22932285.1954
        40.7504         20.2504
 19  3  5 22 20 15.0000000  0  6G07G11G13G28G30G08
   3325350.031 5                  21960182.188
        32.250
    -31004.625 5                  22686199.328
        33.750
  -1058465.78947   -783663.52343  21536081.7114                   21536078.8484
        42.0004         21.7504
   -493625.22347   -355408.42244  20592979.0474                   20592975.9264
        44.5004         25.7504
   2424714.11747   1034425.29345  20338615.1484                   20338614.6134
        46.7504         30.5004
   3394734.79046   2643247.85543  22932922.8204                   22932923.8444
        40.7504         19.7504
 19  3  5 22 20 20.0000000  0  6G07G11G13G28G30G08
   3328103.820 4                  21960706.984
        28.750
    -50712.332 5                  22682448.359
        34.500
  -1074562.09847   -796206.07443  21533019.1484                   21533016.3554
        42.2504         21.7504
   -507841.39547   -366485.93044  20590273.8984                   20590270.9304
        45.2504         26.5004
   2419002.07447   1029974.36745  20337528.4064                   20337528.6454
        47.0004         32.5004
   3398105.58246   2645874.48043  22933565.2194                   22933565.6524
        41.0004         19.5004
 19  3  5 22 20 25.0000000  0  6G07G11G13G28G30G08
   3330868.789 5                  21961233.523
        30.250
    -70403.613 5                  22678701.383
        34.000
  -1090639.64847   -808734.06243  21529959.5784                   21529956.4774
        43.0004         22.7504
   -522045.02747   -377553.71544  20587570.7664                   20587567.9494
        45.0004         25.2504
   2413305.05947   1025535.13345  20336444.2114                   20336444.5044
        47.2504         31.5004
   3401489.07047   2648510.96943  22934210.1024                   22934208.9384
        42.0004         21.2504
 19  3  5 22 20 30.0000000  0  6G07G11G13G28G30G08
   3333644.859 5                  21961761.500
        35.000
    -90077.660 5                  22674958.359
        33.000
  -1106697.68047   -821246.80943  21526904.0864                   21526901.1454
        42.7504         23.2504
   -536236.25047   -388611.79744  20584870.3444                   20584867.9844
        45.2504         27.0004
   2407623.51647   1021107.95745  20335363.0704                   20335363.2934
        47.2504         31.5004
   3404888.85946   2651160.16843  22934855.0474                   22934856.2074
        41.5004         20.5004
 19  3  5 22 20 35.0000000  0  6G07G11G13G28G30G08
   3336434.844 5                  21962292.203
        33.000
   -109732.172 5                  22671217.195
        32.250
  -1122741.25447   -833748.29343  21523850.8284                   21523848.6054
        42.0004         22.0004
   -550417.44147   -399662.09044  20582171.9384                   20582169.4224
        45.5004         25.5004
   2401956.93447   1016692.44145  20334284.7194                   20334285.0354
        47.5004         31.5004
   3408303.11746   2653820.62143  22935505.0864                   22935505.8404
        41.2504         20.0004
 19  3  5 22 20 40.0000000  0  6G07G11G13G28G30G08
   3339234.105 4                  21962825.156
        29.750
   -129372.672 5                  22667481.000
        31.250
  -1138767.66047   -846236.41443  21520800.5394                   21520798.5394
        42.2504         20.7504
   -564587.34447   -410703.57444  20579475.1414                   20579473.2624
        44.7504         26.7504
   2396303.76247   1012287.36345  20333208.7584                   20333208.7034
        47.5004         32.5004
   3411726.19147   2656487.93843  22936157.1564                   22936157.8244
        42.7504         20.0004
 19  3  5 22 20 45.0000000  0  5G11G13G28G30G08
                                  22663746.531
        28.000
  -1154780.77747   -858714.15243  21517753.8594                   21517751.0084
        42.5004         22.0004
   -578748.74647   -421738.42644  20576781.1094                   20576778.3134
        45.5004         25.0004
   2390664.64147   1007893.24245  20332136.3284                   20332136.1764
        47.5004         32.0004
   3415165.17646   2659167.66443  22936810.5234                   22936812.5784
        41.0004         20.7504
 19  3  5 22 20 50.0000000  0  4G13G28G30G08
  -1170776.36747   -871178.24643  21514709.8594                   21514707.7074
        42.5004         21.7504
   -592898.52347   -432764.22744  20574088.0314                   20574085.7384
        45.0004         27.0004
   2385039.62947   1003510.11345  20331065.7584                   20331066.2464
        47.5004         31.2504
   3418614.70746   2661855.60543  22937467.5864                   22937469.1884
        38.7504         21.0004
 19  3  5 22 20 55.0000000  0  4G13G28G30G08
  -1186759.45347   -883632.60543  21511668.8364                   21511666.2464
        43.2504         22.0004
   -607041.13747   -443784.44944  20571397.2274                   20571394.4184
        44.7504         27.0004
   2379427.65647    999137.16045  20329998.0554                   20329997.8524
        47.5004         32.5004
   3422080.97746   2664556.58243  22938127.3674                   22938128.2544
        41.2504         20.5004
 19  3  5 22 21  0.0000000  0  4G13G28G30G08
  -1202720.69547   -896069.93743  21508631.3134                   21508628.5274
        42.5004         22.2504
   -621170.57447   -454794.39844  20568708.6094                   20568705.4924
        45.0004         26.5004
   2373827.36347    994773.27745  20328932.0784                   20328931.7664
        47.5004         33.2504
   3425551.75046   2667261.09443  22938787.6884                   22938788.0084
        41.2504         20.5004
 19  3  5 22 21  5.0000000  0  4G13G28G30G08
  -1218663.70246   -908493.07643  21505597.3834                   21505595.1914
        41.2504         22.7504
   -635288.39547   -465795.32444  20566021.3594                   20566018.3674
        44.0004         26.2504
   2368240.80947    990420.10545  20327868.9534                   20327868.7464
        47.7504         34.2504
   3429032.88347   2669973.61343  22939450.2344                   22939450.6454
        42.5004         22.0004
 19  3  5 22 21 10.0000000  0  4G13G28G30G08
  -1234592.37546   -920905.01243  21502566.1954                   21502563.8324
        41.5004         22.0004
   -649395.02747   -476787.50044  20563337.2504                   20563334.0084
        44.5004         26.2504
   2362670.99648    986079.97745  20326808.6644                   20326808.4414
        48.0004         34.2504
   3432528.75047   2672697.68043  22940116.0164                   22940116.0784
        43.7504         23.5004
 19  3  5 22 21 15.0000000  0  4G13G28G30G08
  -1250499.95747   -933300.52743  21499539.2664                   21499536.4774
        42.7504         21.5004
   -663488.32447   -487769.27344  20560655.5634                   20560652.2304
        44.7504         27.0004
   2357114.85947    981750.52745  20325751.8834                   20325751.0824
        47.7504         34.0004
   3436032.81647   2675428.14843  22940782.8674                   22940783.3094
        42.5004         23.7504
 19  3  5 22 21 20.0000000  0  4G13G28G30G08
  -1266389.20747   -945681.77743  21496515.6334                   21496512.7114
        43.5004         21.5004
   -677570.38347   -498742.32444  20557975.6024                   20557972.8284
        44.2504         27.2504
   2351571.80948    977431.26245  20324696.8364                   20324696.0204
        48.0004         34.7504
   3439547.34047   2678166.71544  22941451.0004                   22941451.2344
        43.5004         24.2504
 19  3  5 22 21 25.0000000  0  4G13G28G30G08
  -1282263.66847   -958051.47343  21493495.8444                   21493491.4064
        42.7504         22.7504
   -691642.69547   -509707.77044  20555297.9304                   20555294.3524
        44.2504         25.7504
   2346042.02048    973122.33645  20323644.6024                   20323644.2544
        48.5004         34.2504
   3443071.41846   2680912.79343  22942121.3054                   22942122.5784
        40.5004         22.7504
 19  3  5 22 21 30.0000000  0  4G13G28G30G08
  -1298125.27747   -970411.17643  21490476.6414                   21490473.0904
        43.0004         22.2504
   -705706.39147   -520666.48444  20552622.3984                   20552618.0824
        45.5004         27.0004
   2340526.27348    968824.35945  20322594.9384                   20322594.2734
        48.0004         35.0004
   3446609.00847   2683669.32043  22942794.9224                   22942794.9574
        42.0004         22.7504
 19  3  5 22 21 35.0000000  0  4G13G28G30G08
  -1313963.98847   -982753.02043  21487462.3914                   21487459.3244
        42.7504         22.7504
   -719754.77347   -531613.27044  20549948.4844                   20549945.1994
        45.0004         26.7504
   2335024.85948    964537.53545  20321547.8054                   20321547.8594
        48.2504         34.7504
   3450151.82746   2686429.95144  22943469.1954                   22943469.3914
        41.2504         26.2504
 19  3  5 22 21 40.0000000  0  4G13G28G30G08
  -1329787.62147   -995083.14844  21484451.6334                   21484448.0744
        43.0004         24.5004
   -733794.57447   -542553.38344  20547276.2504                   20547272.7814
        45.0004         27.2504
   2329536.18048    960260.62945  20320503.7034                   20320502.9304
        48.0004         34.5004
   3453709.01647   2689201.76644  22944147.1724                   22944145.6884
        44.7504         24.0004
 19  3  5 22 21 45.0000000  0  4G13G28G30G08
  -1345596.30947  -1007401.62943  21481442.4384                   21481439.8444
        42.2504         23.2504
   -747822.65647   -553484.36744  20544606.5474                   20544603.6214
        43.5004         25.5004
   2324064.05147    955996.62145  20319462.0394                   20319461.4414
        47.0004         34.2504
   3457278.10217                  22944825.289
        42.000
 19  3  5 22 21 50.0000000  0  4G13G28G30G08
  -1361388.94147  -1019707.57443  21478437.7194                   21478434.7704
        42.0004         22.5004
   -761839.52747   -564406.61744  20541939.9384                   20541935.9104
        44.2504         26.2504
   2318609.24648    951746.12145  20318424.6644                   20318423.2304
        48.2504         35.0004
   3460867.28246   2691425.63353  22945508.6954                   22945508.7304
        38.0004         21.5004
 19  3  5 22 21 55.0000000  0  4G13G28G30G08
  -1377163.95747  -1031999.80543  21475435.9844                   21475432.6294
        42.5004         22.5004
   -775845.12547   -575320.05944  20539274.6334                   20539271.5204
        44.2504         27.5004
   2313170.84047    947508.41045  20317389.5234                   20317388.4384
        47.5004         34.0004
   3464478.04747   2694239.19143  22946196.4064                   22946195.2234
        42.5004         21.2504
 19  3  5 22 22  0.0000000  0  4G13G28G30G08
  -1392916.98447  -1044274.89144  21472437.8674                   21472434.7274
        42.7504         24.7504
   -789836.83647   -586222.68444  20536612.2894                   20536608.0984
        45.0004         27.7504
   2307749.10547    943283.67245  20316357.0474                   20316356.6884
        47.2504         34.7504
   3468107.59446   2697067.43443  22946887.0234                   22946886.1954
        36.2504         20.0004
 19  3  5 22 22  5.0000000  0  4G13G28G30G08
  -1408647.62147  -1056532.51243  21469445.1484                   21469441.3914
        43.0004         22.7504
   -803813.18747   -597113.35944  20533952.6174                   20533948.7424
        44.7504         27.2504
   2302343.63747    939071.60945  20315329.2344                   20315327.9384
        47.2504         34.7504
   3471747.31347   2699903.54343  22947578.5004                   22947578.8554
        42.5004         21.5004
 19  3  5 22 22 10.0000000  0  4G13G28G30G08
  -1424359.83247  -1068775.80143  21466454.6644                   21466451.2464
        43.2504         22.5004
   -817777.41447   -607994.56644  20531295.4844                   20531291.7974
        44.7504         27.5004
   2296953.93447    934871.85545  20314303.6334                   20314302.6334
        47.5004         34.2504
   3475402.52747   2702751.79343  22948274.6954                   22948273.9414
        43.0004         21.5004
 19  3  5 22 22 15.0000000  0  4G13G28G30G08
  -1440046.65247  -1080999.28943  21463469.6094                   21463466.1914
        42.5004         22.0004
   -831722.52347   -618860.89544  20528641.5394                   20528637.7664
        45.0004         25.5004
   2291583.85947    930687.39145  20313281.7274                   20313280.7584
        47.7504         34.0004
   3479068.41446   2705608.28943  22948972.2114                   22948971.7774
        39.2504         21.5004
 19  3  5 22 22 20.0000000  0  4G13G28G30G08
  -1455709.30947  -1093203.98443  21460489.1334                   21460485.7584
        43.5004         23.0004
   -845650.59447   -629713.93044  20525991.0004                   20525987.3594
        44.7504         27.0004
   2286233.65647    926518.39845  20312263.7584                   20312262.7934
        47.7504         34.5004
   3482753.66846   2708479.91043  22949672.8594                   22949673.7974
        38.5004         20.5004
 19  3  5 22 22 25.0000000  0  4G13G28G30G08
  -1471353.22747  -1105394.03543  21457511.7274                   21457508.6024
        43.5004         22.7504
   -859566.10547   -640557.19144  20523343.0634                   20523339.5514
        45.0004         26.2504
   2280898.58247    922361.19545  20311248.0554                   20311247.6844
        47.2504         34.2504
   3486449.89546   2711360.11743  22950375.5474                   22950376.9654
        41.7504         21.2504
 19  3  5 22 22 30.0000000  0  4G13G28G30G08
  -1486980.59946  -1117571.21843  21454538.8594                   21454535.5234
        41.5004         22.0004
   -873471.49647   -651392.54744  20520696.9844                   20520693.1914
        44.2504         25.7504
   2275576.05547    918213.76245  20310235.1804                   20310234.6054
        47.2504         33.5004
   3490155.63747   2714247.68443  22951081.3054                   22951080.9264
        43.0004         20.5004
 19  3  5 22 22 35.0000000  0  4G13G28G30G08
  -1502590.93747  -1129735.10943  21451568.2504                   21451564.4224
        43.0004         21.5004
   -887366.91047   -662220.16444  20518053.2274                   20518048.8754
        45.7504         25.0004
   2270267.31647    914077.07845  20309225.4454                   20309224.7274
        47.7504         33.7504
   3493877.39146   2717147.77343  22951790.3524                   22951790.2894
        41.0004         21.5004
 19  3  5 22 22 40.0000000  0  4G13G28G30G08
  -1518185.42247  -1141886.66043  21448600.4144                   21448597.6724
        42.0004         21.5004
   -901251.13747   -673039.04744  20515410.6884                   20515407.3014
        44.0004         26.0004
   2264972.99647    909951.62545  20308217.8914                   20308217.2424
        47.5004         33.5004
   3497607.24247   2720054.09843  22952500.4304                   22952499.9414
        42.0004         20.5004
 19  3  5 22 22 45.0000000  0  4G13G28G30G08
  -1533763.98447  -1154025.80943  21445635.7584                   21445633.1254
        42.5004         22.0004
   -915126.19547   -683850.77744  20512769.8834                   20512766.5704
        44.7504         26.0004
   2259691.48847    905836.15245  20307212.3524                   20307212.1684
        47.0004         33.2504
   3501351.62547   2722971.78943  22953212.2504                   22953211.8834
        45.7504         22.0004
 19  3  5 22 22 50.0000000  0  4G13G28G30G08
  -1549325.66447  -1166151.80143  21442674.5234                   21442671.3134
        42.2504         22.2504
   -928988.48047   -694652.54744  20510132.7504                   20510128.7774
        44.0004         25.2504
   2254426.60547    901733.64845  20306210.5314                   20306210.1564
        46.7504         32.5004
   3505106.23447   2725897.45344  22953927.0474                   22953925.9924
        47.2504         29.5004
 19  3  5 22 22 55.0000000  0  4G13G28G30G08
  -1564871.51647  -1178265.47743  21439716.6564                   21439713.6724
        42.0004         22.2504
   -942839.04747   -705445.21144  20507496.9694                   20507493.2664
        43.5004         24.0004
   2249178.69547    897644.34845  20305212.3524                   20305211.2194
        46.5004         32.0004
   3508875.33647   2728834.39845  22954643.6564                   22954643.5314
        46.2504         30.5004
 19  3  5 22 23  0.0000000  0  4G13G28G30G08
  -1580399.55946  -1190365.22343  21436761.2194                   21436758.2854
        41.5004         22.5004
   -956678.47347   -716229.16443  20504862.8134                   20504859.3714
        43.7504         23.2504
   2243945.24647    893566.35945  20304216.1024                   20304215.8984
        46.5004         31.7504
   3512659.03947   2731782.73845  22955362.0234                   22955363.4924
        44.2504         31.0004
 19  3  5 22 23  5.0000000  0  4G13G28G30G08
  -1595910.93747  -1202452.00443  21433810.0784                   21433806.8054
        42.5004         22.2504
   -970507.69547   -727005.19144  20502231.6414                   20502227.7424
        44.0004         24.7504
   2238725.80547    889499.25445  20303222.7974                   20303222.2624
        46.2504         32.0004
   3516457.32047   2734742.45345  22956088.3284                   22956087.0234
        47.5004         31.5004
 19  3  5 22 23 10.0000000  0  4G13G28G30G08
  -1611404.00446  -1214524.59443  21430861.6804                   21430858.4534
        41.2504         21.2504
   -984324.52347   -737771.54743  20499602.5314                   20499598.5664
        43.2504         23.5004
   2233522.59847    885444.80145  20302232.9064                   20302232.3134
        46.2504         31.2504
   3520270.99647   2737714.12145  22956812.3754                   22956812.4804
        46.0004         32.2504
 19  3  5 22 23 15.0000000  0  4G13G28G30G08
  -1626868.30147  -1226574.68043  21427918.5554                   21427915.6174
        42.5004         21.5004
   -998123.63747   -748524.14144  20496976.8984                   20496972.9694
        44.0004         26.0004
   2228337.17647    881404.20345  20301246.2114                   20301245.9964
        45.7504         31.5004
   3524104.96547   2740701.65244  22957542.1024                   22957542.5234
        45.7504         28.7504
 19  3  5 22 23 20.0000000  0  4G13G28G30G08
  -1642302.03147  -1238600.95743  21424981.7664                   21424979.1484
        43.0004         21.0004
  -1011904.02747   -759262.10244  20494354.0944                   20494351.5164
        44.0004         26.2504
   2223169.88747    877377.73445  20300263.3204                   20300262.6334
        46.0004         30.2504
   3527960.60247   2743706.04744  22958275.2274                   22958276.1094
        45.0004         28.5004
 19  3  5 22 23 25.0000000  0  4G13G28G30G08
  -1657710.09847  -1250607.22743  21422049.7894                   21422047.2464
        42.2504         21.7504
  -1025665.52747   -769985.34844  20491735.3834                   20491732.9104
        44.2504         24.7504
   2218024.07447    873368.02344  20299283.6724                   20299283.9384
        45.7504         29.7504
   3531835.64147   2746725.52744  22959013.3364                   22959014.0514
        44.7504         28.5004
 19  3  5 22 23 30.0000000  0  4G13G28G30G08
  -1673092.84847  -1262593.82043  21419123.0704                   21419119.6804
        42.5004         21.7504
  -1039408.51647   -780694.17244  20489120.4304                   20489117.6484
        44.0004         25.5004
   2212899.35247    869374.71945  20298308.8524                   20298308.3754
        46.0004         30.2504
   3535729.52347   2749759.72744  22959754.0164                   22959754.5864
        45.0004         27.7504
 19  3  5 22 23 35.0000000  0  4G13G28G30G08
  -1688450.87546  -1274561.06243  21416199.7814                   21416197.5124
        41.5004         22.5004
  -1053133.55947   -791389.00844  20486508.5234                   20486506.0434
        44.0004         26.0004
   2207795.21547    865397.48445  20297336.9694                   20297337.2854
        46.2504         30.5004
   3539641.79747   2752808.23044  22960498.9844                   22960499.0744
        46.0004         29.0004
 19  3  5 22 23 40.0000000  0  4G13G28G30G08
  -1703785.62947  -1286510.26243  21413282.3984                   21413279.2074
        42.7504         22.5004
  -1066842.09847   -802070.98444  20483899.7424                   20483897.2624
        44.2504         24.7504
   2202710.21947    861435.14145  20296369.3364                   20296369.4844
        46.0004         30.5004
   3543570.81647   2755869.83244  22961245.5234                   22961247.0634
        46.2504         28.5004
 19  3  5 22 23 45.0000000  0  4G13G28G30G08
  -1719097.74646  -1298441.78543  21410368.4844                   21410365.2464
        38.5004         22.0004
  -1080534.67647   -812740.52044  20481294.3054                   20481291.7774
        43.7504         25.2504
   2197643.76247    857487.23844  20295405.5004                   20295405.4024
        46.0004         29.7504
   3547516.08247   2758944.05144  22961996.2504                   22961997.6844
        44.0004         28.5004
 19  3  5 22 23 50.0000000  0  4G13G28G30G08
  -1734387.72347  -1310356.03143  21407458.3594                   21407455.7154
        42.7504         22.0004
  -1094212.07047   -823398.23844  20478691.7814                   20478688.8404
        44.7504         25.0004
   2192595.14847    853553.27045  20294444.7194                   20294445.2344
        46.2504         30.7504
   3551476.98047   2762030.44944  22962751.3594                   22962751.3914
        44.5004         29.0004
 19  3  5 22 23 55.0000000  0  4G13G28G30G08
  -1749655.35246  -1322252.90243  21404552.9224                   21404551.1134
        41.5004         22.5004
  -1107873.85547   -834043.78944  20476092.0944                   20476088.7854
        44.5004         24.5004
   2187564.75847    849633.50045  20293486.8834                   20293487.4064
        46.2504         30.5004
   3555453.80947   2765129.27044  22963507.8204                   22963508.0944
        46.5004         29.0004
 19  3  5 22 24  0.0000000  0  4G13G28G30G08
  -1764900.74247  -1334132.40643  21401651.7664                   21401649.4454
        43.2504         21.0004
  -1121520.64546   -844677.63743  20473494.7194                   20473492.2114
        39.7504         22.0004
   2182551.28547    845726.86745  20292533.1334                   20292533.9844
        46.0004         31.0004
   3559445.04747   2768239.35944  22964266.8134                   22964267.5314
        43.7504         28.5004
 19  3  5 22 24  5.0000000  0  4G13G28G30G08
  -1780125.684 4                  21398756.422
        29.000
  -1135153.55946   -855300.64543  20470900.7664                   20470897.9924
        39.2504         19.2504
   2177555.04347    841833.71144  20291582.6644                   20291582.8634
        45.0004         29.5004
   3563451.46147   2771361.23044  22965029.4614                   22965030.2814
        44.5004         27.7504
 19  3  5 22 24 10.0000000  0  4G13G28G30G08
  -1795329.844 6                  21395862.102
        36.500
  -1148772.02346   -865912.55142  20468308.9614                   20468306.3754
        39.0004         17.7504
   2172575.66447    837953.61345  20290634.9454                   20290635.9144
        47.0004         32.2504
   3567472.32847   2774494.33644  22965794.2034                   22965795.5164
        46.0004         29.5004
 19  3  5 22 24 15.0000000  0  4G13G28G30G08
  -1810513.387 5                  21392971.859
        35.500
  -1162377.11747   -876513.89843  20465719.8054                   20465717.8014
        44.5004         19.0004
   2167612.51647    834086.24645  20289690.5234                   20289691.1844
        46.5004         31.2504
   3571507.07047   2777638.33244  22966561.0944                   22966563.2974
        43.5004         29.7504
 19  3  5 22 24 20.0000000  0  4G13G28G30G08
  -1825676.145 6                  21390085.719
        38.500
  -1175968.04747   -887104.24643  20463133.1884                   20463131.5314
        43.0004         21.5004
   2162666.04347    830231.86345  20288748.4304                   20288750.2074
        45.7504         30.2504
   3575556.28547   2780793.46144  22967333.6484                   22967334.2734
        45.0004         29.2504
 19  3  5 22 24 25.0000000  0  4G13G28G30G08
  -1840817.863 6                  21387205.422
        37.000
  -1189544.77746   -897683.50443  20460550.3204                   20460547.6254
        39.7504         20.0004
   2157736.29347    826390.48845  20287811.4534                   20287811.3754
        46.2504         32.2504
   3579619.72347   2783959.84045  22968105.7424                   22968106.9844
        46.2504         31.0004
 19  3  5 22 24 30.0000000  0  4G13G28G30G08
  -1855938.641 6                  21384327.320
        37.500
  -1203107.42647   -908251.78543  20457969.6484                   20457966.8284
        44.5004         22.5004
   2152823.31647    822562.22745  20286876.0944                   20286876.9494
        44.5004         30.0004
   3583697.53547   2787137.39144  22968880.4774                   22968883.2584
        44.5004         29.7504
 19  3  5 22 24 35.0000000  0  4G13G28G30G08
  -1871038.660 6                  21381455.648
        38.750
  -1216656.20347   -918809.26643  20455390.9454                   20455388.4804
        44.5004         22.5004
   2147926.87147    818746.80544  20285943.8754                   20285944.6134
        45.2504         29.2504
   3587789.54347   2790325.90244  22969661.7734                   22969661.9574
        43.7504         29.0004
 19  3  5 22 24 40.0000000  0  4G13G28G30G08
  -1886118.090 6                  21378583.953
        38.500
  -1230191.20347   -929356.04344  20452815.1174                   20452812.9844
        44.5004         26.7504
   2143046.78947    814944.10545  20285015.6094                   20285016.3794
        45.2504         32.5004
   3591895.50447   2793525.32845  22970442.7274                   22970443.9804
        47.0004         32.5004
 19  3  5 22 24 45.0000000  0  4G13G28G30G08
  -1901176.926 6                  21375718.961
        38.750
  -1243712.51647   -939892.11744  20450242.4924                   20450240.3404
        44.2504         25.7504
   2138183.02347    811154.16045  20284090.5234                   20284090.9024
        45.5004         32.0004
   3596015.29347   2796735.64145  22971225.0474                   22971227.2154
        44.7504         31.7504
 19  3  5 22 24 50.0000000  0  4G13G28G30G08
  -1916215.566 6                  21372857.977
        38.750
  -1257220.46147   -950417.78144  20447671.8134                   20447669.4614
        44.5004         26.0004
   2133335.22347    807376.65245  20283167.8444                   20283168.1954
        45.5004         31.7504
   3600148.82447   2799956.50045  22972013.7114                   22972013.0904
        44.0004         31.7504
 19  3  5 22 24 55.0000000  0  4G13G28G30G08
  -1931233.719 6                  21369999.953
        38.500
  -1270714.87947   -960932.94144  20445103.9454                   20445101.1914
        44.5004         26.5004
   2128503.60547    803611.74245  20282248.4304                   20282248.6414
        46.2504         33.5004
   3604296.03547   2803188.07845  22972802.1174                   22972802.8404
        47.0004         32.7504
 19  3  5 22 25  0.0000000  0  4G13G28G30G08
  -1946231.562 6                  21367146.313
        38.500
  -1284195.84847   -971437.60943  20442538.3054                   20442536.2114
        43.2504         23.2504
   2123688.00847    799859.31345  20281332.0164                   20281332.4454
        45.0004         31.7504
   3608456.77347   2806430.24245  22973591.8594                   22973594.7384
        44.5004         31.7504
 19  3  5 22 25  5.0000000  0  4G13G28G30G08
  -1961209.223 6                  21364295.852
        39.250
  -1297663.43447   -981931.83243  20439975.8524                   20439973.1804
        44.2504         22.7504
   2118888.43047    796119.37145  20280418.6484                   20280419.0354
        45.0004         30.5004
   3612631.12546   2809682.93845  22974387.8204                   22974388.5784
        41.5004         30.5004
 19  3  5 22 25 10.0000000  0  4G13G28G30G08
  -1976166.609 6                  21361449.188
        38.750
  -1311117.75847   -992415.71543  20437415.7664                   20437412.8324
        43.2504         23.0004
   2114104.70747    792391.82045  20279508.1644                   20279508.0904
        45.0004         30.7504
   3616818.71547   2812945.98445  22975185.6954                   22975185.3874
        45.2504         30.5004
 19  3  5 22 25 15.0000000  0  4G13G28G30G08
  -1991103.746 6                  21358605.961
        38.250
  -1324558.73847  -1002889.20343  20434857.4694                   20434854.8984
        43.2504         22.5004
   2109336.98447    788676.71145  20278600.6884                   20278600.8204
        44.5004         31.0004
   3621019.83247   2816219.60945  22975983.5634                   22975984.7194
        46.2504         30.0004
 19  3  5 22 25 20.0000000  0  4G13G28G30G08
  -2006020.859 6                  21355767.703
        39.000
  -1337986.62147  -1013352.47743  20432302.2974                   20432299.4494
        43.0004         22.5004
   2104584.94147    784973.83644  20277696.2504                   20277696.7114
        44.5004         29.5004
   3625234.27047   2819503.60544  22976784.5554                   22976786.6024
        43.0004         29.0004
 19  3  5 22 25 25.0000000  0  4G13G28G30G08
  -2020917.777 6                  21352932.969
        38.750
  -1351401.19947  -1023805.40644  20429750.3054                   20429746.6524
        44.0004         25.0004
   2099848.85547    781283.33645  20276795.4694                   20276795.4804
        44.2504         31.5004
   3629462.17647   2822798.00045  22977591.4454                   22977591.5314
        43.5004         31.7504
 19  3  5 22 25 30.0000000  0  4G13G28G30G08
  -2035794.855 6                  21350103.141
        38.500
  -1364802.87947  -1034248.26644  20427199.4694                   20427196.4454
        43.7504         24.7504
   2095128.23847    777604.95745  20275896.8204                   20275897.0634
        44.5004         31.0004
   3633702.97347   2826102.55545  22978398.0784                   22978398.0354
        45.0004         31.2504
 19  3  5 22 25 35.0000000  0  5G11G13G28G30G08
   3096524.49215                  22452962.680
        32.500
  -2050651.812 6                  21347273.852
        39.250
  -1378191.29347  -1044680.78944  20424651.4774                   20424648.5514
        44.0004         24.0004
   2090423.48047    773938.92645  20275001.6564                   20275002.1764
        44.5004         30.5004
   3637957.20347   2829417.53945  22979206.9614                   22979207.3444
        46.0004         30.0004
 19  3  5 22 25 40.0000000  0  5G11G13G28G30G08
   3077975.695 5                  22449433.031
        33.500
  -2065488.816 6                  21344451.273
        38.750
  -1391566.74647  -1055103.23444  20422106.5004                   20422103.2384
        43.7504         25.2504
   2085734.40247    770285.05945  20274109.6484                   20274109.4224
        44.5004         31.5004
   3642224.62547   2832742.81645  22980018.1644                   22980019.8524
        43.2504         31.5004
 19  3  5 22 25 45.0000000  0  5G11G13G28G30G08
   3059444.734 5                  22445907.172
        33.250
  -2080305.766 6                  21341632.203
        37.500
  -1404929.13347  -1065515.48044  20419563.7034                   20419560.2934
        43.0004         24.5004
   2081060.95347    766643.42645  20273220.0004                   20273219.6604
        44.5004         31.7504
   3646505.11747   2836078.19545  22980834.7584                   22980834.2304
        44.5004         30.7504
 19  3  5 22 25 50.0000000  0  5G11G13G28G30G08
   3040931.848 5                  22442382.813
        33.750
  -2095102.477 6                  21338817.281
        38.000
  -1418278.25447  -1075917.39144  20417024.0084                   20417020.3014
        43.5004         24.0004
   2076403.42647    763014.18845  20272334.0634                   20272334.0944
        44.5004         31.7504
   3650798.89847   2839424.03545  22981650.8594                   22981651.7974
        45.5004         31.0004
 19  3  5 22 25 55.0000000  0  5G11G13G28G30G08
   3022436.695 5                  22438864.609
        33.250
  -2109879.344 6                  21336004.914
        38.250
  -1431614.48847  -1086309.27044  20414485.9224                   20414482.8014
        43.0004         24.0004
   2071761.42647    759397.04345  20271450.5164                   20271450.8914
        44.5004         31.5004
   3655105.59047   2842779.93845  22982469.9844                   22982470.7894
        44.7504         31.2504
 19  3  5 22 26  0.0000000  0  5G11G13G28G30G08
                                  22435346.984
        33.500
  -2124636.520 6                  21333195.750
        38.000
  -1444938.00847  -1096691.21943  20411950.0474                   20411947.4184
        43.7504         23.5004
   2067134.72347    755791.84045  20270569.3524                   20270570.1644
        44.5004         31.0004
   3659425.15647   2846145.82045  22983291.5634                   22983292.5904
        43.5004         30.0004
 19  3  5 22 26  5.0000000  0  5G11G13G28G30G08
   2985499.602 5                  22431833.844
        33.500
  -2139373.578 6                  21330391.797
        38.250
  -1458248.43447  -1107062.96943  20409417.1174                   20409414.3014
        44.5004         23.5004
   2062523.78547    752198.90245  20269692.4694                   20269692.3554
        44.2504         30.2504
   3663757.86347   2849521.89544  22984117.7194                   22984116.5864
        45.0004         29.2504
 19  3  5 22 26 10.0000000  0  5G11G13G28G30G08
   4542481.645 5                  22728119.141
        34.000
   -578667.613 6                  21627385.617
        38.750
    103876.93847    110177.57443  20706680.3444                   20706676.7854
        43.5004         23.5004
   3633349.48447   1976218.89545  20568611.2194                   20568610.5394
        44.7504         31.7504
   5243522.66447   4080507.49245  23284735.0864                   23284736.5234
        45.0004         31.0004
 19  3  5 22 26 15.0000000  0  5G11G13G28G30G08
   4524057.668 5                  22724612.734
        35.250
   -593364.879 6                  21624588.609
        38.500
     90592.43847     99826.00444  20704152.1024                   20704148.7544
        43.0004         25.0004
   3628769.68047   1972650.23845  20567739.1024                   20567739.1174
        44.7504         32.2504
   5247881.20747   4083903.78145  23285565.2344                   23285566.0594
        44.5004         32.2504
 19  3  5 22 26 20.0000000  0  5G11G13G28G30G08
   4505651.270 5                  22721110.117
        35.500
   -608042.488 6                  21621794.109
        38.000
     77320.55547     89484.29343  20701626.0474                   20701623.4494
        42.7504         23.0004
   3624205.12947   1969093.46144  20566870.5784                   20566870.5234
        45.0004         29.2504
   5252252.45347   4087309.94144  23286397.3284                   23286397.7814
        45.0004         29.0004
 19  3  5 22 26 25.0000000  0  5G11G13G28G30G08
   4487262.207 5                  22717611.109
        35.500
   -622700.641 6                  21619006.281
        38.250
     64061.09047     79152.21544  20699103.5234                   20699099.9924
        42.5004         25.0004
   3619655.64547   1965548.36345  20566005.3364                   20566005.4024
        45.2504         31.7504
   5256636.09847   4090725.75045  23287231.9924                   23287232.0824
        45.2504         32.5004
 19  3  5 22 26 30.0000000  0  5G11G13G28G30G08
   4468890.887 6                  22714115.734
        36.000
   -637339.000 6                  21616219.492
        37.000
     50814.45347     68830.18843  20696582.3134                   20696579.4774
        42.5004         23.0004
   3615121.59447   1962015.34445  20565142.0864                   20565142.8284
        44.7504         31.2504
   5261032.53147   4094151.54745  23288067.6174                   23288068.9964
        45.2504         31.2504
 19  3  5 22 26 35.0000000  0  5G11G13G28G30G08
   4450537.066 6                  22710623.430
        36.500
   -651957.746 6                  21613437.891
        38.500
     37580.42647     58517.94943  20694064.5164                   20694061.2464
        43.7504         22.7504
   3610602.75047   1958494.19145  20564282.2814                   20564282.5394
        45.0004         30.2504
   5265441.50847   4097587.08245  23288907.4454                   23288907.7154
        45.5004         30.7504
 19  3  5 22 26 40.0000000  0  5G11G13G28G30G08
   4432200.859 6                  22707133.477
        37.000
   -666556.719 6                  21610659.648
        38.250
     24359.10947     48215.62943  20691547.5474                   20691545.1724
        43.2504         21.5004
   3606099.31347   1954985.02345  20563425.0164                   20563425.3984
        44.2504         30.0004
   5269863.18847   4101032.59044  23289747.7344                   23289748.8054
        45.0004         29.5004
 19  3  5 22 26 45.0000000  0  5G11G13G28G30G08
   4413882.496 6                  22703647.070
        37.250
   -681135.875 6                  21607885.336
        38.250
     11150.62147     37923.32443  20689034.4454                   20689031.6414
        42.5004         21.7504
   3601611.30147   1951487.86345  20562571.3134                   20562571.0314
        44.5004         30.0004
   5274297.62947   4104487.98044  23290591.6094                   23290592.9924
        44.5004         29.2504
 19  3  5 22 26 50.0000000  0  5G11G13G28G30G08
   4395581.691 6                  22700164.805
        38.250
   -695695.437 6                  21605115.219
        39.750
     -2045.28547     27640.77043  20686523.0784                   20686520.4614
        43.0004         22.0004
   3597138.50847   1948002.57044  20561719.6174                   20561720.2154
        45.2504         29.0004
   5278744.62147   4107953.14144  23291438.5314                   23291439.5204
        44.5004         27.5004
 19  3  5 22 26 55.0000000  0  5G11G13G28G30G08
   4377298.516 6                  22696685.859
        38.250
   -710235.223 6                  21602347.164
        40.000
    -15228.50046     17368.14843  20684014.4614                   20684011.8014
        40.2504         20.5004
   3592681.01247   1944529.17245  20560871.5394                   20560872.1334
        44.5004         31.7504
   5283204.15247   4111428.07044  23292287.0164                   23292287.8954
        45.0004         29.5004
 19  3  5 22 27  0.0000000  0  5G11G13G28G30G08
   4359033.031 6                  22693209.875
        39.250
   -724755.262 6                  21599584.594
        38.750
    -28399.05547      7105.35943  20681508.3914                   20681505.7464
        42.0004         19.5004
   3588238.82447   1941067.72745  20560026.3674                   20560026.4414
        45.7504         32.7504
   5287676.31347   4114912.92245  23293137.6334                   23293138.9104
        45.0004         30.7504
 19  3  5 22 27  5.0000000  0  5G11G13G28G30G08
   4340784.766 6                  22689737.234
        38.500
   -739256.035 6                  21596825.883
        40.500
    -41557.26646     -3147.74243  20679004.4064                   20679002.0984
        39.7504         19.2504
   3583811.51247   1937617.91045  20559183.5394                   20559183.9774
        45.5004         30.2504
   5292160.72747   4118407.25044  23293990.7114                   23293992.1334
        43.5004         29.2504
 19  3  5 22 27 10.0000000  0  5G11G13G28G30G08
   4322554.031 6                  22686268.313
        38.500
   -753737.078 6                  21594069.063
        37.000
    -54703.02746    -13391.20743  20676503.2114                   20676500.4264
        40.5004         19.2504
   3579399.41047   1934179.88345  20558344.8204                   20558344.6564
        45.2504         33.5004
   5296657.64147   4121911.33245  23294849.1254                   23294848.3714
        45.0004         31.7504
 19  3  5 22 27 15.0000000  0  5G11G13G28G30G08
   4304340.680 6                  22682802.844
        39.000
   -768198.648 6                  21591316.969
        36.500
    -67836.46547    -23625.06643  20674003.8444                   20674001.5744
        43.0004         19.0004
   3575002.20747   1930753.48445  20557507.9844                   20557508.1724
        45.2504         31.5004
   5301166.61347   4125424.82045  23295705.8834                   23295706.7704
        46.2504         31.0004
 19  3  5 22 27 20.0000000  0  5G11G13G28G30G08
   4286144.480 6                  22679340.156
        40.000
                                  21588570.695
        31.000
    -80957.80546    -33849.40642  20671507.5784                   20671504.8594
        39.7504         17.7504
   3570619.76647   1927338.66044  20556674.4224                   20556674.7464
        46.2504         28.0004
   5305687.53947   4128947.70344  23296564.9304                   23296567.9064
        45.5004         28.0004
 19  3  5 22 27 25.0000000  0  5G11G13G28G30G08
   4267965.891 6                  22675880.898
        39.750
   -797063.15616                  21585826.031
        39.000
    -94066.58247    -44064.08642  20669012.4774                   20669010.7034
        43.0004         14.7504
   3566252.54347   1923935.60945  20555843.2344                   20555843.6994
        46.7504         31.2504
   5310220.98847   4132480.18444  23297428.9384                   23297429.8094
        43.5004         29.0004
 19  3  5 22 27 30.0000000  0  5G11G13G28G30G08
   4249804.508 6                  22672424.555
        40.250
   -811466.398 6                  21583085.023
        36.000
   -107163.17647    -54269.22342  20666520.0634                   20666518.6484
        42.2504         16.7504
   3561900.10547   1920544.10544  20555014.9144                   20555015.0394
        45.7504         28.5004
   5314766.39547   4136022.10544  23298293.8754                   23298294.6094
        46.5004         28.0004
 19  3  5 22 27 35.0000000  0  5G11G13G28G30G08
   4231660.84846   2072288.78953  22668972.2814                   22668969.8794
        39.5004         19.2504
   -825850.453 5                  21580347.313
        32.250
   -120247.12546    -64464.46942  20664030.7424                   20664028.5784
        40.2504         17.2504
   3557562.92247   1917164.49244  20554189.2274                   20554189.1134
        46.0004         29.5004
   5319324.21947   4139573.69144  23299159.7734                   23299161.4734
        45.7504         28.0004
 19  3  5 22 27 40.0000000  0  5G11G13G28G30G08
   4213534.07446   2058164.05943  22665522.9774                   22665520.4064
        39.7504         18.2504
   -840215.33216                  21577614.102
        39.500
   -133319.33647    -74650.65643  20661543.7974                   20661540.4024
        42.7504         18.2504
   3553240.16847   1913796.10244  20553366.9614                   20553366.6724
        45.0004         29.7504
   5323893.76647   4143134.35944  23300029.3834                   23300031.1884
        43.5004         29.5004
 19  3  5 22 27 45.0000000  0  5G11G13G28G30G08
   4195424.00046   2044052.34043  22662076.1954                   22662074.4064
        40.2504         18.2504
   -854561.703 5                  21574881.969
        33.500
   -146379.82447    -84827.61343  20659058.3524                   20659054.6484
        44.2504         20.2504
   3548931.74247   1910438.89145  20552546.8594                   20552547.1334
        44.7504         30.5004
   5328474.92247   4146704.05144  23300902.4774                   23300903.0084
        44.2504         29.5004
 19  3  5 22 27 50.0000000  0  5G11G13G28G30G08
   4177330.20746   2029953.25043  22658633.6334                   22658630.8834
        40.0004         18.2504
   -868889.570 6                  21572156.648
        40.750
   -159429.18447    -94995.94943  20656574.5704                   20656571.4534
        43.2504         23.0004
   3544637.05147   1907092.37545  20551729.7584                   20551730.1214
        45.2504         31.0004
   5333066.84847   4150282.19944  23301776.1414                   23301776.6724
        45.0004         29.7504
 19  3  5 22 27 55.0000000  0  5G11G13G28G30G08
   4159252.89846   2015867.06343  22655193.6024                   22655191.4654
        39.5004         18.5004
   -883198.97346   -141608.79753  21569433.7424                   21569431.3054
        41.2504         22.0004
   -172467.21547   -105155.45744  20654093.2114                   20654090.6994
        43.0004         25.2504
   3540356.39547   1903756.79745  20550915.1564                   20550915.5744
        45.0004         30.0004
   5337669.93047   4153869.02045  23302651.1804                   23302652.7704
        46.0004         30.0004
 19  3  5 22 28  0.0000000  0  5G11G13G28G30G08
   4141192.34446   2001793.88343  22651756.9534                   22651754.6724
        41.2504         18.2504
   -897489.60946   -152744.37943  21566714.5944                   21566712.1454
        41.7504         22.2504
   -185493.61747   -115305.90243  20651615.0704                   20651612.1254
        43.5004         23.5004
   3536089.96147   1900432.31345  20550103.4224                   20550103.5234
        45.2504         30.5004
   5342284.50847   4157464.77045  23303529.4384                   23303530.7624
        44.2504         30.0004
 19  3  5 22 28  5.0000000  0  5G11G13G28G30G08
   4123148.48446   1987733.73843  22648322.8054                   22648321.1644
        41.0004         19.2504
   -911761.51646   -163865.37943  21563998.6884                   21563995.8984
        41.2504         22.5004
   -198508.44147   -125447.32044  20649137.8984                   20649135.6954
        43.2504         24.5004
   3531837.75847   1897118.89845  20549293.9924                   20549294.3984
        44.5004         30.2504
   5346910.37147   4161069.34845  23304410.8284                   23304411.4224
        45.0004         30.2504
 19  3  5 22 28 10.0000000  0  5G11G13G28G30G08
   4105121.50846   1973686.74243  22644892.4534                   22644890.4774
        41.2504         19.5004
   -926014.56247   -174971.60243  21561286.3364                   21561284.2074
        42.0004         22.7504
   -211511.59847   -135579.64144  20646663.5164                   20646661.3984
        43.0004         24.7504
   3527599.89547   1893816.67645  20548487.4534                   20548488.1024
        45.0004         30.2504
   5351547.68047   4164682.84844  23305292.5164                   23305293.5554
        45.2504         29.5004
 19  3  5 22 28 15.0000000  0  5G11G13G28G30G08
   4087111.79346   1959653.19943  22641465.3524                   22641463.4304
        41.5004         19.7504
   -940248.35246   -186062.87143  21558577.3134                   21558575.6884
        41.2504         22.0004
   -224502.68047   -145702.55944  20644191.5944                   20644189.0084
        42.5004         25.0004
   3523376.75047   1890525.90245  20547684.2034                   20547684.5044
        44.5004         30.0004
   5356196.87147   4168305.57444  23306177.2194                   23306178.3594
        45.0004         29.2504
 19  3  5 22 28 20.0000000  0  5G11G13G28G30G08
   4069119.30547   1945633.10243  22638041.9454                   22638039.5314
        42.0004         20.2504
   -954462.94147   -197139.16843  21555872.7664                   21555870.6644
        42.2504         22.5004
   -237481.64847   -155816.05144  20641721.9064                   20641719.4454
        42.5004         25.5004
   3519168.28947   1887246.59045  20546883.5474                   20546883.5944
        45.7504         31.2504
   5360857.93047   4171937.56645  23307063.7274                   23307065.6254
        44.2504         30.0004
 19  3  5 22 28 25.0000000  0  5G11G13G28G30G08
   4051143.98047   1931626.32043  22634621.2504                   22634618.7934
        42.0004         21.0004
   -968658.46146   -208200.61343  21553171.2734                   21553169.4344
        41.2504         21.5004
   -250448.70747   -165920.24644  20639253.6644                   20639251.3984
        42.5004         25.5004
   3514974.43447   1883978.65645  20546084.3674                   20546085.3834
        44.0004         30.5004
   5365530.67647   4175578.63345  23307953.3754                   23307955.0664
        44.7504         30.0004
 19  3  5 22 28 30.0000000  0  5G11G13G28G30G08
   4033187.20746   1917633.96943  22631202.8524                   22631201.1254
        41.7504         20.2504
   -982835.76246   -219247.96143  21550473.7504                   21550471.3404
        41.7504         20.7504
   -263403.86747   -176015.24643  20636789.6724                   20636785.9494
        44.2504         22.5004
   3510795.93047   1880722.62544  20545289.9454                   20545289.2774
        45.2504         29.0004
   5370215.43847   4179229.07444  23308844.9304                   23308846.1764
        43.5004         27.0004
 19  3  5 22 28 35.0000000  0  5G11G13G28G30G08
   4015246.93447   1903654.57443  22627789.8444                   22627787.7934
        42.0004         21.5004
   -996993.79746   -230280.14543  21547779.7424                   21547777.8834
        41.0004         21.2504
   -276347.31647   -186101.00044  20634325.9844                   20634323.2544
        43.5004         25.7504
   3506631.46547   1877477.60245  20544497.3834                   20544497.6094
        45.5004         30.7504
   5374911.73047   4182888.57044  23309738.9384                   23309739.6954
        44.7504         29.7504
 19  3  5 22 28 40.0000000  0  5G11G13G28G30G08
   3997323.10547   1889687.95743  22624378.8364                   22624376.9534
        42.7504         22.0004
  -1011132.93047   -241297.64843  21545089.4694                   21545086.6724
        42.0004         21.7504
   -289279.18747   -196177.79744  20631864.7344                   20631862.9144
        43.2504         25.5004
   3502481.10547   1874243.55145  20543708.0084                   20543708.6214
        45.5004         31.0004
   5379619.04747   4186556.56645  23310634.5004                   23310635.9884
        44.7504         30.0004
 19  3  5 22 28 45.0000000  0  5G11G13G28G30G08
   3979428.07447   1875743.78544  22620973.4614                   22620971.6134
        43.5004         26.0004
  -1025262.96147   -252308.04743  21542399.8054                   21542398.4494
        42.7504         22.5004
   -302202.16847   -206247.63744  20629405.9924                   20629403.8094
        43.2504         26.5004
   3498349.64847   1871024.25445  20542921.0004                   20542922.1134
        45.2504         32.0004
   5384342.40647   4190237.12544  23311532.9614                   23311534.5274
        43.0004         27.0004
 19  3  5 22 28 50.0000000  0  6G11G13G17G28G30G08
   3961555.39147   1861817.02343  22617573.4844                   22617570.7894
        43.7504         23.0004
  -1039370.90246   -263301.25843  21539716.1804                   21539713.6024
        40.5004         22.5004
                                  23482539.297
        36.750
   -315109.21947   -216305.08644  20626950.6564                   20626947.6724
        43.0004         25.0004
   3494237.67247   1867820.09445  20542139.7114                   20542139.8714
        46.2504         31.2504
   5389080.96547   4193929.47744  23312435.4454                   23312435.8094
        45.2504         27.7504
 19  3  5 22 28 55.0000000  0  6G11G13G17G28G30G08
   3943697.78546   1847902.03143  22614177.5004                   22614171.8404
        40.2504         21.0004
  -1053457.92246   -274278.23043  21537037.4694                   21537032.9454
        40.5004         21.7504
   4686912.914 6                  23477355.219
        37.750
   -328003.61746   -226352.73043  20624499.0704                   20624492.8554
        41.0004         22.7504
   3490139.69547   1864626.80944  20541362.5704                   20541358.2464
        43.2504         28.7504
   5393828.91447   4197629.11344  23313341.9924                   23313338.8524
        42.0004         26.5004
 19  3  5 22 29  0.0000000  0  6G11G13G17G28G30G08
   3925856.32846   1833999.48843  22610782.3834                   22610776.7504
        40.2504         22.5004
  -1067525.84446   -285240.18743  21534360.7344                   21534355.8204
        39.5004         20.0004
   4659660.527 6                  23472169.367
        37.500
   -340886.54746   -236391.34443  20622047.4774                   20622041.6054
        40.7504         22.5004
   3486055.55546   1861444.39145  20540584.9694                   20540581.1764
        41.7504         30.5004
   5398587.24246   4201336.94144  23314247.2584                   23314244.0864
        41.2504         26.2504
 19  3  5 22 29  5.0000000  0  6G11G13G17G28G30G08
   3908032.05147   1820110.57043  22607388.7894                   22607385.1954
        43.2504         22.2504
  -1081576.27747   -296188.55544  21531684.4694                   21531681.8204
        44.5004         25.2504
   4632415.00846   2305548.82053  23466982.5704                   23466978.1914
        39.0004         20.0004
   -353758.26647   -246421.19544  20619595.8594                   20619592.2504
        43.2504         25.7504
   3481985.90647   1858273.28945  20539807.3594                   20539807.2114
        46.0004         30.7504
   5403356.42247   4205053.24245  23315153.1174                   23315152.9494
        45.7504         30.5004
 19  3  5 22 29 10.0000000  0  6G11G13G17G28G30G08
   3890225.44547   1806235.30543  22603999.4614                   22603996.4884
        42.5004         22.7504
  -1095609.07847   -307123.18443  21529013.7664                   21529011.7234
        44.0004         21.5004
   4605175.44246   2284323.12442  23461799.1094                   23461794.7664
        39.5004         17.7504
   -366619.34847   -256442.82044  20617148.5634                   20617144.6804
        43.0004         24.7504
   3477930.16847   1855112.96145  20539036.2734                   20539035.5594
        46.0004         31.0004
   5408138.34447   4208779.41844  23316061.5944                   23316061.8714
        44.7504         28.2504
 19  3  5 22 29 15.0000000  0  6G11G13G17G28G30G08
   3872436.93847   1792374.00443  22600620.5084                   22600611.3014
        43.5004         22.2504
  -1109627.80947   -318046.93443  21526352.1024                   21526344.2934
        42.2504         22.5004
   4577941.09846   2263101.58242  23456620.6954                   23456612.7854
        39.0004         17.2504
   -379471.80947   -266457.80143  20614708.3134                   20614699.1024
        42.2504         22.5004
   3473887.72747   1851962.93445  20538272.5164                   20538266.5634
        45.7504         30.7504
   5412931.46547   4212514.22344  23316979.8984                   23316974.3014
        46.5004         28.7504
 19  3  5 22 29 20.0000000  0  6G11G13G17G28G30G08
   3854664.80546   1778525.73843  22597233.1724                   22597230.3244
        41.5004         21.5004
  -1123628.55147   -328956.55143  21523682.6484                   21523680.1884
        45.0004         23.2504
   4550714.15646   2241885.78542  23451435.2194                   23451432.2544
        39.7504         16.7504
   -392313.35547   -276464.11743  20612258.8054                   20612256.1684
        43.7504         22.7504
   3469859.04347   1848823.78945  20537500.8594                   20537500.8134
        46.2504         30.7504
   5417734.87147   4216257.23844  23317888.4844                   23317888.8444
        45.2504         27.2504
 19  3  5 22 29 25.0000000  0  6G11G13G17G28G30G08
   3836912.75446   1764692.88343  22593857.6254                   22593851.8834
        39.0004         20.2504
  -1137609.17946   -339850.56643  21521024.9844                   21521019.2664
        41.5004         23.5004
   4523493.50846   2220674.92242  23446257.6804                   23446252.4804
        36.0004         15.5004
   -405141.73446   -286460.30943  20609820.2344                   20609813.8554
        40.7504         22.5004
   3465846.71146   1845697.24244  20536739.5784                   20536736.7034
        41.5004         28.2504
   5422554.21547   4220012.51244  23318808.1644                   23318805.2704
        42.0004         26.0004
 19  3  5 22 29 30.0000000  0  3G11G30G08
                                  22590479.563
        38.250
                                  20535975.8364                   20535975.8134
        43.2504         27.5004
                                  23319723.602
        40.250
 19  3  5 22 29 35.0000000  0  6G11G13G17G28G30G08
                                  22587109.2504                   22587102.4454
        43.0004         20.5004
                                  21515714.5004                   21515708.6724
        42.5004         23.0004
                                  23435902.617
        40.000
                                  20604944.5004                   20604936.8984
        42.2504         27.7504
                                  20535220.9144                   20535217.4144
        44.7504         28.0004
                                  23320648.2274                   23320645.7624
        43.0004         26.5004
 19  3  5 22 29 40.0000000  0  3G11G28G08
                                  22583740.0314                   22583733.5084
        34.0004         19.0004
                                  20602508.1804                   20602502.2664
        36.7504         24.5004
                                  23321569.2974                   23321567.4694
        39.5004         22.5004
 19  3  5 22 29 45.0000000  0  6G11G13G17G28G30G08
   3766057.56957   1723287.52453  22580374.5314                   22580367.7934
        42.2504         20.7504
  -1193351.99256   -381981.71953  21510417.5944                   21510409.7854
        41.5004         21.0004
   4414671.24616                  23425548.578
        39.500
   -456347.80156   -325561.02754  20600075.6644                   20600068.0084
        41.7504         28.0004
   3449920.94157   1833287.30755  20533710.8594                   20533706.1054
        46.2504         31.0004
   5441924.59757   4230734.91454  23322494.9454                   23322491.8284
        43.0004         25.2504
 19  3  5 22 29 50.0000000  0  6G11G13G17G28G30G08
   3748376.39146   1709510.05543  22577008.4924                   22577003.7464
        40.7504         19.7504
  -1207253.23447   -392813.86343  21507770.0944                   21507765.7974
        44.2504         22.5004
   4387471.09446   2199474.48853  23420372.4064                   23420367.0864
        38.7504         20.7504
   -469132.93747   -335523.53944  20597641.8284                   20597634.1644
        43.5004         26.5004
   3445965.44147   1830205.18845  20532956.8984                   20532954.1414
        45.7504         30.0004
   5446787.23047   4234523.98043  23323419.6564                   23323418.8834
        43.0004         22.5004
 19  3  5 22 29 55.0000000  0  6G11G13G17G28G30G08
   3730710.03556   1695744.00453  22573645.6254                   22573642.2584
        40.0004         19.5004
  -1221130.20347   -403627.12943  21505126.8984                   21505124.3594
        43.0004         22.5004
   4360280.68046   2178287.27743  23415197.1334                   23415193.0004
        39.5004         18.2504
   -481903.48457   -345474.64854  20595208.9064                   20595205.7424
        42.0004         25.7504
   3442024.64847   1827134.37944  20532205.1334                   20532204.2154
        44.7504         29.2504
   5451660.07057   4238320.94554  23324344.7814                   23324344.6254
        42.5004         27.2504
 19  3  5 22 30  0.0000000  0  6G11G13G17G28G30G08
   3713057.77346   1681988.93043  22570294.4924                   22570283.2584
        41.0004         19.2504
  -1234990.29347   -414427.24643  21502497.7584                   21502486.6724
        43.7504         21.5004
   4333095.27746   2157103.71142  23410030.9844                   23410020.3324
        40.2504         17.2504
   -494664.82047   -355418.60244  20592789.0704                   20592776.8404
        42.7504         25.0004
   3438095.30147   1824072.50844  20531464.9224                   20531456.7814
        45.5004         29.7504
   5456541.38347   4242124.52744  23325281.1254                   23325273.6684
        44.0004         26.5004
 19  3  5 22 30  5.0000000  0  5G11G13G28G30G08
                                  22566936.1024                   22566925.6294
        37.7504         18.5004
  -1248829.86746   -425211.27343  21499863.6174                   21499853.2114
        37.0004         22.0004
                                  20590361.9774                   20590350.9734
        36.7504         23.0004
                                  20530718.3524                   20530708.6484
        40.5004         27.2504
                                  23326210.4774                   23326203.4344
        39.0004         24.7504
 19  3  5 22 30 20.0000000  0  6G11G13G17G28G30G08
   4719697.38016                  22556879.508
        41.000
   4717655.82816                  21491971.617
        41.750
                                  23389341.336
        41.250
                                  20583084.672
        44.000
   4724088.12157   1819093.12655  20528490.0084                   20528485.0984
        44.7504         34.2504
   4728637.96157   4247927.07655  23329008.8134                   23329005.9104
        43.5004         32.0004
 19  3  5 22 30 25.0000000  0  6G11G13G17G28G30G08
   4702122.133 6                  22553535.547
        40.000
   4703874.06347   -431240.97354  21489350.0784                   21489347.1564
        43.5004         24.2504
                                  23384172.633
        41.000
   4710160.46147   -378042.36754  20580666.5634                   20580661.8794
        43.0004         28.7504
   4720219.09447   1816078.35555  20527754.2504                   20527753.3594
        45.2504         30.0004
   4733566.09047   4251767.16044  23329947.3594                   23329946.6374
        43.2504         24.5004
 19  3  5 22 30 30.0000000  0  6G11G13G17G28G30G08
   4684559.84057   1648500.52053  22550193.5084                   22550191.0784
        43.0004         21.7504
   4690113.26247   -441963.66044  21486731.6334                   21486728.2034
        43.5004         24.5004
                                  23379004.7034                   23379003.1524
        39.7504         18.2504
   4697455.03557   -387942.65254  20578248.8914                   20578244.8444
        42.7504         28.7504
   4716362.24247   1813073.03145  20527020.1644                   20527019.5474
        47.2504         32.2504
   4738502.64857   4255613.82454  23330885.8594                   23330886.1684
        45.2504         26.0004
 19  3  5 22 30 35.0000000  0  6G11G13G17G28G30G08
   4667014.30146   1634828.68443  22546854.7194                   22546852.7074
        40.0004         20.0004
   4676372.06347   -452671.08243  21484116.4614                   21484114.3714
        42.7504         22.0004
   4633024.39146   2095305.39142  23373838.5634                   23373837.7424
        37.2504         16.7504
   4684761.29747   -397833.92244  20575832.7194                   20575830.3094
        42.5004         25.5004
   4712519.30947   1810078.52745  20526289.2734                   20526289.2114
        45.2504         30.0004
   4743450.54747   4259469.31644  23331827.3594                   23331829.0234
        43.2504         24.5004
 19  3  5 22 30 40.0000000  0  6G11G13G17G28G30G08
   4649491.58646   1621174.60543  22543521.3914                   22543518.1254
        39.7504         20.2504
   4662650.74247   -463363.02344  21481504.7894                   21481502.3954
        43.5004         24.7504
   4605887.71946   2074159.94942  23368674.6724                   23368674.6484
        36.5004         16.2504
   4672081.83647   -407714.02044  20573420.5084                   20573416.8874
        43.5004         26.7504
   4708694.95747   1807098.50445  20525561.7034                   20525561.1524
        45.0004         30.5004
   4748413.91447   4263336.87143  23332772.7504                   23332772.9574
        43.5004         23.5004
 19  3  5 22 30 45.0000000  0  6G11G13G17G28G30G08
   4631991.09046   1607537.89843  22540191.0164                   22540187.2734
        41.0004         20.0004
   4648956.09047   -474034.19543  21478899.3984                   21478896.8554
        43.0004         23.0004
   4578764.04346   2053024.59442  23363513.0234                   23363513.3324
        37.5004         16.7504
   4659420.72347   -417579.82844  20571011.2584                   20571007.1294
        42.5004         26.5004
   4704890.66047   1804134.10544  20524837.8054                   20524836.9454
        45.0004         29.2504
   4753394.85947   4267218.12144  23333720.5554                   23333720.3554
        44.0004         24.0004
 19  3  5 22 30 50.0000000  0  6G11G13G17G28G30G08
   4614510.90246   1593916.96943  22536864.7114                   22536861.6174
        41.2504         20.5004
   4635285.27347   -484686.77043  21476297.9614                   21476294.7344
        43.2504         23.0004
   4551652.31346   2031898.52742  23358353.9774                   23358354.0904
        40.5004         16.2504
   4646775.67247   -427433.10944  20568605.2114                   20568601.2194
        42.7504         27.7504
   4701104.52747   1801183.88745  20524117.0004                   20524116.8014
        45.5004         30.0004
   4758390.05947   4271110.47344  23334671.3914                   23334671.3594
        44.0004         25.7504
 19  3  5 22 30 55.0000000  0  6G11G13G17G28G30G08
   4597050.05546   1580311.09443  22533541.5554                   22533538.5394
        41.2504         19.7504
   4621638.05147   -495320.96543  21473700.7664                   21473697.8484
        43.0004         22.7504
   4524552.63746   2010781.95342  23353197.1804                   23353197.4144
        38.5004         15.5004
   4634146.17647   -437274.27744  20566201.7734                   20566197.6914
        42.2504         27.7504
   4697335.86747   1798247.25444  20523400.1564                   20523399.5164
        45.5004         29.5004
   4763398.23047   4275012.95743  23335624.2974                   23335624.3094
        44.0004         23.7504
 19  3  5 22 31  0.0000000  0  6G11G13G17G28G30G08
   4579609.35947   1566720.95343  22530222.6094                   22530219.2034
        42.0004         21.0004
   4608009.48447   -505940.63743  21471107.8054                   21471105.1454
        43.0004         23.0004
   4497461.95746   1989672.33242  23348042.8914                   23348042.3094
        39.2504         15.5004
   4621528.79747   -447106.00844  20563800.5394                   20563796.9184
        42.2504         28.0004
   4693583.07847   1795323.00845  20522685.7734                   20522685.9224
        45.0004         30.5004
   4768420.08647   4278926.08644  23336579.5394                   23336579.9414
        43.7504         25.5004
 19  3  5 22 31  5.0000000  0  6G11G13G17G28G30G08
   4562189.59046   1553147.09643  22526909.0004                   22526904.7934
        41.5004         21.0004
   4594400.38747   -516545.11744  21468518.1884                   21468515.3754
        43.7504         25.0004
   4470379.89146   1968569.46542  23342889.9224                   23342888.6094
        40.2504         16.2504
   4608924.53147   -456927.50444  20561401.7584                   20561398.3834
        43.5004         28.5004
   4689847.12547   1792411.88345  20521975.4064                   20521974.6374
        46.0004         31.7504
   4773456.64547   4282850.67243  23337538.5784                   23337537.8524
        43.7504         22.5004
 19  3  5 22 31 10.0000000  0  6G11G13G17G28G30G08
   4544790.55146   1539589.38743  22523597.6094                   22523593.7504
        41.2504         21.2504
   4580815.37947   -527130.85943  21465932.9614                   21465929.7034
        43.0004         22.5004
   4443311.30146   1947477.05942  23337738.3204                   23337738.1884
        39.5004         16.7504
   4596336.59047   -466736.29744  20559006.4144                   20559003.3284
        42.7504         26.5004
   4686129.71947   1789515.18845  20521268.2194                   20521267.3594
        46.5004         31.0004
   4778507.06647   4286786.05544  23338500.3054                   23338499.6764
        45.5004         24.2504
 19  3  5 22 31 15.0000000  0  7G11G13G17G18G28G30G08
   4527409.83647   1526045.98843  22520289.1024                   22520285.9844
        43.0004         21.5004
   4567249.79747   -537701.43443  21463351.7274                   21463348.3554
        42.2504         22.5004
   4416250.94546   1926391.10542  23332588.7114                   23332588.4144
        40.0004         14.7504
   4567416.09856   3669950.23453  23389066.0704                   23389064.1724
        41.5004         20.7504
   4583760.74647   -476535.65244  20556613.2734                   20556609.9144
        42.2504         26.5004
   4682427.31647   1786630.19545  20520562.9844                   20520561.9774
        46.5004         30.2504
   4783570.01247   4290731.20344  23339462.9844                   23339463.1414
        44.7504         26.5004
 19  3  5 22 31 20.0000000  0  7G11G13G17G18G28G30G08
                                  22516987.1954                   22516982.9064
        41.0004         21.5004
   4553702.76647   -548257.56043  21460775.3594                   21460771.1414
        42.5004         22.5004
   4389199.53146   1905312.05142  23327444.4304                   23327441.0984
        41.0004         14.7504
                                  23385503.7664                   23385501.0234
        39.0004         20.0004
   4571196.95747   -486325.61344  20554224.5314                   20554219.5864
        43.0004         27.7504
   4678740.85547   1783757.62145  20519862.8754                   20519861.6024
        46.0004         33.0004
                                  23340429.6484                   23340429.3634
        41.2504         25.0004
 19  3  5 22 31 25.0000000  0  5G11G13G17G18G28
   4492711.70717                  22513685.961
        45.000
   4540174.89116                  21458200.461
        41.250
                                  23322295.406
        40.250
                                  23381941.633
        43.750
   4558646.33457   -495324.11154  20551835.3204                   20551833.0554
        42.2504         28.2504
 19  3  5 22 31 30.0000000  0  7G11G13G17G18G28G30G08
   4475388.07147   1499020.54253  22510390.1334                   22510387.2344
        42.0004         21.5004
   4526673.34447   -557105.56254  21455630.4534                   21455626.6374
        43.5004         25.2504
   4335130.990 6                  23317150.930
        39.500
   4511287.30147   3644282.28153  23378384.3674                   23378383.9384
        42.0004         20.2504
   4546111.96947   -505090.97354  20549449.9844                   20549446.8634
        43.0004         27.7504
   4721691.47757   1780192.88255  20518468.1254                   20518467.3954
        46.2504         30.0004
   4732399.53557   4300404.17254  23342367.9454                   23342367.1804
        43.7504         24.2504
 19  3  5 22 31 35.0000000  0  7G11G13G17G18G28G30G08
   4458080.24247   1485533.78943  22507096.5164                   22507093.7154
        42.5004         22.0004
   4513187.43047   -567614.05944  21453065.6884                   21453061.4304
        44.7504         27.2504
   4308104.535 6                  23312009.281
        41.500
   4492610.16846   3629728.56343  23374830.0004                   23374830.7194
        39.7504         18.2504
   4533585.90247   -514851.61344  20547066.3364                   20547063.6604
        44.5004         28.5004
   4718049.46547   1777354.93045  20517775.1954                   20517775.3754
        47.0004         31.0004
   4737511.07847   4304387.20344  23343339.9454                   23343340.8594
        44.7504         25.2504
 19  3  5 22 31 40.0000000  0  7G11G13G17G18G28G30G08
   4440791.48846   1472062.04643  22503804.4614                   22503803.6134
        41.5004         21.5004
   4499723.97746   -578105.04344  21450502.3984                   21450500.3914
        41.5004         24.2504
   4281088.918 6                  23306867.258
        38.250
   4473950.86846   3615188.90442  23371278.2424                   23371279.9414
        41.5004         17.7504
   4521074.96546   -524600.36744  20544685.3054                   20544682.5944
        41.7504         27.2504
   4714424.84847   1774530.56645  20517084.9694                   20517085.4454
        46.0004         30.2504
   4742634.97347   4308379.86744  23344314.1804                   23344316.0394
        44.5004         25.7504
 19  3  5 22 31 45.0000000  0  7G11G13G17G18G28G30G08
   4423523.51847   1458606.50943  22500520.0314                   22500518.0084
        42.5004         21.0004
   4486280.70747   -588580.34444  21447944.0784                   21447941.4104
        43.0004         24.0004
   4254083.99446   1884257.63453  23301728.6094                   23301723.7274
        39.2504         19.7504
   4455312.23046   3600665.30143  23367733.0944                   23367732.8794
        41.2504         18.2504
   4508577.01047   -534339.03944  20542306.5634                   20542304.3094
        42.7504         25.5004
   4710816.72547   1771719.03845  20516398.6954                   20516399.2074
        46.7504         31.2504
   4747772.88947   4312383.41144  23345293.2504                   23345294.0664
        43.7504         24.5004
 19  3  5 22 31 50.0000000  0  7G11G13G17G18G28G30G08
   4406275.75846   1445166.68043  22497236.6804                   22497235.7274
        40.5004         21.0004
   4472862.27347   -599036.24244  21445390.3984                   21445388.0314
        43.2504         24.5004
   4227089.80946   1863223.31642  23296591.9924                   23296587.6914
        40.0004         17.7504
   4436693.13346   3586156.89843  23364189.1564                   23364190.2074
        41.5004         18.2504
   4496095.98447   -544064.51644  20539931.5704                   20539929.2344
        42.7504         27.0004
   4707227.02047   1768921.86745  20515715.1954                   20515715.5394
        45.7504         30.2504
   4752925.88747   4316398.74643  23346273.6724                   23346274.6804
        44.7504         22.7504
 19  3  5 22 31 55.0000000  0  7G11G13G17G18G28G30G08
   4389050.45347   1431744.37943  22493960.3524                   22493957.8714
        42.2504         21.7504
   4459469.02247   -609472.56944  21442841.8914                   21442839.8244
        43.2504         25.7504
   4200109.44946   1842199.60242  23291457.2974                   23291454.1054
        38.5004         16.7504
   4418095.76646   3571665.44143  23360650.4144                   23360650.9654
        41.5004         18.2504
   4483632.43847   -553776.37544  20537559.8754                   20537556.9774
        43.0004         27.0004
   4703657.12947   1766140.12145  20515036.2584                   20515035.9064
        46.2504         31.5004
   4758094.99647   4320426.60944  23347257.2584                   23347258.1994
        44.2504         24.7504
 19  3  5 22 32  0.0000000  0  7G11G13G17G18G28G30G08
   4371846.05546   1418338.36143  22490685.1174                   22490683.2034
        40.7504         21.5004
   4446095.53947   -619893.44544  21440297.5704                   21440295.0944
        42.2504         24.5004
   4173139.69546   1821184.19942  23286325.2114                   23286322.3914
        39.2504         15.5004
   4399518.83046   3557189.92843  23357115.0704                   23357115.3834
        40.2504         19.0004
   4471181.91847   -563478.07444  20535190.7894                   20535187.6374
        42.7504         26.7504
   4700104.01247   1763371.46545  20514359.5784                   20514359.7074
        45.2504         30.2504
   4763277.80147   4324465.16944  23348243.5864                   23348244.3284
        44.7504         27.0004
 19  3  5 22 32  5.0000000  0  7G11G13G17G18G28G30G08
   4354663.88347   1404949.64543  22487417.6334                   22487414.3594
        42.0004         20.7504
   4432744.95747   -630296.54344  21437758.4454                   21437754.6024
        44.0004         25.7504
   4146180.82846   1800177.30142  23281196.8834                   23281192.8204
        40.0004         16.2504
   4380963.31646   3542731.05943  23353586.7344                   23353584.5554
        41.5004         18.5004
   4458747.72747   -573167.08244  20532826.5474                   20532822.0434
        43.2504         26.2504
   4696570.15647   1760617.80144  20513689.8754                   20513687.5314
        47.0004         29.5004
   4768476.32447   4328515.94143  23349234.8204                   23349233.6174
        44.0004         22.5004
 19  3  5 22 32 10.0000000  0  7G11G13G17G18G28G30G08
   4337500.14847   1391575.31343  22484150.5234                   22484147.3404
        42.2504         21.0004
   4419416.98847   -640681.91443  21435220.2114                   21435218.1724
        44.5004         22.7504
   4119232.66447   1779178.81343  23276068.1564                   23276065.4024
        42.0004         19.2504
   4362425.99646   3528286.42242  23350056.8674                   23350056.8204
        41.2504         17.2504
   4446327.38747   -582845.21544  20530461.2504                   20530457.8984
        43.7504         27.0004
   4693051.99647   1757876.41045  20513017.8914                   20513017.5084
        47.0004         31.5004
   4773687.69947   4332576.78543  23350224.7894                   23350225.2424
        43.7504         22.2504
 19  3  5 22 32 15.0000000  0  7G11G13G17G18G28G30G08
   4320355.33247   1378215.74243  22480888.5164                   22480884.2854
        42.2504         21.0004
   4406108.05147   -651052.52344  21432687.8524                   21432685.6724
        44.0004         25.0004
   4092293.40646   1758187.15642  23270940.7274                   23270939.2464
        39.0004         17.2504
   4343906.72346   3513855.85243  23346533.3524                   23346532.9694
        41.0004         18.2504
   4433919.57047   -592513.68444  20528100.3984                   20528096.9734
        44.2504         26.7504
   4689549.65647   1755147.29744  20512352.0784                   20512352.0204
        46.0004         28.5004
   4778910.73847   4336646.67244  23351218.8444                   23351219.3364
        45.5004         25.7504
 19  3  5 22 32 20.0000000  0  7G11G13G17G18G28G30G08
   4303229.97647   1364871.31043  22477628.1724                   22477625.3674
        42.0004         21.0004
   4392820.50447   -661406.46143  21430159.4384                   21430156.5594
        44.0004         23.7504
   4065363.90246   1737203.12942  23265816.5634                   23265814.9574
        40.7504         15.5004
   4325406.60546   3499440.14842  23343012.8834                   23343011.9104
        41.5004         17.2504
   4421525.46147   -602171.39844  20525741.4614                   20525738.0634
        43.7504         26.7504
   4686063.62547   1752430.91845  20511688.7424                   20511687.9924
        46.5004         30.5004
   4784147.17647   4340727.02043  23352214.6724                   23352215.0784
        43.7504         22.7504
 19  3  5 22 32 25.0000000  0  7G11G13G17G18G28G30G08
   4286121.75446   1351540.19143  22474372.0554                   22474370.0904
        40.2504         20.7504
   4379552.38347   -671745.28143  21427634.5084                   21427631.5634
        43.0004         22.2504
   4038442.66446   1716225.51642  23260693.3284                   23260692.1414
        38.7504         16.7504
   4306922.82846   3485037.21942  23339495.9774                   23339494.6214
        41.0004         16.7504
   4409143.10947   -611819.99244  20523385.2504                   20523381.7154
        44.0004         25.7504
   4682591.84847   1749725.62145  20511027.3444                   20511026.8674
        46.2504         30.0004
   4789393.99247   4344815.44143  23353213.7424                   23353213.8404
        44.5004         23.7504
 19  3  5 22 32 30.0000000  0  7G11G13G17G18G28G30G08
   4269033.60546   1338224.75443  22471120.4384                   22471118.5354
        40.2504         20.5004
   4366303.43347   -682069.10743  21425113.2274                   21425110.5704
        43.5004         23.5004
   4011530.05946   1695254.68043  23255572.1254                   23255570.7194
        41.2504         18.2504
   4288458.69546   3470649.61142  23335981.6724                   23335981.0514
        40.0004         17.7504
   4396773.51647   -621458.64144  20521031.6564                   20521028.3164
        44.2504         29.0004
   4679136.28547   1747033.00045  20510370.5164                   20510370.3324
        47.0004         31.7504
   4794654.23047   4348914.34843  23354214.1484                   23354214.3634
        42.2504         22.5004
 19  3  5 22 32 35.0000000  0  7G11G13G17G18G28G30G08
   4251964.90246   1324924.48443  22467872.4064                   22467870.3324
        40.5004         20.2504
   4353076.00447   -692376.20744  21422595.9844                   21422593.1134
        43.7504         25.0004
   3984626.84046   1674291.08242  23250452.0944                   23250451.2274
        36.7504         16.7504
   4270013.79347   3456276.91842  23332471.9304                   23332471.2854
        42.5004         17.7504
   4384417.57047   -631086.66044  20518680.2424                   20518676.6134
        43.2504         25.5004
   4675696.87547   1744352.90644  20509716.0704                   20509715.7544
        46.0004         29.0004
   4799928.12947   4353023.85543  23355217.9144                   23355218.3164
        45.2504         23.2504
 19  3  5 22 32 40.0000000  0  7G11G13G17G18G28G30G08
   4234911.88746   1311636.41043  22464628.2344                   22464625.3794
        41.2504         20.0004
   4339866.87147   -702669.02743  21420082.8594                   21420079.9614
        44.7504         23.7504
   3957731.19147   1653333.49642  23245334.7664                   23245333.3444
        42.5004         16.7504
   4251583.85946   3441915.96542  23328965.1564                   23328964.0394
        40.5004         17.2504
   4372072.14547   -640706.45344  20516331.1724                   20516327.6334
        45.2504         28.2504
   4672270.38347   1741682.93445  20509063.9304                   20509062.9844
        47.7504         31.7504
   4805210.97747   4357140.37543  23356223.6254                   23356223.6094
        43.7504         22.5004
 19  3  5 22 32 45.0000000  0  7G11G13G17G18G28G30G08
   4217878.44946   1298363.62143  22461386.8134                   22461384.3404
        40.0004         21.2504
   4326676.78147   -712947.02344  21417573.0634                   21417569.7114
        45.0004         25.2504
   3930844.23846   1632382.62942  23240218.4224                   23240217.0784
        40.5004         17.2504
   4233172.91746   3427569.75942  23325460.8134                   23325460.0274
        40.0004         16.7504
   4359739.03947   -650316.68044  20513983.8674                   20513980.1564
        44.0004         28.0004
   4668859.66447   1739025.21945  20508414.4534                   20508413.9694
        46.2504         30.0004
   4810506.45747   4361266.71543  23357231.6414                   23357231.2664
        44.0004         22.5004
 19  3  5 22 32 50.0000000  0  7G11G13G17G18G28G30G08
   4200861.34447   1285103.52343  22458149.6414                   22458145.8754
        43.5004         20.7504
   4313511.14147   -723205.96543  21415067.8594                   21415064.5314
        44.5004         23.2504
   3903966.59846   1611439.04342  23235103.3594                   23235102.9574
        38.5004         17.7504
   4214777.86347   3413236.00843  23321961.4304                   23321959.4494
        42.0004         18.2504
   4347420.78147   -659915.30144  20511640.9614                   20511636.9614
        44.5004         28.5004
   4665464.17248   1736379.40245  20507769.0234                   20507768.1724
        48.0004         32.5004
   4815813.28547   4365401.91043  23358241.3914                   23358240.9264
        45.2504         21.7504
 19  3  5 22 32 55.0000000  0  7G11G13G17G18G28G30G08
   4183864.98446   1271859.63743  22454913.9774                   22454911.7504
        41.5004         20.2504
   4300364.45347   -733450.16044  21412565.7974                   21412562.8594
        44.5004         26.5004
   3877099.82846   1590503.84042  23229990.8054                   23229990.2504
        37.0004         16.7504
   4196402.51646   3398917.45343  23318463.9454                   23318463.2234
        40.5004         18.5004
   4335115.44547   -669503.90644  20509298.6024                   20509294.8914
        43.5004         27.5004
   4662085.68447   1733746.78944  20507126.8524                   20507125.6844
        46.5004         29.7504
   4821132.52347   4369546.73043  23359253.3914                   23359253.5944
        46.5004         23.2504
 19  3  5 22 33  0.0000000  0  7G11G13G17G18G28G30G08
   4166885.55146   1258628.87643  22451683.0474                   22451680.9654
        41.7504         20.2504
   4287239.83047   -743677.10644  21410068.7734                   21410065.7704
        43.2504         26.0004
   3850242.56346   1569576.11342  23224880.3984                   23224879.8014
        40.2504         16.7504
   4178043.52546   3384611.81442  23314970.3364                   23314970.0274
        40.7504         17.2504
   4322823.36747   -679082.12444  20506959.5634                   20506956.5634
        43.0004         27.5004
   4658721.83247   1731125.60945  20506484.8054                   20506485.6094
        46.5004         30.5004
   4826462.84047   4373700.25044  23360266.9774                   23360268.6414
        44.2504         24.0004
 19  3  5 22 33  5.0000000  0  7G11G13G17G18G28G30G08
   4149920.23047   1245409.14543  22448454.5394                   22448451.3594
        44.7504         22.0004
   4274138.32846   -753886.08243  21407574.8204                   21407572.2624
        41.2504         22.5004
   3823393.34846   1548654.65242  23219771.0164                   23219770.1524
        41.7504         16.7504
   4159698.12547   3370316.68043  23311478.7424                   23311478.5824
        43.0004         19.5004
   4310544.49647   -688650.10244  20504622.2734                   20504618.9104
        42.5004         24.2504
   4655371.29747   1728514.82045  20505847.9224                   20505847.7234
        47.0004         30.7504
   4831802.44547   4377860.94144  23361283.1724                   23361284.0784
        44.2504         24.0004
 19  3  5 22 33 10.0000000  0  7G11G13G17G18G28G30G08
   4719487.63316                  22445231.242
        41.500
   4261049.78957   -764084.96954  21405083.9924                   21405081.9924
        43.7504         25.0004
   4716596.54716                  23214662.438
        40.500
   4718935.03916                  23307992.211
        41.000
   4722836.96517                  20502287.102
        45.000
                                  20505232.820
        43.500
   4728405.02717                  23362301.336
        44.750
 19  3  5 22 33 15.0000000  0  7G11G13G17G18G28G30G08
   4702569.85247   1224306.78554  22442012.6024                   22442009.5824
        44.0004         25.5004
   4247990.91846   -774260.69144  21402599.7734                   21402596.8754
        41.5004         24.0004
   4689771.695 6                  23209559.141
        40.000
   4700635.848 7                  23304511.805
        42.750
   4710588.72747   -702779.08854  20499957.9304                   20499953.9144
        42.0004         28.0004
                                  20504640.320
        43.500
   4733776.63747   4384377.78954  23363325.7504                   23363325.5204
        45.0004         27.0004
 19  3  5 22 33 20.0000000  0  7G11G13G17G18G28G30G08
   4685672.21546   1211139.82843  22438796.0704                   22438793.7194
        40.7504         22.0004
   4234948.08247   -784423.92644  21400117.7894                   21400115.0984
        43.5004         26.0004
   4662953.59846   1519389.11753  23204455.6094                   23204454.8914
        38.7504         19.0004
   4682356.87746   3349785.89653  23301032.1644                   23301031.3054
        40.5004         19.2504
   4698350.46947   -712315.37544  20497629.0234                   20497625.4734
        43.5004         27.7504
                                  20504051.867
        42.250
   4739161.42647   4388573.75044  23364349.5394                   23364350.2854
        44.0004         25.5004
 19  3  5 22 33 25.0000000  0  7G11G13G17G18G28G30G08
   4668789.25446   1197984.24243  22435582.7344                   22435581.1684
        41.0004         21.5004
   4221926.71147   -794570.46943  21397639.3674                   21397637.1214
        43.0004         22.7504
   4636143.35246   1498498.02042  23199353.7274                   23199353.1374
        39.5004         17.7504
   4664091.89546   3335553.36643  23297556.8984                   23297556.7154
        40.0004         19.7504
   4686124.58647   -721842.02744  20495302.1094                   20495298.5824
        43.7504         27.0004
                                  20503463.578
        41.500
   4744555.06347   4392776.59043  23365375.9694                   23365376.6024
        42.7504         22.5004
 19  3  5 22 33 30.0000000  0  7G11G13G17G18G28G30G08
   4651924.95046   1184843.21743  22432374.2344                   22432371.8634
        41.5004         21.2504
   4208923.96247   -804702.45343  21395164.8594                   21395162.5474
        42.2504         23.2504
   4609341.97746   1477613.81342  23194253.3674                   23194252.8834
        39.5004         16.7504
   4645844.93946   3321334.97242  23294084.6414                   23294084.0904
        40.7504         17.7504
   4673910.47747   -731359.52044  20492977.9144                   20492974.2974
        43.7504         27.0004
                                  20502881.578
        39.750
   4749959.87147   4396988.11443  23366404.5634                   23366404.7274
        42.7504         22.7504
 19  3  5 22 33 35.0000000  0  6G11G13G17G18G28G08
   4635072.28146   1171711.31643  22429167.8594                   22429165.1994
        41.0004         20.0004
   4195952.83646   -814809.80943  21392697.1564                   21392694.3404
        40.2504         21.5004
   4582552.44146   1456738.83242  23189155.5084                   23189155.2304
        39.0004         16.2504
   4627607.99646   3307124.42242  23290614.1724                   23290614.2464
        40.5004         17.7504
   4661714.89147   -740862.55144  20490656.6334                   20490654.2304
        44.0004         28.5004
   4755372.62947   4401205.84843  23367434.5554                   23367435.2384
        42.7504         21.2504
 19  3  5 22 33 40.0000000  0  7G11G13G17G18G28G30G08
   4618234.05947   1158590.59043  22425964.0474                   22425960.6564
        42.5004         20.0004
   4183010.16047   -824895.02743  21390233.7424                   21390231.7344
        42.7504         20.7504
   4555774.52746   1435872.94542  23184060.7114                   23184059.2504
        41.5004         17.2504
   4609384.39546   3292924.24642  23287146.7734                   23287146.2034
        40.7504         16.7504
   4649536.47747   -750352.21544  20488339.6334                   20488336.9494
        44.0004         29.0004
   4633172.03157   1726269.46855  20501473.7194                   20501473.9694
        46.5004         34.5004
   4760795.21147   4405431.24243  23368466.3134                   23368466.9844
        43.5004         21.7504
 19  3  5 22 33 45.0000000  0  7G11G13G17G18G28G30G08
   4601414.09847   1145484.13743  22422762.5474                   22422759.8134
        44.2504         23.0004
   4170081.54346   -834969.30943  21387774.3054                   21387771.3094
        41.5004         22.2504
   4529002.67646   1415011.72742  23178965.3754                   23178964.9654
        39.0004         16.2504
   4591178.77047   3278737.93443  23283681.9774                   23283681.3714
        43.0004         19.0004
   4637366.42247   -759835.42644  20486023.8054                   20486020.7384
        42.0004         26.2504
   4629946.77047   1723756.24245  20500860.2344                   20500860.1484
        46.2504         32.0004
   4766227.84047   4409664.42644  23369500.3444                   23369500.9024
        45.2504         26.5004
 19  3  5 22 33 50.0000000  0  7G11G13G17G18G28G30G08
   4584618.52347   1132396.70743  22419567.6334                   22419564.2814
        42.5004         21.5004
   4157153.87947   -845042.78944  21385313.7504                   21385311.2974
        44.0004         25.7504
   4502231.70346   1394151.30142  23173871.3134                   23173870.6414
        41.2504         14.7504
   4572998.25846   3264571.40642  23280221.8204                   23280222.2544
        39.7504         17.7504
   4625197.40647   -769317.74644  20483708.2274                   20483704.7624
        43.5004         27.5004
   4626733.66847   1721252.52044  20500249.2584                   20500248.8364
        45.5004         29.5004
   4771674.14847   4413908.34043  23370536.9064                   23370537.3404
        44.0004         22.7504
 19  3  5 22 33 55.0000000  0  7G11G13G17G18G28G30G08
   4567837.84846   1119320.85243  22416373.5634                   22416370.9574
        41.2504         21.0004
   4144259.44147   -855090.41843  21382859.3204                   21382857.5664
        43.2504         22.7504
   4475476.14546   1373302.75042  23168779.5704                   23168779.3754
        38.5004         14.7504
   4554831.23446   3250415.20743  23276764.9064                   23276765.0514
        39.7504         18.2504
   4613048.98847   -778784.05944  20481396.5164                   20481393.4844
        42.7504         25.2504
   4623538.26647   1718762.59844  20499640.7424                   20499640.3914
        45.5004         29.7504
   4777130.68447   4418160.18043  23371575.0084                   23371575.9144
        44.0004         22.7504
 19  3  5 22 34  0.0000000  0  7G11G13G17G18G28G30G08
   4551078.92646   1106261.94443  22413184.1644                   22413182.1134
        41.0004         21.2504
   4131390.37547   -865118.24844  21380411.2114                   21380408.5514
        43.7504         24.0004
   4448733.62946   1352464.47742  23163690.9144                   23163690.6484
        40.5004         14.7504
   4536685.25047   3236275.55143  23273312.5944                   23273312.6484
        42.0004         18.2504
   4600917.77347   -788236.93744  20479088.0234                   20479084.2814
        43.7504         26.7504
   4620361.93047   1716287.52045  20499036.1094                   20499036.2114
        46.7504         30.2504
   4782602.62947   4422424.03143  23372616.7194                   23372616.7734
        43.7504         22.5004
 19  3  5 22 34  5.0000000  0  7G11G13G17G18G28G30G08
   4534339.93846   1093218.55943  22409998.2664                   22409996.2274
        41.5004         21.0004
   4118542.92647   -875129.24244  21377966.5004                   21377963.7974
        43.7504         24.2504
   4422001.55546   1331634.30942  23158603.1414                   23158603.2774
        38.2504         15.5004
   4518558.82446   3222150.95742  23269861.9614                   23269862.6884
        39.5004         16.7504
   4588800.48047   -797678.98044  20476782.4534                   20476778.6214
        43.7504         26.5004
   4617202.23447   1713825.42245  20498435.1954                   20498434.5904
        47.0004         31.2504
   4788087.79747   4426698.19143  23373659.9924                   23373660.6684
        43.7504         22.0004
 19  3  5 22 34 10.0000000  0  7G11G13G17G18G28G30G08
   4517630.14846   1080197.96143  22406819.2504                   22406816.8794
        41.7504         21.5004
   4105708.64147   -885130.01243  21375524.3754                   21375521.5474
        42.2504         23.0004
   4395281.59446   1310813.49242  23153519.0084                   23153518.8284
        37.5004         14.7504
   4500461.62346   3208049.29842  23266419.2194                   23266419.1054
        40.7504         17.2504
   4576694.28047   -807112.42544  20474478.5234                   20474474.9384
        43.5004         24.7504
   4614062.50847   1711378.87144  20497837.7344                   20497837.5314
        45.5004         28.0004
   4793591.05547   4430986.41444  23374707.4454                   23374708.0044
        44.0004         24.5004
 19  3  5 22 34 15.0000000  0  7G11G13G17G18G28G30G08
   4500943.94247   1067195.67843  22403644.0314                   22403641.4104
        43.5004         21.5004
   4092897.14447   -895112.99044  21373086.3444                   21373083.3714
        43.5004         25.5004
   4368571.53947   1290000.56342  23148437.4694                   23148436.4264
        42.2504         14.7504
   4482388.02347   3193965.95942  23262980.5084                   23262980.5314
        42.5004         16.7504
   4564603.87547   -816533.49244  20472177.7584                   20472173.9614
        43.2504         28.0004
   4610941.85547   1708947.19545  20497243.7274                   20497244.3524
        47.0004         31.5004
   4799112.09247   4435288.51643  23375757.7504                   23375758.5204
        44.5004         23.2504
 19  3  5 22 34 20.0000000  0  7G11G13G17G18G28G30G08
   4484277.82847   1054209.12143  22400472.8444                   22400469.4494
        43.2504         21.5004
   4080109.18447   -905077.61343  21370652.5314                   21370649.6374
        43.0004         22.5004
   4341873.10246   1269196.56342  23143355.1174                   23143355.3014
        38.7504         16.2504
   4464334.52346   3179898.30942  23259544.9694                   23259545.1214
        41.2504         17.2504
   4552528.39547   -825942.92644  20469879.6094                   20469876.0394
        43.0004         26.0004
   4607838.05547   1706528.66445  20496652.3754                   20496652.9574
        46.0004         31.2504
   4804647.39147   4439601.75443  23376811.1024                   23376811.5634
        45.2504         23.0004
 19  3  5 22 34 25.0000000  0  7G11G13G17G18G28G30G08
   4467633.34846   1041239.40243  22397304.5084                   22397302.3204
        41.7504         21.0004
   4067342.94847   -915025.36443  21368223.6414                   21368220.6644
        43.0004         22.5004
   4315188.64846   1248403.48442  23138277.9454                   23138277.5124
        38.2504         14.7504
   4446300.95346   3165846.17242  23256113.2664                   23256112.2274
        40.0004         17.7504
   4540468.30147   -835340.44844  20467584.7584                   20467581.6524
        43.7504         25.0004
   4604753.19547   1704124.85244  20496066.2814                   20496066.3524
        47.0004         29.7504
   4810194.70347   4443924.32844  23377866.6804                   23377867.6604
        44.2504         24.7504
 19  3  5 22 34 30.0000000  0  7G11G13G17G18G28G30G08
   4451008.87947   1028285.27343  22394142.0084                   22394139.2074
        43.0004         22.0004
   4054598.92647   -924955.73044  21365797.6414                   21365795.6684
        42.0004         24.0004
   4288513.10246   1227617.38342  23133201.4534                   23133201.8014
        39.5004         16.2504
   4428287.60546   3151809.79742  23252685.0314                   23252684.4304
        40.2504         17.7504
   4528422.08647   -844727.06244  20465291.7114                   20465289.2154
        42.7504         25.2504
   4601684.37147   1701733.58645  20495481.8594                   20495482.1054
        46.5004         30.2504
   4815756.74647   4448258.38343  23378925.0314                   23378925.5864
        43.2504         22.7504
 19  3  5 22 34 35.0000000  0  7G11G13G17G18G28G30G08
   4434400.12947   1015343.39143  22390981.1024                   22390978.3634
        43.5004         22.2504
   4041880.82047   -934865.99243  21363378.2344                   21363375.7624
        42.7504         22.0004
   4261849.01646   1206840.19142  23128127.1254                   23128128.3054
        37.2504         15.5004
   4410289.03946   3137784.94943  23249259.9454                   23249259.0944
        41.0004         18.2504
   4516391.62947   -854101.48044  20463003.1094                   20463000.0744
        43.0004         25.2504
   4598631.06347   1699354.37145  20494900.9454                   20494900.9384
        47.0004         30.7504
   4821328.63747   4452600.08644  23379985.8754                   23379986.1094
        44.7504         26.7504
 19  3  5 22 34 40.0000000  0  7G11G13G17G18G28G30G08
   4417816.03947   1002420.73843  22387826.1954                   22387822.3284
        43.2504         21.7504
   4029180.37947   -944762.40244  21360960.9224                   21360959.0204
        42.5004         24.2504
   4235196.78546   1186072.14142  23123056.0704                   23123056.3954
        38.5004         14.7504
   4392314.43847   3123778.79743  23245839.9064                   23245838.5124
        42.2504         19.0004
   4504374.22347   -863465.68444  20460716.3524                   20460712.8594
        43.7504         27.2504
   4595596.63747   1696989.87944  20494323.9224                   20494323.6454
        46.0004         29.2504
   4826915.53547   4456953.54744  23381049.4774                   23381049.8054
        45.7504         26.0004
 19  3  5 22 34 45.0000000  0  7G11G13G17G18G28G30G08
   4401256.34047    989517.10543  22384674.1254                   22384671.5784
        42.2504         21.7504
   4016507.02747   -954637.68743  21358549.2504                   21358547.0514
        43.0004         21.7504
   4208559.46146   1165315.89542  23117987.0784                   23117987.7774
        38.5004         15.5004
   4374363.53946   3109791.12143  23242423.5004                   23242422.9024
        41.5004         19.2504
   4492376.18847   -872814.74244  20458432.7894                   20458429.8874
        43.7504         26.0004
   4592583.83247   1694642.30145  20493750.4144                   20493751.1644
        46.2504         30.5004
   4832519.98847   4461320.70343  23382115.3444                   23382116.3094
        44.7504         22.2504
 19  3  5 22 34 50.0000000  0  7G11G13G17G18G28G30G08
   4384717.05546    976629.34443  22381526.3204                   22381524.3634
        41.7504         22.0004
   4003856.96147   -964494.97344  21356141.9844                   21356140.2424
        43.0004         24.5004
   4181935.711 6                  23112919.438
        38.750
   4356431.91446   3095818.39543  23239010.3134                   23239010.9384
        40.2504         20.0004
   4480393.82047   -882151.71944  20456152.6174                   20456150.1724
        44.2504         27.0004
   4589589.24247   1692308.78944  20493180.1644                   20493180.5594
        46.2504         29.7504
   4838136.36347   4465697.02744  23383184.2114                   23383185.0164
        45.5004         27.2504
 19  3  5 22 34 55.0000000  0  7G11G13G17G18G28G30G08
   4368195.23846    963755.21143  22378381.2664                   22378380.9454
        40.0004         22.0004
   3991223.57047   -974339.10544  21353737.6884                   21353736.2424
        42.0004         25.0004
   4155315.484 7                  23107854.000
        42.000
   4338518.67646   3081860.09843  23235601.9304                   23235602.2464
        40.2504         19.5004
   4468420.24647   -891481.74644  20453873.8134                   20453871.8364
        43.7504         26.5004
   4586606.38747   1689984.53545  20492612.1094                   20492613.3834
        46.2504         31.0004
   4843765.68847   4470083.51643  23384254.9694                   23384256.4384
        42.2504         22.7504
 19  3  5 22 35  0.0000000  0  7G11G13G17G18G28G30G08
   4351695.99147    950898.68843  22375245.7734                   22375237.1294
        44.0004         21.7504
   3978613.83247   -984164.89844  21351340.8444                   21351334.0124
        45.0004         25.0004
   4128707.90246   1150380.86753  23102792.3204                   23102791.3874
        40.7504         20.2504
   4320627.22847   3067918.68242  23232199.0394                   23232195.3874
        42.2504         17.7504
   4456463.25847   -900798.88344  20451601.6174                   20451594.0004
        46.5004         27.5004
   4583642.91147   1687675.33645  20492052.3444                   20492046.1604
        47.5004         30.2504
   4849410.21147   4474481.86744  23385332.3834                   23385326.9384
        44.7504         24.5004
 19  3  5 22 35  5.0000000  0  7G11G13G17G18G28G30G08
                                  22372113.6564                   22372104.5514
        45.5004         21.0004
                                  21348950.0944                   21348942.0704
        45.5004         25.2504
                                  23097736.5554                   23097732.5784
        37.7504         18.2504
                                  23228802.8054                   23228795.7074
        44.5004         19.2504
                                  20449332.3364                   20449323.3634
        45.5004         25.7504
                                  20491493.5394                   20491488.0744
        49.2504         30.0004
   4855065.57448   4478888.59044  23386411.2424                   23386405.7934
        48.2504         26.5004
 19  3  5 22 35 10.0000000  0  7G11G13G17G18G28G30G08
   4318751.66646    925227.70843  22368973.5944                   22368973.1804
        40.5004         21.0004
   3953464.57047  -1003761.77344  21346553.7344                   21346551.7734
        44.0004         24.2504
   4075528.00846   1108941.72742  23092676.2814                   23092675.0594
        36.5004         16.2504
   4284895.45746   3040075.70343  23225399.4534                   23225399.6454
        39.0004         18.2504
   4432593.23847   -919398.94544  20447057.5554                   20447055.4414
        42.7504         25.5004
   4577764.81047   1683094.94744  20490929.9614                   20490932.3014
        44.7504         27.7504
   4860730.71047   4483303.01144  23387482.2504                   23387485.0704
        45.5004         26.0004
 19  3  5 22 35 20.0000000  0  1G08
                                  23389647.609
        47.500
 19  3  5 22 35 30.0000000  0  7G11G13G17G18G28G30G08
                                  22356476.2584                   22356471.6294
        44.2504         22.7504
   4712264.36357  -1015801.18453  21337024.6804                   21337022.7074
        44.7504         22.2504
   4702887.03516                  23072450.172
        41.250
                                  23211838.305
        40.750
   4715825.65657   -930895.13455  20437997.8834                   20437993.8834
        45.5004         31.5004
   4723262.65258   1679843.92455  20488724.6094                   20488724.3914
        48.2504         33.7504
   4732191.08157   4490114.25754  23391815.7274                   23391815.6214
        43.7504         25.2504
 19  3  5 22 35 35.0000000  0  7G11G13G17G18G28G30G08
   4691513.73046    896592.51643  22353357.8134                   22353356.0864
        41.0004         22.5004
   4699791.69547  -1025520.25044  21334651.4304                   21334649.1454
        44.5004         25.7504
   4676340.832 6                  23067397.938
        37.500
   4687845.55146   3011220.63753  23208455.0084                   23208455.3164
        41.2504         20.5004
   4703951.64547   -940147.66845  20435737.7504                   20435734.7584
        44.0004         30.5004
   4720400.06647   1677613.29344  20488179.7664                   20488179.9534
        45.7504         29.2504
   4737905.91047   4494567.35544  23392903.3524                   23392902.9384
        45.5004         28.7504
 19  3  5 22 35 40.0000000  0  7G11G13G17G18G28G30G08
   4675149.23417                  22350248.438
        43.500
   4687346.70657  -1034441.50854  21332282.8134                   21332277.3954
        44.7504         27.0004
                                  23062350.063
        42.000
   4670101.59016                  23205078.898
        40.500
   4692083.68057   -945696.33055  20433481.6804                   20433478.0904
        44.2504         32.0004
   4717559.57857   1675577.23255  20487639.0004                   20487639.9574
        47.5004         35.2504
   4743605.14557   4498472.68455  23393994.1724                   23393985.7114
        43.0004         30.5004
 19  3  5 22 35 45.0000000  0  7G11G13G17G18G28G30G08
   4658825.27357    889955.36353  22347141.5784                   22347136.3524
        45.2504         22.2504
   4674927.13357  -1044119.24254  21329921.0704                   21329915.8594
        45.0004         25.0004
   4685952.97316                  23057305.555
        40.500
   4652378.33217                  23201707.461
        43.250
   4680247.20357   -954919.77754  20431231.3284                   20431226.9454
        44.5004         27.2504
   4714741.74658   1673381.43855  20487103.8914                   20487101.6454
        48.2504         30.5004
   4749355.19958   4501520.05655  23395089.0394                   23395077.5044
        48.2504         32.2504
 19  3  5 22 35 50.0000000  0  7G11G13G17G18G28G30G08
   4642520.69547    877250.40243  22344043.2894                   22344034.5704
        45.5004         22.5004
   4662528.08647  -1053780.87543  21327567.7274                   21327558.2854
        47.0004         22.7504
   4659445.57047   1076664.07053  23052266.9454                   23052257.2384
        42.0004         20.0004
   4634677.22357   2994650.71654  23198342.6564                   23198328.4924
        42.0004         28.5004
   4668423.75047   -964132.85244  20428986.5234                   20428978.1524
        46.7504         29.5004
   4711938.19948   1671196.79745  20486575.3834                   20486569.6604
        50.0004         32.0004
   4755122.60948   4506014.20344  23396191.7734                   23396185.2194
        48.5004         29.0004
 19  3  5 22 35 55.0000000  0  7G11G13G17G18G28G30G08
   4626239.23157    864563.60053  22340942.6954                   22340937.6134
        43.2504         21.5004
   4650151.60557  -1063424.57053  21325207.7424                   21325204.1024
        44.0004         22.0004
   4632953.78716                  23047221.922
        41.000
   4616997.08316                  23194977.227
        41.750
   4656615.49257   -973334.05554  20426735.5394                   20426731.8134
        44.0004         27.5004
   4709155.19757   1669028.48154  20486042.2664                   20486042.6454
        47.0004         29.5004
   4760902.64557   4510517.94154  23397289.0004                   23397288.0354
        45.0004         25.2504
 19  3  5 22 36  0.0000000  0  7G11G13G17G18G28G30G08
   4609973.99657    851889.44953  22337845.4224                   22337842.3984
        44.7504         21.0004
   4637805.90257  -1073044.63753  21322855.5784                   21322853.4574
        43.7504         22.0004
   4606474.32816                  23042179.727
        40.250
                                  23191611.2664                   23191610.0824
        41.2504         21.7504
   4644826.93857   -982519.92654  20424489.2734                   20424487.1804
        44.2504         26.0004
   4706388.27047   1666872.57845  20485512.9144                   20485513.5984
        47.7504         30.5004
   4766696.46557   4515032.86354  23398388.4534                   23398389.5904
        45.5004         25.2504
 19  3  5 22 36  5.0000000  0  7G11G13G17G18G28G30G08
   4593718.90247    839223.06343  22334750.8984                   22334748.2464
        42.2504         20.7504
   4625491.64847  -1082640.14143  21320512.0634                   21320509.8754
        43.2504         22.0004
   4580005.95746   1048598.56653  23037143.1094                   23037140.8754
        40.7504         20.2504
   4581678.13346   2966025.44143  23188251.7504                   23188250.6914
        41.0004         21.5004
   4633055.99647   -991692.10244  20422249.6804                   20422246.9614
        44.5004         24.5004
   4703635.06657   1664727.31354  20484988.9614                   20484989.5904
        47.5004         29.7504
   4772495.35547   4519551.42244  23399492.2114                   23399492.7854
        45.5004         24.7504
 19  3  5 22 36 10.0000000  0  7G11G13G17G18G28G30G08
   4577499.65446    826584.73143  22331664.3754                   22331661.0904
        40.5004         20.2504
   4613186.30147  -1092228.74543  21318171.6024                   21318167.6604
        42.5004         21.7504
   4553548.69446   1027982.47543  23032109.1884                   23032106.1564
        38.5004         18.2504
                                  23184900.1094                   23184897.1724
        38.5004         20.0004
   4621294.90147  -1000856.59644  20420012.4924                   20420007.9304
        42.0004         27.2504
   4700904.17447   1662599.34945  20484470.8984                   20484468.7194
        45.5004         30.2504
   4778318.66947   4524089.09644  23400600.6024                   23400600.1094
        42.5004         25.0004
 19  3  5 22 36 15.0000000  0  7G11G13G17G18G28G30G08
   4561308.21057    813968.02153  22328584.3284                   22328581.5084
        42.0004         20.0004
   4600909.76257  -1101794.87553  21315834.8594                   21315833.0864
        45.0004         22.5004
   4527108.98846   1007380.13742  23027077.2504                   23027076.1764
        38.7504         16.7504
   4546469.00146   2938589.78743  23181552.1334                   23181551.3014
        41.0004         19.2504
   4609555.32847  -1010004.31244  20417778.0554                   20417775.0234
        44.5004         27.5004
   4698196.74657   1660489.68055  20483954.5784                   20483954.1564
        46.5004         31.5004
   4784161.13157   4528641.67854  23401712.1174                   23401712.9384
        45.7504         26.0004
 19  3  5 22 36 20.0000000  0  7G11G13G17G18G28G30G08
   4545138.33247    801368.08343  22325511.8834                   22325505.4304
        45.2504         21.0004
   4588658.94047  -1111340.98043  21313507.1414                   21313500.4654
        44.0004         22.5004
   4500684.61446    986789.67042  23022051.9844                   23022047.8404
        40.0004         16.2504
   4528899.02247   2924898.83143  23178213.7114                   23178208.0474
        44.5004         19.2504
   4597832.59447  -1019138.92244  20415551.2894                   20415544.1684
        44.5004         26.0004
   4695508.50448   1658394.89545  20483448.1254                   20483442.4454
        49.0004         30.0004
   4790018.06647   4533205.46344  23402829.7114                   23402826.9654
        46.7504         26.7504
 19  3  5 22 36 25.0000000  0  7G11G13G17G18G28G30G08
   4528992.59857    788786.98853  22322434.4304                   22322433.1524
        43.2504         21.5004
   4576421.96957  -1120876.33653  21311174.6484                   21311173.4384
        42.0004         22.5004
   4474268.92646    966205.92542  23017023.6414                   23017022.0124
        39.5004         15.5004
                                  23174869.4614                   23174869.9264
        41.2504         20.2504
   4586120.07857  -1028265.60554  20413318.4694                   20413316.5204
        43.5004         25.7504
   4692837.41057   1656313.49254  20482934.1174                   20482935.6334
        47.0004         28.5004
   4795889.99657   4537781.14153  23403943.7114                   23403945.5824
        45.5004         23.0004
 19  3  5 22 36 50.0000000  0  7G11G13G17G18G28G30G08
                                  22307112.695
        38.000
   4719469.51616                  21299588.344
        41.750
                                  22991909.453
        37.750
                                  23158216.383
        38.500
   4721296.56816                  20402205.180
        40.250
                                  20480427.4844                   20480427.9884
        42.5004         34.5004
                                  23409551.367
        40.500
 19  3  5 22 36 55.0000000  0  3G11G17G08
   4704429.45717                  22304060.617
        45.000
   4690372.75416                  22986891.469
        39.500
                                  23410680.313
        43.000
 19  3  5 22 37  0.0000000  0  6G11G13G17G28G30G08
                                  22301014.6094                   22301008.3874
        45.2504         22.2504
                                  21294982.125
        42.500
   4664012.98016                  22981878.414
        40.500
   4713237.55557  -1038077.41154  20397778.4384                   20397771.9224
        43.0004         26.7504
   4723477.77317                  20479447.383
        45.750
   4740249.22357   4543865.89553  23411811.9614                   23411811.0904
        45.0004         23.0004
 19  3  5 22 37  5.0000000  0  7G11G13G17G18G28G30G08
                                  22297962.4064                   22297961.7854
        44.0004         22.7504
   4709853.359 6                  21292679.969
        38.500
                                  22976861.023
        39.500
                                  23148261.117
        40.000
                                  20395563.6954                   20395561.9964
        40.2504         24.5004
                                  20478956.6954                   20478958.6174
        44.5004         28.5004
                                  23412939.1334                   23412942.0274
        44.2504         22.7504
 19  3  5 22 37 10.0000000  0  7G11G13G17G18G28G30G08
   4656405.82046    747334.67643  22294921.6804                   22294920.0594
        40.2504         22.5004
   4697801.98857  -1146106.62554  21290387.9534                   21290386.5864
        43.5004         24.0004
   4611338.12546    951411.98053  22971851.5164                   22971848.3524
        38.7504         20.2504
   4687274.145 6                  23144954.281
        41.250
   4690022.60947  -1056166.89144  20393357.4454                   20393355.4384
        43.2504         28.5004
   4718382.39147   1650852.11344  20478474.8834                   20478475.4574
        45.5004         29.7504
   4752163.01647   4553149.44544  23414076.1334                   23414077.2624
        45.5004         26.0004
 19  3  5 22 37 15.0000000  0  7G11G13G17G18G28G30G08
   4640449.66846    734901.25044  22291885.0314                   22291883.8674
        41.7504         26.5004
   4685781.15247  -1155473.54744  21288100.7584                   21288098.4574
        42.7504         24.0004
   4585024.68046    930908.11343  22966844.4064                   22966841.8364
        39.5004         18.5004
   4669912.348 6                  23141650.461
        40.500
   4678445.12547  -1065188.33644  20391154.7274                   20391152.1764
        43.2504         29.0004
   4715868.78947   1648893.41845  20477996.8284                   20477997.7274
        46.0004         32.2504
   4758149.24247   4557813.99244  23415215.5554                   23415216.6294
        44.2504         25.7504
 19  3  5 22 37 20.0000000  0  7G11G13G17G18G28G30G08
   4624513.52347    722483.48844  22288853.5944                   22288851.0274
        42.7504         24.5004
   4673784.27747  -1164821.75444  21285817.8134                   21285815.4964
        44.0004         25.0004
   4558722.56346    910412.93843  22961838.9224                   22961837.0594
        40.7504         18.5004
   4652570.24646   2881932.63353  23138350.4694                   23138348.5634
        40.7504         21.2504
   4666882.84447  -1074197.91045  20388954.8284                   20388951.1414
        43.5004         30.0004
   4713372.04347   1646947.91445  20477521.9304                   20477521.3914
        47.0004         32.2504
   4764148.66447   4562488.87544  23416357.5164                   23416358.3094
        44.7504         24.0004
 19  3  5 22 37 25.0000000  0  7G11G13G17G18G28G30G08
   4608602.32847    710085.12944  22285825.2584                   22285822.6484
        42.7504         24.5004
   4661810.21947  -1174152.17643  21283539.6954                   21283536.3204
        44.5004         23.0004
   4532434.21146    889928.52143  22956837.6254                   22956834.8794
        41.5004         19.0004
   4635253.10946   2868438.74243  23135055.1254                   23135053.3954
        41.0004         19.2504
   4655336.51247  -1083195.04344  20386758.0314                   20386753.6844
        44.2504         28.2504
   4710895.14847   1645017.85945  20477051.0554                   20477049.5744
        47.5004         31.7504
   4770164.97347   4567176.91443  23417502.3754                   23417502.2894
        44.5004         23.7504
 19  3  5 22 37 30.0000000  0  7G11G13G17G18G28G30G08
   4592716.89847    697706.88343  22282802.1884                   22282798.9804
        42.5004         22.2504
   4649862.74647  -1183461.92243  21281265.2584                   21281262.0944
        43.5004         23.0004
   4506162.01646    869456.59842  22951836.7424                   22951835.6604
        39.5004         17.2504
   4617960.92246   2854964.30543  23131763.5164                   23131762.9144
        40.5004         19.0004
   4643809.52047  -1092177.14144  20384563.6174                   20384559.8484
        44.0004         28.0004
   4708440.52747   1643105.14145  20476583.6644                   20476582.5984
        46.2504         30.0004
   4776198.60547   4571878.41844  23418650.4144                   23418649.9534
        46.0004         24.0004
 19  3  5 22 37 35.0000000  0  7G11G13G17G18G28G30G08
   4576858.99146    685350.07243  22279785.5164                   22279782.7034
        41.7504         22.5004
   4637943.39447  -1192749.73843  21278998.0634                   21278993.7664
        43.7504         22.7504
   4479908.07046    848998.97342  22946841.7034                   22946839.4774
        39.7504         17.2504
   4600695.34446   2841510.61743  23128478.5474                   23128478.1804
        39.7504         18.2504
   4632303.64847  -1101142.76644  20382374.4924                   20382370.1484
        43.0004         27.0004
   4706010.15647   1641211.34844  20476120.5234                   20476119.7034
        45.7504         28.7504
   4782250.89847   4576594.48443  23419801.5634                   23419801.3244
        44.0004         23.2504
 19  3  5 22 37 45.0000000  0  5G13G17G28G30G08
                                  21274476.6724                   21274470.6764
        43.2504         28.0004
                                  22936857.734
        39.500
                                  20378003.836
        41.750
   4724520.03957   1639273.78755  20475205.3754                   20475203.4064
        46.0004         31.7504
                                  23422112.9534                   23422110.2464
        44.5004         29.0004
 19  3  5 22 37 55.0000000  0  3G13G18G30
   4721112.49217                  21269959.859
        44.000
                                  23115367.469
        42.000
   4724728.49257   1637959.77255  20474294.9694                   20474293.2344
        45.5004         35.0004
 19  3  5 22 38  5.0000000  0  7G11G13G17G18G28G30G08
                                  22261744.289
        43.500
                                  21265462.3054                   21265458.0164
        42.5004         27.0004
                                  22916895.547
        39.000
                                  23108830.695
        42.250
                                  20369278.5004                   20369275.5474
        43.0004         30.7504
                                  20473396.7734                   20473396.9734
        47.0004         33.2504
                                  23426748.3834                   23426747.3134
        45.5004         29.0004
 19  3  5 22 38 10.0000000  0  7G11G13G17G18G28G30G08
   4705481.867 6                  22258751.313
        40.250
   4705026.43056  -1233427.54753  21263218.8054                   21263215.9614
        41.5004         21.5004
   4676998.61346    825277.56653  22911908.1644                   22911908.5554
        38.5004         19.5004
   4693322.94946   2814140.84853  23105568.1174                   23105566.8244
        38.7504         21.5004
   4706148.25847  -1135436.16454  20367102.8444                   20367101.2814
        42.0004         26.5004
   4722142.48847   1634078.35244  20472952.0634                   20472953.1844
        44.5004         28.5004
   4738002.37147   4596137.46943  23427913.6094                   23427914.3524
        43.5004         23.7504
 19  3  5 22 38 15.0000000  0  7G11G13G17G18G28G30G08
   4689767.80946    645053.61753  22255761.1174                   22255758.5784
        40.7504         20.5004
   4693259.65647  -1242596.46143  21260980.2814                   21260977.1844
        43.5004         21.5004
   4650811.74246    804872.13342  22906926.2194                   22906925.4024
        40.0004         17.2504
   4676198.46546   2800797.10243  23102310.0084                   23102309.1214
        40.0004         19.7504
   4694732.79747  -1144331.34444  20364931.5394                   20364928.5474
        43.5004         26.5004
   4719824.41447   1632272.06344  20472511.5554                   20472511.8874
        44.5004         28.7504
   4744136.18847   4600917.05943  23429081.2504                   23429081.5274
        44.5004         22.5004
 19  3  5 22 38 20.0000000  0  7G11G13G17G18G28G30G08
   4674074.94147    632825.44143  22252775.1094                   22252772.4884
        43.0004         21.7504
   4681521.78147  -1251742.88743  21258746.8754                   21258743.9574
        43.7504         22.0004
   4624641.69146    784479.86742  22901946.8054                   22901945.4924
        39.0004         16.7504
   4659093.68446   2787468.68043  23099055.7274                   23099054.7154
        41.7504         19.2504
   4683336.97347  -1153211.21144  20362762.8364                   20362759.7274
        43.0004         25.2504
   4717526.85947   1630481.74244  20472074.5554                   20472074.7344
        46.5004         29.7504
   4750282.43447   4605706.33644  23430250.4454                   23430251.6724
        45.5004         26.2504
 19  3  5 22 38 25.0000000  0  7G11G13G17G18G28G30G08
   4658399.54746    620610.85543  22249791.5864                   22249789.6764
        41.5004         20.7504
   4669796.63347  -1260879.35543  21256514.6884                   21256512.8484
        43.5004         22.5004
   4598475.06646    764090.34442  22896966.5164                   22896967.1454
        38.7504         15.5004
   4642007.04746   2774154.44543  23095803.3204                   23095802.7234
        39.7504         18.2504
   4671947.21147  -1162086.34044  20360595.3914                   20360592.3914
        42.7504         26.0004
   4715239.71147   1628699.55944  20471638.8594                   20471640.0554
        45.2504         28.2504
   4756438.85147   4610503.55843  23431422.1804                   23431423.3324
        42.7504         22.2504
 19  3  5 22 38 30.0000000  0  7G11G13G17G18G28G30G08
   4642738.42246    608407.34843  22246812.0474                   22246809.9734
        40.5004         21.2504
   4658092.13347  -1269999.74643  21254287.3364                   21254285.5164
        43.0004         22.0004
   4572317.44946    743707.73842  22891989.8284                   22891989.6884
        37.5004         15.5004
   4624934.02746   2760850.77042  23092554.6564                   23092554.5634
        39.0004         17.7504
   4660568.44147  -1170952.92644  20358430.0864                   20358427.3834
        42.7504         25.2504
   4712964.72747   1626926.82844  20471206.2664                   20471206.8484
        43.7504         28.2504
   4762601.93447   4615305.93043  23432595.3054                   23432596.5944
        45.0004         23.7504
