     2.11           OBSERVATION DATA    G (GPS)             RINEX VERSION / TYPE
teqc  2019Feb25     Martin Truffer      20190308 01:05:21UTCPGM / RUN BY / DATE
Linux 2.6.32-573.12.1.x86_64|x86_64|gcc|Linux 64|=+         COMMENT
BIT 2 OF LLI FLAGS DATA COLLECTED UNDER A/S CONDITION       COMMENT
51890650                                                    MARKER NAME
5189                                                        MARKER NUMBER
-Unknown-           -Unknown-                               OBSERVER / AGENCY
0220315189          TRIMBLE 5700        2.30                REC # / TYPE / VERS
-Unknown-           TRM41249.00     NONE                    ANT # / TYPE
 -1795171.1300 -3484394.5896  5017485.7904                  APPROX POSITION XYZ
        0.0530        0.0000        0.0000                  ANTENNA: DELTA H/E/N
     1     1                                                WAVELENGTH FACT L1/2
     7    L1    L2    C1    P1    P2    S1    S2            # / TYPES OF OBSERV
    18                                                      LEAP SECONDS
 SNR is mapped to RINEX snr flag value [0-9]                COMMENT
  L1 & L2: min(max(int(snr_dBHz/6), 0), 9)                  COMMENT
  2019     3     6     0     0   25.0000000     GPS         TIME OF FIRST OBS
                                                            END OF HEADER
 19  3  6  0  0 25.0000000  0  7G11G13G17G18G19G01G28
    -27323.14556  -7909050.41453  22892086.6094                   22892084.8164
        41.5004         20.0004
    198369.92616                  22615065.281
        39.500
  -8172269.80557 -18183914.73454  20893050.9454                   20893050.3324
        45.0004         26.2504
    -60556.80156  -4536175.07853  23504401.6334                   23504402.9574
        39.0004         19.2504
  -1054443.27356  -9103069.80152  21989656.5234                   21989654.6214
        39.7504         17.7504
  -5164502.34856  -5754450.46953  22579724.6804                   22579727.8054
        41.7504         22.7504
  -2428393.53957 -10335072.08254  21041586.9144                   21041585.4414
        44.0004         24.5004
 19  3  6  0  0 30.0000000  0  7G11G13G17G18G19G01G28
    -27748.18747  -7909381.71143  22892006.9454                   22892003.1334
        43.7504         19.7504
    200793.088 6                  22615527.539
        39.000
  -8189108.37947 -18197035.73844  20889848.5004                   20889844.9964
        44.5004         26.5004
    -61775.98047  -4537125.11743  23504171.5864                   23504170.2194
        43.7504         19.7504
  -1081451.51846  -9124115.28142  21984518.6884                   21984514.6294
        39.0004         16.7504
  -5174969.12147  -5762606.44544  22577734.6644                   22577735.0634
        45.0004         25.7504
  -2432879.64547 -10338567.81244  21040734.7734                   21040730.1374
        46.2504         27.5004
 19  3  6  0  0 35.0000000  0  7G11G13G17G18G19G01G28
    -28161.86846  -7909704.08243  22891927.0634                   22891923.9614
        40.2504         19.7504
    203220.531 6                  22615987.859
        41.250
  -8205938.01647 -18210149.76644  20886645.0554                   20886642.0164
        46.5004         27.7504
    -62983.00746  -4538065.66943  23503940.5784                   23503939.9144
        39.5004         18.5004
  -1108455.51647  -9145157.38742  21979379.5234                   21979375.7384
        42.7504         17.2504
  -5185420.60746  -5770750.48244  22575745.3914                   22575746.6484
        41.5004         24.0004
  -2437362.18447 -10342060.70044  21039880.6804                   21039877.0474
        44.5004         26.0004
 19  3  6  0  0 40.0000000  0  7G11G13G17G18G19G01G28
    -28564.24246  -7910017.58243  22891850.8834                   22891847.5944
        41.7504         19.0004
    205655.449 6                  22616452.063
        41.000
  -8222759.19947 -18223257.14144  20883444.3204                   20883441.2584
        46.7504         29.7504
    -64176.57446  -4538995.73043  23503713.6414                   23503712.6564
        41.2504         18.2504
  -1135454.36346  -9166195.42643  21974241.2814                   21974237.3874
        40.7504         18.2504
  -5195857.91047  -5778883.37943  22573758.8674                   22573759.8324
        43.7504         22.7504
  -2441841.88747 -10345551.34044  21039028.0944                   21039024.5354
        45.7504         28.5004
 19  3  6  0  0 45.0000000  0  7G11G13G17G18G19G01G28
    -28958.30547  -7910324.60543  22891775.5394                   22891772.0204
        42.2504         18.5004
    208096.375 6                  22616916.797
        39.500
  -8239572.13747 -18236358.11744  20880244.6414                   20880241.8954
        46.5004         29.7504
    -65360.77346  -4539918.43443  23503489.1334                   23503487.7934
        39.5004         18.5004
  -1162447.98046  -9187229.35543  21969104.5784                   21969100.7344
        40.0004         18.5004
  -5206282.97347  -5787006.79343  22571775.2974                   22571776.0474
        43.5004         22.2504
  -2446320.21547 -10349040.92244  21038175.9224                   21038172.5634
        45.5004         28.5004
 19  3  6  0  0 50.0000000  0  7G11G13G17G18G19G01G28
    -29336.81647  -7910619.60242  22891703.3914                   22891700.6174
        42.5004         17.2504
    210544.875 6                  22617381.156
        37.000
  -8256373.31947 -18249449.94944  20877046.8594                   20877044.4964
        44.7504         26.2504
    -66528.324 6                  23503265.742
        41.000
  -1189434.26146  -9208257.69243  21963969.1954                   21963965.0984
        38.2504         19.5004
  -5216688.84047  -5795115.30143  22569794.3524                   22569795.8324
        43.2504         22.5004
  -2450791.48147 -10352525.03043  21037324.5704                   21037321.5594
        44.7504         23.2504
 19  3  6  0  0 55.0000000  0  7G11G13G17G18G19G01G28
    -29706.28946  -7910907.48843  22891633.0004                   22891630.1994
        41.0004         18.2504
    213009.668 6                  22617851.352
        38.750
  -8273159.71947 -18262530.27344  20873852.7424                   20873850.8914
        45.5004         27.2504
    -67685.852 6                  23503045.500
        41.250
  -1216406.33246  -9229274.80543  21958836.1484                   21958832.5164
        39.0004         19.2504
  -5227081.48447  -5803213.44544  22567817.7194                   22567818.6254
        43.0004         25.0004
  -2455258.30547 -10356005.70744  21036474.8594                   21036471.3984
        45.2504         28.5004
 19  3  6  0  1  0.0000000  0  7G11G13G17G18G19G01G28
    -30059.84447  -7911182.97943  22891566.2734                   22891562.6454
        42.5004         19.0004
    215482.711 6                  22618322.109
        40.250
  -8289933.02747 -18275600.38344  20870661.6414                   20870659.2194
        45.2504         27.7504
    -68826.629 7                  23502829.313
        42.000
  -1243369.75846  -9250285.27343  21953705.8594                   21953701.5354
        40.0004         18.2504
  -5237454.15247  -5811296.07444  22565843.8444                   22565844.7974
        43.0004         26.5004
  -2459716.98047 -10359480.00444  21035626.7584                   21035623.1994
        45.5004         29.2504
 19  3  6  0  1  5.0000000  0  7G11G13G17G18G19G01G28
    -30402.90647  -7911450.32843  22891501.5554                   22891498.1844
        43.5004         19.5004
    217970.996 6                  22618795.555
        36.500
  -8306694.04347 -18288660.88344  20867472.5704                   20867469.4184
        45.0004         29.0004
    -69954.47747  -4541472.94355  23502614.5554                   23502611.4144
        43.0004         31.0004
  -1270322.67246  -9271287.52343  21948576.1094                   21948572.3954
        38.0004         18.2504
  -5247813.78947  -5819368.49644  22563872.3524                   22563872.9574
        45.2504         24.7504
  -2464171.76647 -10362951.25044  21034778.9774                   21034775.2424
        46.0004         28.7504
 19  3  6  0  1 10.0000000  0  7G11G13G17G18G19G01G28
    -30734.34847  -7911708.53943  22891437.9924                   22891434.2584
        43.5004         20.0004
    220463.80916                  22619269.859
        38.750
  -8323445.59047 -18301714.02044  20864284.5944                   20864280.7344
        46.0004         28.0004
    -71070.363 7                  23502402.125
        43.500
  -1297269.82446  -9292285.28142  21943449.5394                   21943444.2344
        39.5004         17.7504
  -5258157.11747  -5827428.20344  22561905.0864                   22561904.2894
        45.5004         26.5004
  -2468622.77347 -10366419.53544  21033932.3524                   21033927.8364
        46.5004         29.2504
 19  3  6  0  1 15.0000000  0  7G11G13G17G18G19G01G28
    -31050.73057  -7911955.12153  22891376.6334                   22891374.5744
        42.5004         19.0004
    222959.801 5                  22619744.156
        35.750
  -8340188.46647 -18314760.42344  20861097.3364                   20861094.8484
        44.5004         28.2504
    -72169.395 6                  23502191.570
        41.250
  -1324213.85546  -9313280.71943  21938320.7344                   21938316.2624
        37.5004         20.0004
  -5268482.26647  -5835473.77743  22559937.9304                   22559939.6804
        42.7504         23.7504
  -2473068.31457 -10369883.55854  21033085.2424                   21033081.8984
        44.5004         27.0004
 19  3  6  0  1 20.0000000  0  7G11G13G17G18G19G01G28
    -31355.54747  -7912192.60543  22891320.4614                   22891315.6914
        43.5004         18.2504
    225469.070 6                  22620221.797
        39.250
  -8356915.90247 -18327794.80344  20857915.3134                   20857911.0744
        44.5004         25.2504
    -73256.898 7                  23501986.438
        44.500
  -1351144.06646  -9334265.16442  21933196.3834                   21933191.9454
        41.5004         17.7504
  -5278790.70347  -5843506.33643  22557977.8054                   22557977.4344
        44.5004         23.0004
  -2477507.31647 -10373342.57044  21032241.8674                   21032236.5274
        46.0004         27.7504
 19  3  6  0  1 25.0000000  0  7G11G13G17G18G19G01G28
    -31648.56247  -7912420.95743  22891264.6644                   22891260.2464
        43.0004         19.5004
    227984.248 6                  22620700.602
        39.500
  -8373635.24247 -18340822.88444  20854733.2894                   20854730.1684
        45.5004         29.0004
    -74330.527 7                  23501781.977
        42.750
  -1378070.31246  -9355246.77043  21928072.9454                   21928068.4344
        40.0004         19.5004
  -5289084.42247  -5851527.43044  22556018.6174                   22556018.6094
        43.5004         26.0004
  -2481943.30447 -10376799.20044  21031397.3914                   21031392.7034
        45.7504         28.7504
 19  3  6  0  1 30.0000000  0  7G11G13G17G18G19G01G28
    -31930.84046  -7912640.88743  22891210.5394                   22891206.4694
        41.5004         20.2504
    230506.414 6                  22621180.953
        39.500
  -8390344.34047 -18353842.91044  20851553.8364                   20851551.5394
        45.2504         28.5004
    -75392.45347  -4542185.35555  23501579.9224                   23501575.2894
        42.5004         31.5004
  -1404989.73446  -9376222.86743  21922950.3284                   21922946.1604
        40.2504         20.0004
  -5299363.36747  -5859536.95344  22554062.8594                   22554063.6134
        43.2504         27.5004
  -2486375.47347 -10380252.80944  21030553.5554                   21030549.8634
        45.2504         29.7504
 19  3  6  0  1 35.0000000  0  7G11G13G17G18G19G01G28
    -32205.08247  -7912854.60943  22891158.1644                   22891154.0744
        42.0004         20.0004
    233036.789 6                  22621662.992
        38.500
  -8407044.19947 -18366855.81244  20848375.6954                   20848373.2234
        45.2504         28.2504
    -76445.16447  -4543005.65643  23501379.4774                   23501376.0784
        43.0004         22.5004
  -1431902.14846  -9397193.59843  21917830.0314                   21917824.8014
        40.0004         19.5004
  -5309630.26647  -5867537.13744  22552109.6414                   22552109.9654
        44.5004         28.5004
  -2490806.05547 -10383705.21145  21029710.8054                   21029707.4454
        45.7504         30.0004
 19  3  6  0  1 40.0000000  0  7G11G13G17G18G19G01G28
    -32468.00047  -7913059.50843  22891108.9774                   22891102.6134
        45.7504         21.5004
    235571.008 7                  22622145.063
        42.000
  -8423736.15647 -18379862.52344  20845200.7274                   20845195.0904
        47.0004         28.5004
    -77485.31647  -4543816.18043  23501182.1484                   23501178.1254
        44.2504         21.7504
  -1458811.11346  -9418161.66043  21912708.6724                   21912703.0314
        40.0004         19.2504
  -5319882.17347  -5875525.66044  22550159.3834                   22550156.7194
        45.2504         25.7504
  -2495233.69547 -10387155.34844  21028869.1954                   21028862.6724
        47.0004         29.2504
 19  3  6  0  1 45.0000000  0  7G11G13G17G18G19G01G28
    -32723.855 7                  22891060.609
        45.000
    238111.234 6                  22622627.703
        40.000
  -8440420.44547 -18392863.31243  20842025.9064                   20842019.0944
        46.0004         23.0004
    -78517.238 7                  23500985.711
        44.500
  -1485714.95347  -9439125.90253  21907588.7194                   21907582.7304
        42.5004         19.5004
  -5330123.15647  -5883505.65243  22548210.1724                   22548206.8054
        46.2504         21.7504
  -2499660.88347 -10390605.21143  21028026.7344                   21028019.7344
        46.7504         22.2504
 19  3  6  0  1 50.0000000  0  7G11G13G17G18G19G01G28
    -32971.99047  -7913437.14753  22891011.6954                   22891007.8834
        42.5004         22.7504
    240661.779 6                  22623113.602
        38.500
  -8457094.38647 -18404816.84355  20838850.5314                   20838847.2274
        46.7504         35.5004
    -79539.97747  -4545257.05554  23500790.2504                   23500782.6994
        42.0004         25.2504
  -1512610.315 6                  21902470.445
        40.000
  -5340352.58447  -5891476.64844  22546262.0784                   22546261.6954
        43.7504         29.2504
  -2504086.21447 -10394053.41445  21027182.5004                   21027178.4384
        46.0004         32.0004
 19  3  6  0  1 55.0000000  0  7G11G13G17G18G19G01G28
    -33209.10557  -7913621.92254  22890966.9774                   22890962.6564
        44.7504         27.7504
    243218.04716                  22623599.664
        36.250
  -8473758.50647 -18417801.93355  20835680.5004                   20835675.3404
        44.7504         30.0004
    -80551.05557  -4546045.00454  23500597.7344                   23500591.5704
        44.2504         25.7504
  -1539499.72956  -9457563.83253  21897353.1334                   21897347.5044
        39.7504         20.7504
  -5350566.81657  -5899435.69555  22544318.8674                   22544318.5904
        46.2504         32.2504
  -2508507.62847 -10397498.60345  21026341.9534                   21026337.7894
        46.5004         31.5004
 19  3  6  0  2  0.0000000  0  7G11G13G17G18G19G01G28
    -33439.52746  -7913801.48843  22890923.8284                   22890918.5984
        41.5004         22.5004
    245781.668 6                  22624089.039
        37.750
  -8490415.16447 -18430781.19145  20832511.8284                   20832507.0274
        44.2504         30.0004
    -81553.57046  -4546826.23443  23500407.3444                   23500401.8674
        40.5004         22.2504
  -1566383.45746  -9478512.20743  21892238.7194                   21892232.0434
        38.2504         21.0004
  -5360770.57847  -5907386.73844  22542378.1414                   22542376.6994
        42.0004         27.7504
  -2512929.33247 -10400944.12944  21025502.0084                   21025496.0164
        43.7504         28.5004
 19  3  6  0  2  5.0000000  0  7G11G13G17G18G19G01G28
    -33662.97747  -7913975.63343  22890879.4774                   22890874.5864
        44.2504         22.7504
    248344.567 6                  22624575.102
        38.250
  -8507067.85547 -18443757.30545  20829341.4224                   20829336.5744
        46.0004         31.5004
    -82548.10947  -4547601.16843  23500217.3594                   23500212.9144
        43.0004         21.5004
  -1593267.75046  -9499461.01243  21887121.9614                   21887115.3554
        40.7504         21.7504
  -5370963.47747  -5915329.27345  22540436.8364                   22540436.2234
        45.5004         30.0004
  -2517352.02047 -10404390.38344  21024658.5314                   21024653.5004
        46.5004         29.5004
 19  3  6  0  2 10.0000000  0  7G11G13G17G18G19G01G28
    -33879.00447  -7914143.95743  22890839.6094                   22890834.5864
        43.7504         22.7504
    250913.883 6                  22625064.414
        38.750
  -8523712.27747 -18456727.00845  20826174.5164                   20826170.1954
        47.0004         31.5004
    -83534.09047  -4548369.52343  23500030.0394                   23500026.1134
        44.0004         21.2504
  -1620146.51246  -9520405.52043  21882007.0784                   21882001.0904
        40.5004         21.7504
  -5381144.86347  -5923262.82044  22538499.7894                   22538499.3324
        45.0004         28.5004
  -2521773.83647 -10407835.98445  21023817.5314                   21023812.8834
        46.5004         30.5004
 19  3  6  0  2 15.0000000  0  7G11G13G17G18G19G01G28
    -34086.09047  -7914305.33643  22890799.4304                   22890795.9184
        44.0004         22.5004
    253490.359 6                  22625555.023
        38.750
  -8540347.89847 -18469689.78145  20823008.3524                   20823005.3324
        46.7504         31.2504
    -84509.61747  -4549129.67643  23499844.1644                   23499840.8284
        42.0004         20.7504
  -1647019.48846  -9541345.47343  21876893.8984                   21876888.0744
        41.0004         21.5004
  -5391313.69147  -5931186.58645  22536564.5084                   22536564.5704
        46.0004         32.0004
  -2526193.60247 -10411279.92645  21022975.9924                   21022971.9924
        45.7504         31.0004
 19  3  6  0  2 20.0000000  0  7G11G13G17G18G19G01G28
    -34287.59847  -7914462.35244  22890762.3594                   22890756.3674
        45.0004         24.5004
    256071.918 6                  22626045.977
        39.500
  -8556979.06247 -18482649.18045  20819844.4844                   20819839.4344
        47.5004         34.0004
    -85476.90247  -4549883.39143  23499661.0164                   23499656.3554
        43.5004         21.2504
  -1673890.41446  -9562283.88343  21871780.9144                   21871773.6524
        41.5004         22.7504
  -5401474.30547  -5939103.93745  22534632.4064                   22534630.3834
        46.7504         32.5004
  -2530615.89547 -10414725.90245  21022135.7504                   21022129.2304
        47.2504         33.5004
 19  3  6  0  2 25.0000000  0  7G11G13G17G18G19G01G28
    -34481.89847  -7914613.75844  22890724.6174                   22890719.5124
        44.7504         25.0004
    258654.422 6                  22626537.359
        37.250
  -8573605.64847 -18495604.93445  20816680.3674                   20816675.7704
        47.0004         31.2504
    -86435.64847  -4550630.45343  23499478.2114                   23499474.0514
        43.0004         22.0004
  -1700760.89846  -9583221.91444  21866667.2814                   21866660.8244
        41.2504         24.0004
  -5411624.05547  -5947012.83245  22532700.6334                   22532699.1484
        47.0004         31.2504
  -2535038.86747 -10418172.35245  21021293.2974                   21021288.4574
        47.0004         31.5004
 19  3  6  0  2 30.0000000  0  7G11G13G17G18G19G01G28
    -34669.91847  -7914760.26643  22890689.1334                   22890684.7584
        44.2504         22.7504
    261248.922 6                  22627032.195
        40.750
  -8590220.61748 -18508551.62545  20813519.7504                   20813514.2464
        48.0004         31.7504
    -87387.11747  -4551342.86654  23499297.2504                   23499293.7114
        44.0004         29.2504
  -1727620.99246  -9604151.89543  21861556.0314                   21861549.4264
        41.5004         21.5004
  -5421763.29747  -5954913.52045  22530770.4454                   22530769.5474
        46.7504         30.5004
  -2539459.95347 -10421617.36745  21020452.2814                   21020446.6294
        47.0004         31.5004
 19  3  6  0  2 35.0000000  0  7G11G13G17G18G19G01G28
    -34846.72747  -7914898.05543  22890655.5704                   22890650.7344
        43.5004         22.7504
    263852.613 6                  22627527.219
        37.750
  -8606826.09447 -18521491.01245  20810358.2974                   20810354.8754
        46.2504         30.7504
    -88325.02047  -4552073.70743  23499118.2894                   23499115.6254
        42.0004         21.2504
  -1754474.19146  -9625076.43043  21856445.9384                   21856439.8984
        41.0004         22.0004
  -5431888.27747  -5962803.14544  22528843.6094                   22528842.6564
        46.0004         28.2504
  -2543878.08247 -10425060.07044  21019611.0004                   21019606.4574
        46.0004         29.5004
 19  3  6  0  2 40.0000000  0  7G11G13G17G18G19G01G28
    -35027.55147  -7915038.89144  22890621.0864                   22890616.3634
        45.2504         26.2504
    266451.109 6                  22628022.109
        38.750
  -8623435.35248 -18534433.21145  20807198.4224                   20807194.5664
        48.7504         33.0004
    -89265.34447  -4552806.37143  23498940.1884                   23498936.7704
        44.0004         22.2504
  -1781334.12947  -9646006.19943  21851334.5784                   21851328.7034
        42.5004         22.5004
  -5442013.72347  -5970693.03145  22526917.2734                   22526916.4454
        47.5004         33.0004
  -2548307.01247 -10428511.12145  21018768.8984                   21018764.4614
        47.7504         33.2504
 19  3  6  0  2 45.0000000  0  7G11G13G17G18G19G01G28
    -35202.24247  -7915175.11743  22890587.2974                   22890583.1684
        45.0004         22.0004
    269048.641 6                  22628515.445
        38.500
  -8640040.69547 -18547372.53144  20804038.0004                   20804034.1454
        47.0004         29.0004
    -90198.98847  -4553533.91453  23498761.2114                   23498759.3914
        43.0004         20.7504
  -1808193.76247  -9666935.84843  21846223.2344                   21846217.3284
        42.0004         22.5004
  -5452128.43047  -5978574.70744  22524991.8444                   22524991.4144
        47.0004         28.0004
  -2552737.58647 -10431963.57044  21017925.1954                   21017920.8554
        47.5004         28.5004
 19  3  6  0  2 50.0000000  0  7G11G13G17G18G19G01G28
    -35363.949 7                  22890557.594
        45.000
    271648.777 6                  22629009.625
        37.500
  -8656635.80947 -18558235.71556  20800880.5784                   20800861.3634
        47.0004         38.2504
    -91120.03947  -4554224.38353  23498587.7344                   23498586.0124
        43.5004         21.5004
  -1835047.363 7                  21841113.406
        42.250
  -5462224.633 7                  22523071.344
        46.500
  -2557162.79347 -10434859.82856  21017083.9774                   21017062.1644
        47.5004         38.5004
 19  3  6  0  2 55.0000000  0  7G11G13G17G18G19G01G28
    -35506.187 7                  22890531.172
        45.500
    274264.203 6                  22629508.086
        38.000
  -8673212.36747 -18571152.58655  20797726.4454                   20797719.4804
        47.0004         31.2504
    -92020.453 7                  23498416.258
        43.750
  -1861885.945 6                  21836006.602
        41.500
  -5472297.352 7                  22521155.094
        46.000
  -2561575.64847 -10438298.41455  21016244.3984                   21016237.4734
        47.2504         30.5004
 19  3  6  0  3  0.0000000  0  7G11G13G17G18G19G01G28
    -35634.93447  -7915299.20755  22890504.8834                   22890504.1414
        43.5004         33.0004
    276895.551 6                  22630008.773
        37.500
  -8689773.01647 -18581474.97554  20794573.6804                   20794569.9184
        44.0004         28.7504
    -92905.863 7                  23498246.500
        42.500
  -1888710.10946  -9684506.90653  21830901.0314                   21830892.8284
        39.7504         22.0004
  -5482352.51647  -5984549.88254  22519240.8754                   22519240.4574
        45.5004         29.7504
  -2565981.00147 -10441456.14255  21015405.2114                   21015399.1294
        44.7504         30.7504
 19  3  6  0  3  5.0000000  0  7G11G13G17G18G19G01G28
    -35756.48447  -7915393.89553  22890483.0554                   22890477.9024
        42.7504         22.5004
    279536.363 6                  22630512.273
        40.000
  -8706322.27747 -18594370.45345  20791425.1024                   20791421.1134
        47.7504         34.0004
    -93783.863 6                  23498080.273
        38.500
  -1915524.40647  -9705401.06644  21825799.4384                   21825791.0354
        42.2504         25.5004
  -5492395.58647  -5992375.66045  22517329.8364                   22517329.3914
        45.7504         31.7504
  -2570384.00047 -10444886.97345  21014567.7034                   21014563.0124
        46.2504         32.5004
 19  3  6  0  3 10.0000000  0  7G11G13G17G18G19G01G28
    -35874.09847  -7915485.53943  22890460.0944                   22890454.8404
        42.0004         22.5004
    282190.42646  -7687372.68053  22631016.0944                   22631012.3984
        40.5004         20.2504
  -8722860.41448 -18607257.28945  20788278.4224                   20788274.1884
        48.7504         34.5004
    -94656.844 6                  23497914.070
        39.750
  -1942327.28147  -9726286.43444  21820698.5314                   21820691.6844
        43.0004         26.0004
  -5502430.03147  -6000194.70345  22515420.6564                   22515419.1334
        46.2504         31.0004
  -2574786.86747 -10448317.79345  21013730.4924                   21013724.5904
        47.0004         32.7504
 19  3  6  0  3 15.0000000  0  7G11G13G17G18G19G01G28
    -35985.42246  -7915572.28143  22890439.1804                   22890434.6414
        41.5004         22.0004
    284861.50846  -7685291.27043  22631523.5234                   22631521.3954
        38.2504         19.2504
  -8739383.23448 -18620132.19945  20785133.5084                   20785129.2074
        49.2504         34.7504
    -95522.844 6                  23497748.859
        38.500
  -1969114.83647  -9747159.81244  21815600.2814                   21815594.5514
        43.2504         27.0004
  -5512453.52347  -6008005.18445  22513512.5164                   22513511.5514
        45.7504         30.5004
  -2579186.09847 -10451745.74645  21012892.4774                   21012887.3164
        46.5004         32.7504
 19  3  6  0  3 20.0000000  0  7G11G13G17G18G19G01G28
    -36086.86746  -7915651.29343  22890419.8834                   22890414.7344
        39.5004         21.2504
    287542.68046  -7683202.03543  22632035.0314                   22632031.0664
        41.5004         19.5004
  -8755896.04448 -18632999.29645  20781991.3914                   20781986.6054
        49.5004         34.2504
    -96376.875 6                  23497586.523
        37.000
  -1995894.44547  -9768027.07044  21810504.9534                   21810498.2814
        44.5004         27.7504
  -5522463.78947  -6015805.35944  22511608.8594                   22511606.0944
        43.7504         28.7504
  -2583582.68847 -10455171.64245  21012056.4384                   21012049.8754
        46.5004         31.2504
 19  3  6  0  3 25.0000000  0  7G11G13G17G18G19G01G28
    -36186.19147  -7915728.70343  22890400.6884                   22890395.5124
        42.0004         19.7504
    290235.46546  -7681103.77143  22632546.2274                   22632543.4924
        39.0004         20.0004
  -8772399.45748 -18645859.12145  20778850.8364                   20778846.8404
        49.0004         34.0004
    -97227.605 6                  23497424.211
        39.500
  -2022664.63747  -9788886.98444  21805409.7894                   21805404.5904
        43.2504         27.0004
  -5532467.62147  -6023600.59044  22509704.0944                   22509703.3364
        44.5004         27.2504
  -2587980.95747 -10458598.88745  21011218.7664                   21011213.8674
        46.7504         31.0004
 19  3  6  0  3 30.0000000  0  7G11G13G17G18G19G01G28
    -36278.68046  -7915800.75843  22890383.3984                   22890378.1604
        39.5004         18.2504
    292938.19946  -7678997.71943  22633061.6024                   22633057.9574
        41.0004         20.2504
  -8788893.25848 -18658711.38745  20775712.6884                   20775708.0084
        48.7504         33.0004
    -98069.711 6                  23497264.109
        36.500
  -2049426.87947  -9809740.64144  21800317.8834                   21800311.8054
        44.0004         28.0004
  -5542460.82047  -6031387.45344  22507802.5864                   22507802.1024
        43.0004         26.2504
  -2592378.15647 -10462025.23045  21010382.1644                   21010376.8714
        45.7504         30.0004
 19  3  6  0  3 35.0000000  0  7G11G13G17G18G19G01G28
    -36360.89546  -7915864.79342  22890365.7584                   22890362.7234
        36.0004         17.7504
    295651.19547  -7676883.73443  22633576.2034                   22633574.4024
        42.2504         22.5004
  -8805376.14847 -18671555.21545  20772574.4454                   20772573.2274
        47.7504         34.5004
    -98899.672 5                  23497105.328
        34.750
  -2076180.52047  -9830587.63344  21795225.3444                   21795222.0354
        43.7504         29.7504
  -5552440.32446  -6039163.69144  22505902.0164                   22505903.2774
        40.5004         26.5004
  -2596771.90247 -10465448.93044  21009544.2894                   21009542.2624
        43.7504         29.7504
 19  3  6  0  3 40.0000000  0  7G11G13G17G18G19G01G28
    -36435.828 6                  22890353.000
        40.500
    298374.10547  -7674761.96543  22634095.7424                   22634092.0434
        43.7504         22.5004
  -8821848.59048 -18684390.86745  20769441.1564                   20769437.7854
        49.0004         33.5004
    -99720.887 6                  23496949.359
        38.500
  -2102925.75847  -9851428.06244  21790137.8594                   21790132.4064
        45.0004         29.0004
  -5562408.43047  -6046931.03944  22504006.7974                   22504006.7464
        42.5004         25.5004
  -2601163.64847 -10468871.07045  21008709.8204                   21008706.1054
        45.5004         31.0004
 19  3  6  0  3 45.0000000  0  7G11G13G17G18G19G01G28
    -36494.578 6                  22890342.320
        40.500
    301100.61747  -7672637.43443  22634614.2424                   22634611.2114
        44.0004         22.7504
  -8838312.83248 -18697220.15645  20766307.9774                   20766304.9884
        49.0004         35.2504
   -100523.504 6                  23496797.219
        38.000
  -2129668.10547  -9872266.28545  21785048.3284                   21785043.2074
        44.7504         30.5004
  -5572357.66047  -6054683.70344  22502113.6724                   22502113.2194
        42.2504         24.5004
  -2605550.08247 -10472289.09445  21007875.5164                   21007871.4144
        45.7504         31.7504
 19  3  6  0  3 50.0000000  0  7G11G13G17G18G19G01G28
    -36548.863 6                  22890330.828
        40.000
    303837.30547  -7670504.94144  22635135.1484                   22635131.9264
        43.5004         25.5004
  -8854767.53548 -18710042.00045  20763176.3984                   20763173.1524
        49.0004         35.7504
   -101320.379 6                  23496645.828
        38.250
  -2156401.85247  -9893097.77744  21779961.1884                   21779955.9574
        44.7504         29.2504
  -5582298.10947  -6062429.51244  22500221.5704                   22500221.3674
        42.0004         24.5004
  -2609936.71147 -10475707.24645  21007040.1094                   21007036.2894
        45.7504         31.5004
 19  3  6  0  3 55.0000000  0  7G11G13G17G18G19G01G28
    -36588.816 6                  22890323.805
        39.500
    306579.88747  -7668367.86744  22635657.0234                   22635653.8324
        44.0004         25.7504
  -8871211.73048 -18722855.65245  20760047.5554                   20760043.6994
        49.2504         35.5004
   -102101.406 6                  23496496.773
        37.000
  -2183129.55547  -9913924.53544  21774874.8524                   21774870.0634
        44.5004         29.5004
  -5592220.49247  -6070161.23044  22498333.4534                   22498333.2424
        42.2504         25.5004
  -2614317.52347 -10479120.85945  21006206.6024                   21006202.7624
        45.7504         31.5004
 19  3  6  0  4  0.0000000  0  7G11G13G17G18G19G01G28
    -36617.887 6                  22890318.906
        40.250
    309331.42247  -7666223.76243  22636180.3754                   22636177.5474
        44.0004         22.5004
  -8887645.24648 -18735660.94145  20756920.0394                   20756916.6454
        49.7504         34.5004
   -102870.223 5                  23496350.289
        35.750
  -2209848.78947  -9934744.67244  21769790.2974                   21769785.4064
        45.2504         28.0004
  -5602127.91847  -6077881.24644  22496448.3754                   22496448.1454
        42.5004         26.2504
  -2618694.59047 -10482531.50844  21005373.8134                   21005369.8094
        45.7504         29.7504
 19  3  6  0  4  5.0000000  0  7G11G13G17G18G19G01G28
    -36642.281 6                  22890313.313
        40.750
    312083.65547  -7664079.19543  22636704.3914                   22636701.1214
        43.7504         22.2504
  -8904075.14548 -18748463.45345  20753793.6644                   20753790.4614
        48.5004         33.7504
   -103632.801 6                  23496204.406
        37.250
  -2236567.66447  -9955564.55544  21764705.2734                   21764700.8244
        44.7504         29.5004
  -5612026.70347  -6085594.59044  22494564.7194                   22494564.4184
        43.7504         25.5004
  -2623074.27347 -10485944.25045  21004540.7584                   21004536.8014
        46.0004         31.0004
 19  3  6  0  4 10.0000000  0  7G11G13G17G18G19G01G28
    -36658.738 6                  22890310.188
        39.000
    314842.12546  -7661929.75043  22637228.1564                   22637226.5704
        40.5004         23.5004
  -8920497.02748 -18761259.73046  20750667.6954                   20750666.8404
        48.0004         36.2504
   -104385.914 6                  23496060.766
        36.000
  -2263281.29347  -9976380.40245  21759621.8054                   21759619.2464
        43.2504         30.2504
  -5621913.77347  -6093298.80544  22492682.1884                   22492683.9384
        42.5004         28.0004
  -2627452.95347 -10489356.21545  21003706.4694                   21003705.0124
        45.0004         33.5004
 19  3  6  0  4 15.0000000  0  7G11G13G17G18G19G01G28
    -36666.613 6                  22890307.922
        39.250
    317596.50847  -7659783.46944  22637752.9064                   22637751.3444
        43.5004         25.7504
  -8936916.77748 -18774054.35245  20747543.5234                   20747542.2624
        48.0004         35.7504
   -105129.148 6                  23495919.398
        36.500
  -2289997.71147  -9997198.37544  21754537.2734                   21754535.1724
        44.2504         29.5004
  -5631788.28546  -6100993.23844  22490803.2814                   22490805.1844
        40.5004         25.2504
  -2631832.74647 -10492769.05545  21002873.2034                   21002872.2734
        44.7504         31.2504
 19  3  6  0  4 20.0000000  0  7G11G13G17G18G19G01G28
    -36669.941 6                  22890308.820
        41.000
    320359.10547  -7657630.79344  22638279.7034                   22638277.7624
        43.7504         24.0004
  -8953327.09848 -18786841.61345  20744421.9304                   20744419.4804
        49.5004         35.0004
   -105867.113 6                  23495781.039
        39.500
  -2316706.26247 -10018010.22744  21749456.3834                   21749452.7424
        45.2504         29.2504
  -5641653.54747  -6108680.45344  22488926.3914                   22488927.9844
        43.7504         28.0004
  -2636212.32847 -10496181.70345  21002041.1334                   21002037.5234
        46.5004         31.5004
 19  3  6  0  4 25.0000000  0  7G11G13G17G18G19G01G28
    -36657.434 6                  22890310.297
        39.250
    323130.45347  -7655471.28944  22638805.5004                   22638803.9614
        42.5004         26.0004
  -8969725.07048 -18799619.23846  20741299.8524                   20741298.3794
        48.2504         36.0004
   -106587.535 6                  23495641.508
        37.000
  -2343406.08647 -10038815.29345  21744374.1094                   21744370.7734
        44.2504         30.0004
  -5651499.20347  -6116352.39143  22487052.3134                   22487053.9454
        42.2504         23.7504
  -2640584.74247 -10499588.78145  21001207.5084                   21001205.1884
        45.7504         31.2504
 19  3  6  0  4 30.0000000  0  7G11G13G17G18G19G01G28
    -36637.87516                  22890315.156
        41.500
    325905.98457  -7653308.81553  22639335.1564                   22639332.6684
        42.5004         22.5004
  -8986115.74648 -18812391.34445  20738182.7344                   20738179.9064
        49.5004         35.5004
   -107300.01216                  23495508.516
        36.500
  -2370100.59857 -10059616.20354  21739296.4304                   21739291.2584
        44.7504         29.5004
  -5661332.31257  -6124014.30454  22485182.7814                   22485182.5354
        43.5004         27.7504
  -2644956.51657 -10502995.35555  21000377.6174                   21000372.1914
        46.5004         31.5004
 19  3  6  0  4 35.0000000  0  7G11G13G17G18G19G01G28
    -36605.227 6                  22890320.180
        39.000
    328687.36747  -7651141.46544  22639863.2034                   22639862.9384
        42.5004         25.2504
  -9002496.12158 -18825155.09855  20735064.0234                   20735063.0274
        48.5004         35.0004
   -107997.738 6                  23495373.742
        36.500
  -2396789.78947 -10080412.98044  21734215.8594                   21734213.8364
        43.5004         28.5004
  -5671149.59447  -6131664.13744  22483312.8134                   22483314.9534
        42.0004         25.0004
  -2649323.88747 -10506398.49245  20999544.7034                   20999543.0944
        45.5004         30.7504
 19  3  6  0  4 40.0000000  0  7G11G13G17G18G19G01G28
    -36568.527 6                  22890328.477
        39.500
    331479.03147  -7648966.16843  22640396.4844                   22640394.6604
        43.0004         23.0004
  -9018867.13748 -18837911.78145  20731950.3364                   20731948.5314
        48.0004         35.2504
   -108690.17646  -4555125.62953  23495244.1804                   23495243.5474
        37.5004         19.2504
  -2423470.05147 -10101202.79344  21729140.4304                   21729137.1884
        44.2504         29.7504
  -5680958.27047  -6139307.32044  22481448.0004                   22481449.3134
        42.0004         27.0004
  -2653691.26647 -10509801.68745  20998714.8364                   20998712.6764
        45.0004         31.7504
 19  3  6  0  4 45.0000000  0  7G11G13G17G18G19G01G28
    -36514.605 6                  22890340.000
        40.000
    334282.32847  -7646781.76244  22640931.4384                   22640928.2584
        44.5004         27.0004
  -9035223.64548 -18850657.07045  20728839.1334                   20728835.7814
        49.5004         35.5004
   -109363.69946  -4555650.48842  23495116.6954                   23495115.5084
        38.7504         16.7504
  -2450139.01247 -10121983.78145  21724066.9384                   21724062.3164
        45.5004         30.0004
  -5690746.01247  -6146934.09443  22479586.4774                   22479586.0554
        42.5004         22.7504
  -2658049.79347 -10513197.91045  20997886.1954                   20997882.6914
        46.2504         30.7504
 19  3  6  0  4 50.0000000  0  6G11G13G17G19G01G28
                                  22890351.258
        41.500
                                  22641464.1484                   22641463.1994
        42.0004         24.7504
                                  20725727.1414                   20725726.1214
        49.7504         34.5004
  -2476799.97347 -10142758.55944  21718991.6954                   21718988.8284
        45.2504         29.2504
                                  22477725.5234                   22477727.0864
        43.0004         24.0004
  -2662406.05157 -10516592.38755  20997056.6484                   20997053.8204
        46.7504         30.5004
 19  3  6  0  4 55.0000000  0  7G11G13G17G18G19G01G28
    -36376.891 6                  22890362.773
        37.500
    339910.58647  -7642396.12544  22641999.3364                   22641998.5084
        43.7504         25.0004
  -9067906.82848 -18876124.74645  20722617.1724                   20722616.6484
        48.5004         35.7504
   -110680.91815                  23494865.156
        35.500
  -2503454.06247 -10163527.97744  21713918.9534                   21713916.2194
        44.5004         28.7504
  -5710279.01646  -6162154.61744  22475867.6644                   22475869.7934
        38.7504         24.7504
  -2666757.13747 -10519982.87145  20996227.6724                   20996226.0634
        44.2504         30.5004
 19  3  6  0  5  0.0000000  0  7G11G13G17G18G19G01G28
    -36289.328 6                  22890380.047
        38.500
    342734.10546  -7640195.96543  22642536.4774                   22642535.5554
        41.7504         22.5004
  -9084232.84848 -18888846.28145  20719510.2274                   20719508.5354
        48.2504         32.5004
   -111317.121 6                  23494743.492
        37.500
  -2530101.85947 -10184292.49244  21708847.4454                   21708844.4264
        43.7504         27.2504
  -5720020.40646  -6169745.30143  22474012.7344                   22474015.8554
        41.0004         22.2504
  -2671103.85547 -10523369.91444  20995400.4454                   20995398.2194
        45.0004         28.5004
 19  3  6  0  5  5.0000000  0  7G11G13G17G18G19G01G28
    -36188.629 6                  22890399.422
        39.750
    345561.50847  -7637992.78543  22643075.3134                   22643073.1914
        44.0004         22.5004
  -9100549.78548 -18901560.76645  20716406.0234                   20716402.9304
        49.5004         34.0004
   -111938.684 6                  23494625.219
        39.000
  -2556745.07047 -10205053.41044  21703777.5474                   21703774.0824
        44.5004         27.5004
  -5729744.82847  -6177322.78943  22472163.2114                   22472165.0434
        42.0004         22.2504
  -2675445.98047 -10526753.37944  20994574.9384                   20994570.9844
        46.0004         29.5004
 19  3  6  0  5 10.0000000  0  7G11G13G17G18G19G01G28
    -36077.801 6                  22890419.039
        40.750
    348406.27747  -7635776.08244  22643616.2734                   22643614.2154
        44.5004         24.5004
  -9116850.64148 -18914262.74646  20713303.4064                   20713301.4774
        49.2504         36.5004
   -112548.836 6                  23494508.195
        37.250
  -2583372.47747 -10225802.05945  21698710.7114                   21698706.4964
        45.5004         30.0004
  -5739454.59446  -6184888.85544  22470315.4384                   22470316.6604
        41.7504         25.0004
  -2679782.29747 -10530132.33245  20993749.0164                   20993745.8484
        46.0004         32.0004
 19  3  6  0  5 15.0000000  0  7G11G13G17G18G19G01G28
    -35954.395 6                  22890444.336
        40.500
    351263.85547  -7633549.43744  22644160.9304                   22644158.4774
        44.2504         25.2504
  -9133136.82448 -18926953.29346  20710204.8674                   20710202.7114
        49.5004         36.0004
   -113145.422 6                  23494395.336
        38.000
  -2609987.05547 -10246540.69544  21693646.5474                   21693643.3484
        45.0004         29.7504
  -5749147.23847  -6192441.51244  22468471.5864                   22468472.5824
        42.5004         24.5004
  -2684111.92247 -10533506.06645  20992925.4614                   20992923.0514
        45.7504         30.5004
 19  3  6  0  5 20.0000000  0  7G11G13G17G18G19G01G28
    -35820.262 6                  22890469.461
        40.500
    354130.47347  -7631315.70744  22644705.2114                   22644704.0274
        43.0004         24.2504
  -9149411.22748 -18939634.64845  20707107.2584                   20707106.0474
        49.2504         35.2504
   -113729.984 6                  23494283.133
        36.500
  -2636592.55947 -10267272.26244  21688583.0234                   21688580.2114
        44.5004         29.0004
  -5758824.83647  -6199982.57043  22466629.5394                   22466631.0004
        42.2504         22.7504
  -2688436.97747 -10536876.26645  20992101.9224                   20992100.0354
        46.0004         30.0004
 19  3  6  0  5 25.0000000  0  7G11G13G17G18G19G01G28
    -35668.828 6                  22890498.547
        39.250
    357003.63747  -7629076.86344  22645252.2034                   22645250.7814
        44.0004         26.0004
  -9165673.58648 -18952306.61745  20704013.3524                   20704011.2974
        49.0004         35.5004
   -114295.871 6                  23494176.063
        37.500
  -2663190.33247 -10287997.80144  21683522.1174                   21683518.5354
        44.2504         29.0004
  -5768481.10247  -6207506.92244  22464791.9774                   22464793.4384
        42.0004         24.5004
  -2692754.02047 -10540240.19945  20991280.7274                   20991278.4614
        45.7504         31.5004
 19  3  6  0  5 30.0000000  0  7G11G13G17G18G19G01G28
    -35500.493 6                  22890529.563
        38.250
    359882.11247  -7626833.90644  22645799.3054                   22645798.7664
        43.2504         26.0004
  -9181925.02148 -18964970.05545  20700920.2034                   20700918.6724
        49.0004         35.2504
   -114843.133 6                  23494071.891
        36.500
  -2689781.97347 -10308718.53744  21678461.7274                   21678458.6294
        44.2504         28.7504
  -5778116.83646  -6215015.23844  22462957.4844                   22462959.8014
        41.2504         24.2504
  -2697063.74247 -10543598.40245  20990459.6724                   20990458.4844
        45.0004         31.5004
 19  3  6  0  5 35.0000000  0  7G11G13G17G18G19G01G28
    -35321.254 6                  22890565.320
        40.750
    362765.56647  -7624587.02743  22646348.8524                   22646347.3874
        42.0004         22.5004
  -9198167.39148 -18977626.42645  20697829.9454                   20697827.4694
        48.5004         33.0004
   -115378.289 6                  23493970.188
        41.250
  -2716367.85247 -10329434.76544  21673402.6644                   21673399.1214
        43.5004         26.0004
  -5787737.23447  -6222511.64843  22461127.1954                   22461129.0634
        42.7504         22.5004
  -2701370.16047 -10546954.02744  20989641.2344                   20989638.0394
        46.0004         29.2504
 19  3  6  0  5 40.0000000  0  7G11G13G17G18G19G01G28
    -35122.414 6                  22890602.484
        38.250
    365660.17247  -7622331.55143  22646899.5394                   22646898.6994
        42.5004         21.7504
  -9214394.17648 -18990270.72745  20694741.8134                   20694740.0824
        48.5004         34.5004
   -115891.703 6                  23493872.234
        37.000
  -2742942.77747 -10350142.55544  21668345.7584                   21668341.8754
        44.0004         27.7504
  -5797334.75046  -6229990.27044  22459301.1334                   22459302.0824
        41.2504         24.0004
  -2705665.66847 -10550301.22345  20988823.6564                   20988820.7344
        44.5004         30.5004
 19  3  6  0  5 45.0000000  0  7G11G13G17G18G19G01G28
    -34909.664 6                  22890642.547
        39.000
    368557.13747  -7620074.07443  22647450.4614                   22647449.1764
        42.7504         22.0004
  -9230613.37547 -19002908.98845  20691655.1334                   20691653.7774
        47.0004         33.0004
   -116389.559 6                  23493778.367
        37.750
  -2769514.48447 -10370847.70744  21663289.2194                   21663285.1914
        43.0004         27.0004
  -5806914.65246  -6237455.11743  22457477.9924                   22457479.4064
        40.2504         22.0004
  -2709957.29347 -10553645.27344  20988006.7194                   20988003.9574
        43.7504         29.7504
 19  3  6  0  5 50.0000000  0  7G11G13G17G18G19G01G28
    -34696.301 6                  22890682.922
        40.000
    371459.47046  -7617812.58543  22648002.8594                   22648000.9884
        41.2504         22.2504
  -9246826.22347 -19015542.39845  20688570.1564                   20688567.8794
        47.5004         33.2504
   -116886.352 6                  23493683.023
        38.250
  -2796080.43747 -10391548.47344  21658233.7274                   21658230.1884
        43.0004         27.7504
  -5816488.69946  -6244915.39344  22455655.5234                   22455657.0864
        40.7504         24.5004
  -2714252.25847 -10556992.03145  20987189.0004                   20987186.4224
        44.2504         30.7504
 19  3  6  0  5 55.0000000  0  6G11G13G17G19G01G28
    -34473.68416                  22890726.289
        39.000
    374375.10257  -7615540.53153  22648558.1564                   22648556.1684
        42.5004         22.5004
  -9263024.69158 -19028164.82455  20685488.8054                   20685486.3204
        49.0004         32.2504
  -2822638.14517                  21653183.750
        46.000
  -5826048.07057  -6252363.99253  22453837.3674                   22453838.4614
        43.2504         22.2504
                                  20986368.297
        44.000
 19  3  6  0  6  0.0000000  0  6G11G13G17G18G19G01
    -34238.816 6                  22890770.727
        39.250
    377295.88347  -7613264.46144  22649113.9924                   22649112.1134
        45.7504         26.0004
  -9279214.29348 -19037752.47156  20682406.9534                   20682395.2234
        50.2504         38.0004
   -117852.13716                  23493500.914
        38.000
  -2849185.55547 -10410586.68055  21648129.0784                   21648124.8634
        46.2504         31.0004
  -5835591.84447  -6259800.47743  22452021.3204                   22452021.8134
        43.2504         22.5004
 19  3  6  0  6  5.0000000  0  7G11G13G17G18G19G01G28
    -33993.738 6                  22890815.578
        39.000
    380229.11747  -7610978.91844  22649672.1884                   22649670.7384
        43.2504         24.0004
  -9295391.35258 -19050357.94155  20679327.4924                   20679325.8794
        48.2504         34.7504
   -118312.52316                  23493413.086
        38.250
  -2875722.02357 -10431264.53555  21643078.9224                   21643075.6024
        44.0004         30.0004
  -5845121.47757  -6267226.20753  22450206.5704                   22450209.0314
        42.0004         22.0004
                                  20984741.2194                   20984737.4454
        44.7504         34.7504
 19  3  6  0  6 10.0000000  0  7G11G13G17G18G19G01G28
    -33734.957 6                  22890866.219
        40.250
    383172.02047  -7608685.70743  22650231.7894                   22650230.4734
        44.0004         23.2504
  -9311554.92648 -19062952.91045  20676252.4534                   20676250.7344
        49.0004         34.5004
   -118758.004 6                  23493326.820
        38.500
  -2902248.14847 -10451934.21945  21638030.6484                   21638028.4694
        43.7504         30.5004
  -5854633.03146  -6274637.86343  22448397.3364                   22448398.9384
        41.5004         22.5004
     -6158.28547 -10563698.00454  20983928.6334                   20983926.5634
        45.2504         29.0004
 19  3  6  0  6 15.0000000  0  7G11G13G17G18G19G01G28
    -33464.441 6                  22890917.094
        39.250
    386126.94147  -7606383.17643  22650793.7584                   22650792.8484
        42.0004         22.5004
  -9327705.22348 -19075537.57445  20673179.0084                   20673177.3834
        48.7504         33.7504
   -119189.988 6                  23493246.148
        37.750
  -2928763.00447 -10472595.16044  21632985.3674                   21632983.1334
        44.2504         29.0004
  -5864128.79747  -6282037.15643  22446589.7974                   22446591.8984
        42.0004         22.5004
    -10427.91847 -10567025.01644  20983116.1724                   20983114.2234
        45.2504         28.0004
 19  3  6  0  6 20.0000000  0  6G11G13G17G19G01G28
    -33184.126 6                  22890970.516
        40.500
    389085.55147  -7604077.75443  22651357.0944                   22651355.7544
        42.2504         22.2504
  -9343849.27048 -19088117.32845  20670107.0394                   20670105.3714
        49.0004         33.0004
  -2955275.09447 -10493253.88745  21627940.5864                   21627937.4804
        45.5004         31.2504
  -5873611.60246  -6289426.37143  22444784.9304                   22444787.7154
        41.7504         22.5004
    -14696.59447 -10570351.22344  20982304.0784                   20982301.5314
        45.0004         26.2504
 19  3  6  0  6 25.0000000  0  7G11G13G17G18G19G01G28
    -32896.750 6                  22891025.578
        36.500
    392044.92247  -7601771.74643  22651919.5704                   22651918.8404
        42.0004         22.5004
  -9359989.60248 -19100694.18445  20667035.3914                   20667033.5784
        48.5004         33.2504
   -120022.29714                  23493089.359
        29.500
  -2981787.09047 -10513912.54345  21622895.2734                   21622892.0704
        45.5004         30.7504
  -5883084.24647  -6296807.59843  22442983.1804                   22442985.4964
        42.5004         22.7504
    -18967.12147 -10573678.87944  20981491.4144                   20981488.9344
        45.0004         26.5004
 19  3  6  0  6 30.0000000  0  7G11G13G17G18G19G01G28
    -32595.000 5                  22891082.484
        35.500
    395004.84047  -7599465.31243  22652482.7424                   22652481.6644
        42.2504         22.7504
  -9376122.86748 -19113265.56245  20663964.9534                   20663963.6294
        48.0004         33.0004
   -120416.133 6                  23493012.750
        37.000
  -3008297.30147 -10534569.87945  21617850.6644                   21617847.6294
        44.7504         30.7504
  -5892538.59446  -6304174.62143  22441183.7504                   22441186.4734
        39.0004         21.5004
    -23233.33247 -10577003.20744  20980679.1174                   20980677.0124
        44.2504         26.5004
 19  3  6  0  6 35.0000000  0  7G11G13G17G18G19G01G28
    -32277.367 6                  22891143.344
        40.000
    397968.69947  -7597155.81243  22653046.9844                   22653046.1454
        44.0004         22.2504
  -9392245.16048 -19125828.35945  20660897.4064                   20660895.2894
        48.7504         32.5004
   -120793.324 6                  23492941.625
        38.000
  -3034801.37147 -10555222.35544  21612807.0864                   21612803.2894
        45.2504         29.7504
  -5901972.85946  -6311525.94943  22439388.5554                   22439390.3714
        39.5004         21.5004
    -27492.45347 -10580321.96544  20979869.3594                   20979866.4414
        45.5004         28.2504
 19  3  6  0  6 40.0000000  0  7G11G13G17G18G19G01G28
    -31945.566 6                  22891206.961
        38.500
    400946.01647  -7594835.79743  22653614.4064                   22653612.5394
        43.0004         22.7504
  -9408352.93447 -19138379.87545  20657832.2894                   20657830.2814
        47.0004         32.2504
   -121154.203 6                  23492872.773
        36.000
  -3061293.13347 -10575865.29745  21607765.5474                   21607762.2734
        44.0004         30.2504
  -5911389.26246  -6318863.35243  22437597.2584                   22437598.9064
        37.5004         19.7504
    -31744.50847 -10583635.27044  20979060.1724                   20979057.8404
        42.7504         26.2504
 19  3  6  0  6 45.0000000  0  7G11G13G17G18G19G01G28
    -31606.980 6                  22891271.023
        37.000
    403923.68847  -7592515.53544  22654180.5164                   22654179.2934
        43.7504         25.0004
  -9424456.08648 -19150927.78545  20654767.6564                   20654765.8204
        48.0004         33.0004
   -121506.832 5                  23492805.703
        34.750
  -3087783.39147 -10596507.03945  21602724.9384                   21602721.5164
        45.2504         30.7504
  -5920794.37546  -6326192.07843  22435807.1484                   22435809.2234
        39.5004         22.2504
    -35997.61347 -10586949.36344  20978250.4144                   20978248.1604
        44.2504         26.5004
 19  3  6  0  6 50.0000000  0  7G11G13G17G18G19G01G28
    -31251.844 6                  22891337.641
        38.250
    406902.12147  -7590194.69943  22654746.4614                   22654745.6484
        42.5004         22.0004
  -9440549.34847 -19163467.99245  20651704.8674                   20651703.2384
        47.7504         30.5004
   -121842.680 6                  23492739.914
        36.750
  -3114269.25847 -10617145.39844  21597684.4304                   21597681.4304
        44.5004         29.0004
  -5930178.19146  -6333504.16443  22434021.1174                   22434023.6764
        41.0004         23.7504
    -40243.46547 -10590257.85544  20977442.2344                   20977439.8634
        44.5004         25.0004
 19  3  6  0  6 55.0000000  0  7G11G13G17G18G19G01G28
    -30875.148 6                  22891409.531
        38.500
    409888.83247  -7587867.38343  22655315.1174                   22655313.9924
        42.0004         22.2504
  -9456625.67648 -19175994.99645  20648646.1174                   20648644.2854
        48.0004         32.0004
   -122156.773 6                  23492681.578
        36.250
  -3140742.90247 -10637774.19944  21592646.9534                   21592643.3404
        44.7504         28.7504
  -5939535.10946  -6340795.25443  22432240.6954                   22432242.7274
        41.2504         22.7504
    -44475.89847 -10593555.85544  20976637.0164                   20976634.8754
        44.5004         26.0004
 19  3  6  0  7  0.0000000  0  7G11G13G17G18G19G01G28
    -30485.844 6                  22891483.273
        39.000
    412884.21547  -7585533.35543  22655885.6174                   22655883.6564
        43.2504         22.7504
  -9472689.80148 -19188512.50045  20645588.9384                   20645587.5474
        48.0004         31.5004
   -122456.996 6                  23492624.250
        37.750
  -3167207.10947 -10658395.65244  21587610.7504                   21587607.5704
        44.5004         29.2504
  -5948874.99246  -6348073.09443  22430463.0314                   22430465.6484
        41.2504         22.5004
    -48702.67247 -10596849.43044  20975832.7424                   20975830.1764
        44.5004         26.2504
 19  3  6  0  7  5.0000000  0  7G11G13G17G18G19G01G28
    -30082.445 6                  22891559.914
        39.500
    415890.12947  -7583191.05143  22656457.2734                   22656455.8364
        42.2504         23.0004
  -9488739.95348 -19201019.10245  20642534.8444                   20642533.3164
        48.0004         31.7504
   -122741.867 6                  23492570.695
        38.250
  -3193660.05547 -10679008.33244  21582576.8364                   21582573.8324
        44.5004         29.0004
  -5958196.39546  -6355336.53543  22428689.4454                   22428691.4144
        41.0004         22.5004
    -52922.25447 -10600137.43044  20975029.6414                   20975027.4494
        44.5004         26.5004
 19  3  6  0  7 10.0000000  0  7G11G13G17G18G19G01G28
    -29664.242 6                  22891640.008
        39.500
    418907.32847  -7580840.01243  22657031.3834                   22657029.9064
        42.5004         22.7504
  -9504775.52348 -19213514.35945  20639483.6254                   20639481.6684
        48.0004         32.0004
   -123010.598 6                  23492519.266
        38.500
  -3220101.03147 -10699611.68744  21577545.6884                   21577542.0474
        44.7504         29.0004
  -5967498.52746  -6362584.94543  22426919.4454                   22426921.2114
        41.2504         23.0004
    -57133.85947 -10603419.19144  20974228.3524                   20974226.2154
        44.5004         26.0004
 19  3  6  0  7 15.0000000  0  7G11G13G17G18G19G01G28
    -29232.160 6                  22891722.453
        39.000
    421934.85547  -7578480.88743  22657606.8444                   22657605.8324
        42.5004         22.2504
  -9520797.34448 -19225998.88745  20636434.5634                   20636432.7274
        48.0004         31.5004
   -123264.176 6                  23492471.195
        38.250
  -3246530.91047 -10720206.39544  21572516.5784                   21572512.8594
        44.7504         29.0004
  -5976782.28946  -6369819.05543  22425152.7344                   22425154.5314
        41.0004         22.7504
    -61338.38347 -10606695.45744  20973428.3524                   20973425.8284
        44.5004         25.5004
 19  3  6  0  7 20.0000000  0  7G11G13G17G18G19G01G28
    -28786.590 6                  22891807.313
        39.000
    424972.31647  -7576114.03943  22658185.4384                   22658184.1564
        42.2504         22.5004
  -9536805.84048 -19238473.03545  20633388.3984                   20633386.5314
        48.0004         32.0004
   -123502.945 6                  23492424.539
        37.750
  -3272950.10247 -10740792.77044  21567488.6484                   21567485.3444
        44.7504         28.5004
  -5986048.10246  -6377039.16043  22423388.8754                   22423391.3794
        41.2504         22.5004
    -65536.28947 -10609966.55544  20972629.4304                   20972626.8094
        44.5004         26.2504
 19  3  6  0  7 25.0000000  0  7G11G13G17G18G19G01G28
    -28328.289 6                  22891894.406
        39.000
    428019.03947  -7573739.98043  22658764.9144                   22658763.5784
        42.5004         22.7504
  -9552801.71147 -19250937.35245  20630344.3134                   20630342.0704
        47.7504         31.7504
   -123727.680 6                  23492383.203
        38.000
  -3299359.26647 -10761371.34444  21562463.3134                   21562459.8914
        45.0004         29.0004
  -5995296.72746  -6384245.87144  22421629.1414                   22421631.3914
        41.2504         24.5004
    -69728.25847 -10613233.01644  20971831.5234                   20971829.0744
        44.0004         26.7504
 19  3  6  0  7 30.0000000  0  7G11G13G17G18G19G01G28
    -27858.082 6                  22891983.375
        39.000
    431074.35247  -7571359.20343  22659346.8524                   22659345.1764
        43.0004         23.2504
  -9568785.68048 -19263392.37545  20627302.6564                   20627300.9264
        48.0004         32.0004
   -123939.297 6                  23492342.289
        38.250
  -3325759.05947 -10781942.59844  21557439.1954                   21557436.1254
        45.0004         29.7504
  -6004528.95746  -6391439.82443  22419873.0784                   22419874.7344
        41.2504         23.0004
    -73915.05947 -10616495.45344  20971035.0634                   20971032.8674
        44.5004         25.5004
 19  3  6  0  7 35.0000000  0  7G11G13G17G18G19G01G28
    -27376.258 6                  22892075.500
        41.000
    434137.48447  -7568972.35243  22659929.8054                   22659928.5314
        43.2504         22.7504
  -9584758.24248 -19275838.53145  20624263.2034                   20624261.5044
        48.0004         31.7504
   -124137.895 6                  23492303.625
        38.500
  -3352150.18447 -10802507.10544  21552417.3444                   21552413.9264
        44.7504         29.0004
  -6013744.88345  -6398621.03143  22418119.3754                   22418120.6644
        35.5004         21.7504
    -78097.03547 -10619754.12944  20970239.4844                   20970236.7154
        45.2504         26.7504
 19  3  6  0  7 40.0000000  0  7G11G13G17G18G19G01G28
                                  22892170.102
        27.250
    437208.63347  -7566579.25443  22660513.8834                   22660512.5944
        43.0004         23.2504
  -9600719.43048 -19288275.81245  20621225.5474                   20621223.9774
        48.0004         33.0004
   -124323.574 6                  23492268.516
        37.000
  -3378532.52347 -10823064.78545  21547396.8594                   21547393.5984
        44.5004         30.5004
  -6022944.832 5                  22416369.211
        33.250
    -82274.22346 -10623009.08243  20969444.0944                   20969441.5434
        39.7504         22.0004
 19  3  6  0  7 45.0000000  0  7G11G13G17G18G19G01G28
    -26377.64115                  22892265.867
        32.250
    440287.82447  -7564179.85543  22661100.1254                   22661098.5784
        42.5004         22.7504
  -9616669.10548 -19300704.12945  20618190.9694                   20618188.8794
        48.0004         32.5004
   -124496.406 6                  23492236.219
        37.500
  -3404905.98447 -10843615.47344  21542378.0394                   21542374.5394
        44.5004         27.5004
  -6032128.742 5                  22414620.688
        35.500
    -86446.69146 -10626260.35243  20968650.4384                   20968647.8754
        41.7504         21.7504
 19  3  6  0  7 50.0000000  0  7G11G13G17G18G19G01G28
    -25862.359 5                  22892364.328
        32.250
    443373.80547  -7561775.21943  22661687.6024                   22661685.8244
        42.5004         22.0004
  -9632608.55148 -19313124.46145  20615157.5864                   20615155.5004
        48.5004         32.5004
   -124657.594 6                  23492206.344
        37.500
  -3431271.73047 -10864160.25045  21537360.9774                   21537357.8634
        45.0004         30.0004
  -6041297.973 5                  22412875.914
        35.250
    -90615.64547 -10629508.89543  20967857.3914                   20967854.5084
        43.0004         21.2504
 19  3  6  0  7 55.0000000  0  7G11G13G17G18G19G01G28
    -25334.79315                  22892463.836
        33.250
    446468.25847  -7559363.94144  22662276.4224                   22662274.9924
        43.0004         24.2504
  -9648535.87148 -19325535.34845  20612127.0944                   20612124.6134
        48.0004         31.0004
   -124805.324 6                  23492176.742
        36.000
  -3457628.02747 -10884697.59045  21532345.8364                   21532342.4654
        45.0004         30.2504
  -6050450.344 6                  22411134.297
        37.750
    -94779.12147 -10632753.15243  20967064.7664                   20967062.2114
        44.5004         21.7504
 19  3  6  0  8  0.0000000  0  7G11G13G17G18G19G01G28
    -24796.488 5                  22892566.977
        32.250
    449569.86747  -7556947.11343  22662866.5394                   22662864.5434
        44.0004         23.0004
  -9664452.57048 -19337937.97345  20609097.9454                   20609095.8094
        48.0004         30.2504
   -124941.062 5                  23492151.320
        35.250
  -3483976.18447 -10905228.61344  21527331.9694                   21527328.4694
        44.7504         29.5004
  -6059587.473 6                  22409395.852
        37.000
    -98938.64547 -10635994.35943  20966273.2814                   20966270.6294
        44.0004         22.7504
 19  3  6  0  8  5.0000000  0  7G11G13G17G18G19G01G28
    -24249.500 5                  22892671.609
        32.250
    452676.65247  -7554526.23444  22663457.5004                   22663456.1334
        43.0004         25.2504
  -9680360.53147 -19350333.78545  20606070.8364                   20606068.8164
        47.5004         31.5004
   -125066.602 5                  23492127.250
        33.500
  -3510318.14847 -10925754.81645  21522319.0864                   21522316.1844
        44.5004         30.2504
  -6068711.289 6                  22407659.461
        37.000
   -103096.15247 -10639233.97744  20965481.9694                   20965479.6684
        44.0004         25.5004
 19  3  6  0  8 10.0000000  0  7G11G13G17G18G19G01G28
    -23693.461 5                  22892776.594
        32.250
    455788.81347  -7552101.19144  22664050.0944                   22664048.2464
        43.5004         24.0004
  -9696259.55148 -19362722.62544  20603045.1094                   20603043.0634
        48.2504         29.7504
   -125181.887 5                  23492104.578
        35.000
  -3536653.69947 -10946276.02044  21517307.7114                   21517304.5274
        45.0004         28.5004
  -6077821.562 6                  22405925.984
        37.500
   -107251.41847 -10642471.84043  20964691.1414                   20964689.0704
        44.5004         23.7504
 19  3  6  0  8 15.0000000  0  7G11G13G17G18G19G01G28
    -23127.754 5                  22892884.203
        32.750
    458907.04347  -7549671.41443  22664643.6334                   22664641.7074
        43.7504         22.7504
  -9712148.87547 -19375103.91845  20600021.6334                   20600019.6414
        47.5004         30.5004
   -125286.215 5                  23492086.258
        35.000
  -3562982.13347 -10966791.67245  21512297.4384                   21512294.2344
        44.5004         30.0004
  -6086917.594 6                  22404194.438
        36.750
   -111403.75847 -10645707.42644  20963901.2894                   20963898.6214
        44.2504         25.7504
 19  3  6  0  8 20.0000000  0  7G11G13G17G18G19G01G28
    -22552.164 5                  22892993.242
        34.500
    462031.65647  -7547236.60943  22665237.7114                   22665236.4104
        42.5004         22.5004
  -9728028.28947 -19387477.48444  20596999.9384                   20596997.8984
        47.7504         29.5004
   -125379.422 5                  23492067.883
        35.250
  -3589303.19147 -10987301.58244  21507288.9844                   21507285.5904
        44.5004         29.5004
  -6095999.070 6                  22402466.438
        36.000
   -115552.81647 -10648940.44944  20963111.6334                   20963109.1844
        44.0004         24.5004
 19  3  6  0  8 25.0000000  0  7G11G13G17G18G19G01G28
    -21966.316 5                  22893106.078
        34.250
    465162.89547  -7544796.69944  22665833.3914                   22665832.3014
        43.7504         25.2504
  -9743897.46948 -19399843.10545  20593980.0944                   20593977.6684
        48.0004         32.0004
   -125460.906 6                  23492053.281
        36.250
  -3615616.53147 -11007805.49645  21502281.6414                   21502278.5594
        44.5004         31.2504
  -6105065.789 6                  22400741.383
        36.750
   -119698.37147 -10652170.77044  20962322.7814                   20962320.0784
        44.5004         25.7504
 19  3  6  0  8 30.0000000  0  7G11G13G17G18G19G01G28
    -21370.293 5                  22893219.375
        33.750
    468300.71947  -7542351.63743  22666431.1334                   22666429.3524
        43.5004         22.0004
  -9759756.42648 -19412200.70744  20590962.4304                   20590960.2464
        48.0004         29.7504
   -125530.949 6                  23492039.406
        36.000
  -3641922.18447 -11028303.38744  21497275.7114                   21497272.6174
        45.0004         29.0004
  -6114117.715 6                  22399019.133
        37.250
   -123840.48847 -10655398.37943  20961534.8054                   20961531.6054
        44.5004         22.2504
 19  3  6  0  8 35.0000000  0  7G11G13G17G18G19G01G28
    -20763.656 5                  22893334.602
        35.250
    471445.56347  -7539901.12943  22667029.8054                   22667027.8364
        44.0004         23.0004
  -9775604.71948 -19424550.03545  20587946.6484                   20587944.5434
        48.0004         30.5004
   -125589.109 6                  23492028.305
        36.000
  -3668219.71547 -11048794.97344  21492271.3984                   21492268.1174
        45.0004         29.0004
  -6123154.418 6                  22397299.516
        36.750
   -127978.68447 -10658622.94944  20960747.0084                   20960744.0704
        44.5004         24.2504
 19  3  6  0  8 40.0000000  0  7G11G13G17G18G19G01G28
    -20146.074 5                  22893451.961
        35.000
    474597.75447  -7537444.86344  22667628.9384                   22667627.2664
        44.0004         24.0004
  -9791442.08648 -19436890.84045  20584932.4384                   20584930.7424
        48.0004         30.2504
   -125635.074 6                  23492019.930
        36.250
  -3694508.81247 -11069279.97744  21487269.1334                   21487265.5784
        45.0004         29.5004
  -6132175.637 6                  22395581.711
        36.750
   -132112.69947 -10661844.26243  20959960.4694                   20959957.7344
        44.7504         22.7504
 19  3  6  0  8 45.0000000  0  7G11G13G17G18G19G01G28
    -19517.375 5                  22893572.531
        35.000
    477757.47747  -7534982.75043  22668230.4774                   22668228.6134
        43.0004         22.7504
  -9807268.32447 -19449222.97745  20581920.7034                   20581918.7704
        47.7504         30.5004
   -125668.656 6                  23492013.430
        36.000
  -3720789.24247 -11089758.22344  21482267.7974                   21482265.1844
        44.7504         29.5004
  -6141181.020 6                  22393867.953
        36.000
   -136242.28547 -10665062.12544  20959174.4924                   20959172.0704
        44.0004         24.0004
 19  3  6  0  8 50.0000000  0  7G11G13G17G18G19G01G28
    -18877.992 5                  22893693.234
        34.500
    480924.30947  -7532515.08243  22668833.1174                   22668831.2154
        43.5004         22.5004
  -9823083.75047 -19461546.68045  20578911.4144                   20578909.4264
        47.7504         31.0004
   -125690.187 5                  23492008.906
        35.750
  -3747061.36747 -11110230.00844  21477268.8204                   21477265.0394
        45.0004         29.7504
  -6150171.109 6                  22392158.023
        36.750
   -140367.80147 -10668276.80544  20958389.8754                   20958386.6994
        44.2504         24.2504
 19  3  6  0  8 55.0000000  0  7G11G13G17G18G19G01G28
    -18227.953 5                  22893816.094
        34.500
    484098.18847  -7530041.91043  22669436.3914                   22669435.2304
        43.0004         23.5004
  -9838888.48847 -19473862.06645  20575903.7504                   20575901.6374
        47.7504         31.5004
   -125699.711 6                  23492007.008
        36.000
  -3773325.21947 -11130695.34444  21472270.7664                   21472266.9224
        45.0004         29.5004
  -6159145.918 5                  22390450.711
        35.750
   -144489.35947 -10671488.40644  20957605.4694                   20957602.1604
        44.5004         25.5004
 19  3  6  0  9  0.0000000  0  7G11G13G17G18G19G01G28
    -17566.469 5                  22893944.547
        31.250
    487279.91447  -7527562.66843  22670042.5084                   22670041.0554
        42.7504         23.7504
  -9854681.64848 -19486168.43445  20572898.5164                   20572896.2624
        48.2504         31.7504
   -125696.480 5                  23492008.305
        34.500
  -3799580.02047 -11151153.63745  21467274.2974                   21467271.0634
        45.5004         30.5004
  -6168104.609 6                  22388745.813
        36.250
   -148606.16447 -10674696.31644  20956822.0234                   20956819.0704
        45.0004         25.7504
 19  3  6  0  9  5.0000000  0  7G11G13G17G18G19G01G28
    -16893.516 5                  22894070.070
        31.500
    490469.46947  -7525077.27043  22670649.2114                   22670647.8404
        42.5004         22.0004
  -9870463.19148 -19498465.73045  20569895.5314                   20569893.1914
        48.0004         31.7504
   -125680.469 5                  23492010.898
        35.000
  -3825825.67247 -11171604.76245  21462279.7894                   21462276.7384
        45.2504         30.0004
  -6177047.234 6                  22387043.695
        37.500
   -152718.07447 -10677900.37944  20956039.4924                   20956036.4964
        45.0004         27.0004
 19  3  6  0  9 10.0000000  0  7G11G13G17G18G19G01G28
    -16209.664 5                  22894200.148
        33.250
    493666.35247  -7522586.24643  22671258.1254                   22671255.9494
        43.0004         22.7504
  -9886233.75447 -19510754.49245  20566894.5164                   20566892.1294
        47.7504         33.5004
   -125652.289 5                  23492015.461
        35.500
  -3852062.78147 -11192049.27745  21457287.2974                   21457283.9844
        45.5004         32.5004
  -6185974.238 6                  22385344.914
        38.000
   -156825.73047 -10681101.17244  20955257.8594                   20955255.0204
        45.2504         28.7504
 19  3  6  0  9 15.0000000  0  7G11G13G17G18G19G01G28
   1559904.980 5                  23194125.477
        32.500
   2072289.82847  -6292489.99243  22971660.0704                   22971658.0554
        43.5004         22.7504
  -8326570.20747 -18295432.24245  20863688.4304                   20863686.4184
        47.7504         32.0004
   1449808.070 5                  23791816.141
        34.750
  -2302866.05147  -9984882.99245  21752089.5554                   21752086.5044
        44.7504         30.7504
  -4619463.875 6                  22683442.109
        37.750
   1414491.68047  -9456697.99244  21254269.2194                   21254266.9964
        45.2504         27.5004
 19  3  6  0  9 20.0000000  0  7G11G13G17G18G19G01G28
   1560610.973 5                  23194259.508
        31.250
   2075501.59847  -6289987.32443  22972271.0084                   22972269.5634
        42.7504         23.7504
  -8342318.30147 -18307703.48045  20860691.6884                   20860689.3984
        47.7504         32.5004
   1449861.008 5                  23791826.680
        34.250
  -2329085.62547 -10005313.81245  21747099.5394                   21747097.3634
        45.0004         31.7504
  -4628359.410 6                  22681748.875
        37.500
   1410392.92647  -9459891.82844  21253489.7114                   21253486.8714
        45.5004         28.2504
 19  3  6  0  9 25.0000000  0  7G11G13G17G18G19G01G28
   1561328.484 5                  23194395.875
        33.000
   2078721.30947  -6287478.46543  22972884.3754                   22972881.7344
        43.0004         22.5004
  -8358054.75848 -18319965.64845  20857697.2974                   20857695.0354
        48.0004         31.0004
   1449926.785 5                  23791838.453
        34.500
  -2355295.87947 -10025737.36345  21742112.5784                   21742109.4574
        45.0004         30.2504
  -4637238.664 6                  22680059.945
        38.250
   1406299.06647  -9463081.84044  21252710.5784                   21252708.0594
        45.2504         26.5004
 19  3  6  0  9 30.0000000  0  7G11G13G17G18G19G01G28
   1562057.191 5                  23194534.852
        32.000
   2081948.55147  -6284963.73843  22973497.5164                   22973496.0944
        43.0004         22.2504
  -8373779.91848 -18332219.00845  20854704.6954                   20854702.5124
        48.5004         31.2504
   1450005.074 5                  23791854.672
        35.500
  -2381497.25447 -10046154.04344  21737126.4304                   21737123.5274
        45.2504         29.2504
  -4646101.977 6                  22678373.539
        38.000
   1402209.82847  -9466268.27044  21251932.2664                   21251929.7344
        45.5004         27.2504
 19  3  6  0  9 35.0000000  0  7G11G13G17G18G19G01G28
   1562796.813 5                  23194676.117
        32.250
   2085183.01647  -6282443.37943  22974113.2734                   22974111.4064
        42.5004         22.5004
  -8389494.09048 -18344463.83245  20851714.5234                   20851712.3524
        48.2504         32.5004
   1450095.535 5                  23791870.609
        35.250
  -2407690.04747 -10066564.00045  21732142.3284                   21732138.9494
        45.0004         31.2504
  -4654949.820 6                  22676689.625
        38.000
   1398124.84847  -9469451.37544  21251154.8674                   21251152.1054
        45.5004         28.5004
 19  3  6  0  9 40.0000000  0  7G11G13G17G18G19G01G28
   1563547.820 5                  23194819.555
        32.000
   2088425.15247  -6279917.04743  22974730.5084                   22974728.3404
        43.7504         23.5004
  -8405196.78548 -18356699.68745  20848726.1954                   20848724.2774
        48.2504         32.7504
   1450198.570 5                  23791890.297
        34.000
  -2433873.75447 -10086966.90245  21727159.6254                   21727156.4694
        45.0004         31.7504
  -4663781.590 6                  22675008.617
        38.750
   1394044.58647  -9472630.79344  21250378.5164                   21250375.9414
        45.5004         28.0004
 19  3  6  0  9 45.0000000  0  7G11G13G17G18G19G01G28
   1564309.941 5                  23194962.500
        30.750
   2091674.89847  -6277384.78144  22975348.6804                   22975347.0314
        43.0004         24.0004
  -8420888.12148 -18368926.71145  20845740.3914                   20845738.3364
        48.5004         33.2504
   1450314.148 5                  23791913.469
        34.250
  -2460048.50847 -10107362.79345  21722178.6564                   21722175.4884
        44.5004         30.0004
  -4672597.203 5                  22673331.453
        35.500
   1389969.03546  -9475806.50043  21249603.1174                   21249600.4024
        41.2504         21.7504
 19  3  6  0  9 50.0000000  0  7G11G13G17G18G19G01G28
   1565082.83615                  23195109.336
        32.500
   2094931.93447  -6274846.88344  22975968.3674                   22975966.3794
        43.0004         29.0004
  -8436568.33248 -18381145.12946  20842756.3134                   20842754.1914
        48.5004         37.5004
   1450441.816 5                  23791936.719
        33.500
  -2486214.48047 -10127751.93046  21717199.2344                   21717195.9184
        45.2504         36.2504
  -4681397.441 5                  22671657.578
        30.500
   1385897.79746  -9478978.96543  21248828.2114                   21248825.5044
        39.7504         22.0004
 19  3  6  0  9 55.0000000  0  7G11G13G17G18G19G01G28
   1565867.453 5                  23195259.313
        32.250
   2098196.94147  -6272302.69545  22976589.7504                   22976588.2544
        43.7504         30.0004
  -8452236.66848 -18393354.20746  20839774.5164                   20839772.9104
        49.5004         40.0004
   1450582.512 5                  23791963.414
        35.000
  -2512370.94147 -10148133.55546  21712222.0004                   21712219.2584
        46.0004         37.5004
                                  22669988.586
        25.250
   1381831.56346  -9482147.44543  21248054.1884                   21248052.2274
        41.2504         22.5004
 19  3  6  0 10  0.0000000  0  6G13G17G18G19G01G28
   2101469.67247  -6269752.44144  22977212.9144                   22977211.9964
        44.0004         26.0004
  -8467893.44148 -18405554.19946  20836796.4304                   20836794.5904
        49.7504         37.0004
                                  23791991.766
        27.250
  -2538518.21147 -10168507.99245  21707246.9844                   21707243.7194
        45.5004         34.5004
  -4698949.01216                  22668318.055
        37.000
   1377770.05547  -9485312.16843  21247282.3204                   21247280.1484
        42.0004         21.5004
 19  3  6  0 10  5.0000000  0  7G11G13G17G18G19G01G28
                                  23195566.211
        31.000
   2104750.64147  -6267195.87544  22977838.4454                   22977836.2034
        43.7504         25.2504
  -8483538.06648 -18417744.82045  20833818.6954                   20833817.3874
        49.0004         34.5004
   1450902.42215                  23792023.336
        33.250
  -2564655.64547 -10188874.82445  21702273.0314                   21702270.0824
        46.2504         33.0004
  -4707700.195 6                  22666652.281
        38.000
   1373714.00047  -9488472.80544  21246510.0864                   21246508.1054
        45.2504         25.7504
 19  3  6  0 10 10.0000000  0  7G11G13G17G18G19G01G28
   1568289.17214                  23195719.961
        29.750
   2108038.79347  -6264633.65244  22978462.8444                   22978462.1334
        44.0004         24.0004
  -8499171.57848 -18429926.75845  20830843.3674                   20830842.6254
        48.2504         32.0004
   1451081.141 5                  23792057.195
        32.750
  -2590784.30147 -10209234.80545  21697300.2424                   21697298.1254
        45.7504         32.0004
  -4716435.562 6                  22664989.977
        37.500
   1369662.29747  -9491629.94544  21245738.9064                   21245737.1724
        44.2504         25.0004
 19  3  6  0 10 15.0000000  0  7G11G13G17G18G19G01G28
   1569117.977 5                  23195878.695
        30.000
   2111333.27347  -6262066.53544  22979089.6954                   22979089.2114
        44.5004         25.5004
  -8514794.89148 -18442100.77045  20827870.6564                   20827869.5004
        48.7504         32.0004
   1451271.094 5                  23792094.320
        34.000
  -2616905.11347 -10229588.68045  21692330.0474                   21692327.8324
        46.0004         30.7504
  -4725156.219 6                  22663329.930
        37.000
   1365614.02747  -9494784.43444  21244968.5864                   21244966.7664
        44.7504         24.0004
 19  3  6  0 10 20.0000000  0  7G11G13G17G18G19G01G28
   1569956.422 4                  23196036.258
        24.500
   2114633.73047  -6259494.77743  22979717.8134                   22979717.3404
        44.0004         22.7504
  -8530408.31248 -18454267.06645  20824899.7584                   20824898.1804
        48.5004         30.2504
   1451472.016 5                  23792132.000
        31.750
  -2643018.36347 -10249936.65644  21687360.8444                   21687358.3834
        45.7504         29.5004
  -4733862.477 6                  22661672.391
        37.500
   1361568.83647  -9497936.52043  21244198.8674                   21244197.5634
        44.5004         23.2504
 19  3  6  0 10 25.0000000  0  6G13G17G18G19G01G28
   2117940.66447  -6256917.92243  22980346.8524                   22980346.1134
        43.7504         22.5004
  -8546011.29348 -18466425.23845  20821930.4924                   20821929.0634
        48.5004         30.7504
   1451684.27715                  23792172.414
        33.000
  -2669123.51247 -10270278.32845  21682393.2974                   21682390.8754
        45.7504         30.5004
  -4742553.785 6                  22660019.391
        36.500
   1357527.29747  -9501085.77743  21243429.5704                   21243428.5164
        44.2504         22.7504
 19  3  6  0 10 30.0000000  0  5G13G17G19G01G28
   2121253.81347  -6254336.26643  22980977.7584                   22980977.0084
        43.5004         22.7504
  -8561604.09448 -18478575.45345  20818963.4384                   20818962.1724
        48.7504         32.5004
  -2695220.77747 -10290613.85545  21677427.0784                   21677424.8284
        45.7504         32.0004
  -4751230.395 6                  22658368.375
        37.500
   1353489.19947  -9504232.35243  21242661.5084                   21242659.6414
        44.7504         22.7504
 19  3  6  0 10 35.0000000  0  6G13G17G18G19G01G28
   2124573.62947  -6251749.41443  22981609.7344                   22981608.8834
        43.5004         22.0004
  -8577186.25448 -18490717.44145  20815997.7894                   20815996.7504
        48.2504         31.0004
   1452142.87115                  23792259.984
        34.750
  -2721309.71547 -10310942.90244  21672462.0314                   21672459.9654
        45.2504         29.5004
  -4759891.738 5                  22656719.563
        32.500
   1349455.04346  -9507375.84843  21241893.7664                   21241891.9574
        40.5004         21.5004
 19  3  6  0 10 40.0000000  0  6G13G17G18G19G01G28
   2127898.60947  -6249158.49243  22982241.2344                   22982241.1764
        42.7504         22.5004
  -8592759.30548 -18502852.32846  20813034.3524                   20813032.9414
        50.5004         36.2504
   1452388.113 5                  23792307.719
        33.250
  -2747391.81247 -10331266.60545  21667499.2584                   21667496.4184
        46.5004         33.2504
  -4768539.578 5                  22655073.219
        31.500
   1345423.02347  -9510517.68743  21241126.1174                   21241125.1294
        42.2504         21.7504
 19  3  6  0 10 45.0000000  0  6G13G17G18G19G01G28
   2131230.50047  -6246562.27743  22982877.6564                   22982874.9654
        45.5004         23.5004
  -8608321.41848 -18514978.57445  20810074.1334                   20810071.5314
        50.0004         33.0004
   1452645.535 5                  23792357.313
        35.750
  -2773465.26647 -10351583.57845  21662538.4144                   21662533.7974
        46.2504         31.2504
  -4777171.910 5                  22653432.844
        35.750
   1341395.23047  -9513656.28143  21240360.2974                   21240357.5664
        43.7504         21.7504
 19  3  6  0 10 50.0000000  0  7G11G13G17G18G19G01G28
   1576388.44115                  23197036.563
        33.500
   2134570.16047  -6243959.90244  22983512.3444                   22983510.3284
        44.5004         26.5004
  -8623871.80148 -18527095.78145  20807115.1254                   20807112.5164
        49.5004         34.0004
   1452915.352 5                  23792408.813
        35.000
  -2799529.21947 -10371893.14545  21657578.6484                   21657574.9844
        46.0004         32.7504
  -4785788.137 6                  22651791.930
        36.000
   1337372.28547  -9516791.02743  21239594.8834                   21239592.2544
        44.2504         22.5004
 19  3  6  0 10 55.0000000  0  7G11G13G17G18G19G01G28
   1577298.039 5                  23197210.352
        34.750
   2137916.03547  -6241352.72344  22984149.1254                   22984147.3324
        44.7504         27.2504
  -8639411.76248 -18539204.84045  20804157.6884                   20804155.3524
        49.2504         35.0004
   1453196.570 6                  23792461.961
        37.750
  -2825585.09847 -10392196.41045  21652620.4534                   21652616.4024
        46.5004         32.7504
  -4794389.398 5                  22650156.578
        31.500
   1333353.06647  -9519922.87143  21238830.5474                   21238827.2234
        42.2504         22.2504
 19  3  6  0 11  0.0000000  0  7G11G13G17G18G19G01G28
   1578214.613 6                  23197384.656
        39.500
   2141265.41847  -6238742.83244  22984786.2504                   22984784.8634
        44.2504         25.2504
  -8654944.32448 -18551308.14545  20801202.2114                   20801199.8984
        50.0004         34.2504
   1453486.199 6                  23792517.109
        36.500
  -2851635.69947 -10412495.58645  21647663.1414                   21647659.1644
        46.2504         31.2504
  -4802978.762 6                  22648520.703
        37.000
   1329334.32447  -9523054.35544  21238065.2424                   21238062.7274
        46.0004         28.2504
 19  3  6  0 11  5.0000000  0  7G11G13G17G18G19G01G28
   1579139.33346  -6688253.22053  23197559.7274                   23197552.9654
        38.5004         21.0004
   2144619.12147  -6236129.54744  22985424.6804                   22985423.1094
        44.5004         25.0004
  -8670468.47748 -18563404.88345  20798248.1254                   20798245.9304
        49.7504         34.2504
   1453785.074 6                  23792574.180
        36.250
  -2877680.15247 -10432789.94945  21642707.1644                   21642703.1724
        46.0004         31.5004
  -4811555.187 7                  22646888.992
        43.000
   1325317.21947  -9526184.57044  21237300.7734                   21237298.6604
        46.7504         29.2504
 19  3  6  0 11 10.0000000  0  7G11G13G17G18G19G01G28
   1580073.22746  -6687525.55543  23197737.3674                   23197731.4494
        38.2504         18.2504
   2147978.46147  -6233511.88743  22986063.5554                   22986062.5004
        43.5004         23.0004
  -8685982.91848 -18575494.04745  20795295.4774                   20795293.6414
        49.7504         34.0004
   1454094.602 6                  23792632.969
        36.750
  -2903717.14847 -10453078.51245  21637752.1564                   21637748.6294
        46.0004         31.0004
  -4820117.39847  -5181499.70354  22645259.8444                   22645259.9774
        43.2504         27.0004
   1321302.99247  -9529312.53944  21236537.4694                   21236534.7464
        45.7504         26.7504
 19  3  6  0 11 15.0000000  0  7G11G13G17G18G19G01G28
   1581016.92246  -6686790.29742  23197916.7034                   23197911.6844
        38.7504         16.7504
   2151343.79347  -6230889.57444  22986704.9614                   22986702.5744
        44.5004         24.7504
  -8701487.27348 -18587575.38345  20792345.3054                   20792343.2074
        49.7504         34.0004
   1454415.086 6                  23792694.383
        37.500
  -2929746.26647 -10473360.94945  21632799.1564                   21632795.1764
        46.0004         31.5004
  -4828664.98446  -5188160.14143  22643633.0634                   22643633.3284
        41.7504         23.0004
   1317292.07847  -9532437.92644  21235774.0394                   21235770.9144
        45.7504         27.7504
 19  3  6  0 11 20.0000000  0  7G11G13G17G18G19G01G28
   1581970.65246  -6686047.09842  23198098.8054                   23198094.2384
        37.5004         16.7504
   2154715.53547  -6228262.21943  22987345.6954                   22987343.8484
        44.2504         22.5004
  -8716981.10948 -18599648.49645  20789396.9064                   20789394.7384
        49.5004         34.2504
   1454747.031 6                  23792756.969
        37.500
  -2955767.10247 -10493636.91045  21627847.6724                   21627843.4774
        46.2504         31.7504
  -4837197.60946  -5194808.93044  22642008.7424                   22642010.5204
        41.5004         24.0004
   1313284.88747  -9535560.39844  21235011.3754                   21235008.6564
        46.2504         28.2504
 19  3  6  0 11 25.0000000  0  7G11G13G17G18G19G01G28
   1582934.80546  -6685295.82842  23198282.2344                   23198278.0434
        38.0004         16.2504
   2158094.02047  -6225629.64544  22987989.2424                   22987986.8484
        44.7504         24.2504
  -8732464.17248 -18611713.21545  20786450.1094                   20786448.4774
        49.5004         34.0004
   1455090.594 6                  23792822.766
        36.750
  -2981779.39847 -10513906.23445  21622897.9064                   21622893.9804
        46.2504         31.2504
  -4845714.94946  -5201445.80943  22640388.6094                   22640389.5984
        41.2504         22.5004
   1309281.63347  -9538679.81644  21234249.2504                   21234246.7464
        46.0004         28.0004
 19  3  6  0 11 30.0000000  0  7G11G13G17G18G19G01G28
   1583909.15646  -6684536.52342  23198467.8674                   23198464.5704
        38.2504         16.2504
   2161479.00847  -6222991.97744  22988632.9454                   22988631.6414
        43.7504         24.0004
  -8747936.57048 -18623769.63345  20783506.3364                   20783504.2624
        49.5004         34.2504
   1455445.695 6                  23792890.094
        37.750
  -3007783.17247 -10534168.90245  21617949.0704                   21617945.1764
        46.2504         31.0004
  -4854217.12947  -5208070.88344  22638770.7034                   22638772.0204
        42.5004         25.0004
   1305282.25847  -9541796.22344  21233488.1254                   21233485.7304
        46.0004         26.2504
 19  3  6  0 11 35.0000000  0  7G11G13G17G18G19G01G28
   1584893.87546  -6683769.23042  23198654.2664                   23198652.0824
        38.0004         16.2504
   2164870.66847  -6220349.13343  22989278.2274                   22989276.4964
        44.0004         22.7504
  -8763398.18048 -18635817.63345  20780564.1484                   20780562.2464
        49.5004         33.7504
   1455812.527 6                  23792960.797
        38.250
  -3033778.39847 -10554424.92245  21613002.5864                   21612998.6844
        46.0004         31.5004
  -4862704.04746  -5214684.07844  22637155.9924                   22637156.9064
        41.5004         24.5004
   1301286.84847  -9544909.53144  21232728.4774                   21232725.5704
        45.7504         26.2504
 19  3  6  0 11 40.0000000  0  7G11G13G17G18G19G01G28
   1585889.01646  -6682993.78942  23198844.2974                   23198841.6484
        38.2504         15.5004
   2168269.05947  -6217701.03944  22989925.1094                   22989923.2544
        44.0004         24.2504
  -8778848.89148 -18647857.15245  20777623.4384                   20777621.3324
        49.5004         34.2504
   1456191.016 6                  23793031.969
        38.250
  -3059764.85247 -10574674.09845  21608057.5634                   21608053.4494
        46.0004         31.5004
  -4871175.58647  -5221285.26243  22635543.5704                   22635545.1724
        42.0004         22.5004
   1297295.52747  -9548019.65244  21231968.6254                   21231966.1374
        46.0004         27.5004
 19  3  6  0 11 45.0000000  0  7G11G13G17G18G19G01G28
   1586894.42246  -6682210.37542  23199035.4064                   23199032.9964
        37.2504         15.5004
   2171673.96947  -6215047.86343  22990573.6414                   22990571.1564
        44.2504         22.7504
  -8794288.91048 -18659888.32845  20774685.6414                   20774683.0634
        49.5004         34.5004
   1456581.043 6                  23793106.867
        38.000
  -3085742.81247 -10594916.66845  21603114.0784                   21603110.0704
        46.0004         31.5004
  -4879631.94146  -5227874.64143  22633934.7194                   22633935.6054
        41.5004         22.5004
   1293308.02347  -9551126.79744  21231209.7814                   21231207.5824
        46.0004         27.2504
 19  3  6  0 11 50.0000000  0  7G11G13G17G18G19G01G28
   1587910.39146  -6681418.65642  23199229.2894                   23199226.8754
        38.2504         17.2504
   2175085.70747  -6212389.38744  22991222.1644                   22991219.9614
        43.7504         24.7504
  -8809717.93448 -18671910.94145  20771749.2034                   20771747.2774
        49.5004         34.0004
   1456982.910 6                  23793182.078
        37.750
  -3111711.92247 -10615152.32845  21598172.1334                   21598168.1374
        46.0004         31.5004
  -4888072.80546  -5234451.90243  22632327.9384                   22632329.7194
        41.5004         23.7504
   1289324.73447  -9554230.66844  21230451.8594                   21230449.2194
        46.0004         27.7504
 19  3  6  0 11 55.0000000  0  7G11G13G17G18G19G01G28
   1588936.89546  -6680618.84842  23199425.0634                   23199422.7974
        38.0004         16.7504
   2178504.21147  -6209725.60543  22991873.0634                   22991870.7194
        44.0004         23.2504
  -8825135.98048 -18683925.01245  20768815.3594                   20768813.3204
        49.5004         34.5004
   1457396.512 6                  23793261.633
        36.500
  -3137672.23447 -10635381.14545  21593231.9064                   21593228.1414
        46.0004         30.7504
  -4896498.25047  -5241017.20343  22630724.5784                   22630726.8984
        42.2504         22.2504
   1285345.53147  -9557331.33644  21229695.0004                   21229692.1374
        45.7504         27.2504
 19  3  6  0 12  0.0000000  0  7G11G13G17G18G19G01G28
   1589973.39546  -6679811.14142  23199621.5944                   23199619.7234
        38.0004         16.2504
   2181929.04747  -6207056.88743  22992524.7814                   22992522.3984
        44.5004         22.7504
  -8840543.49248 -18695930.86345  20765883.4534                   20765881.4884
        49.5004         34.2504
   1457821.484 6                  23793342.852
        37.250
  -3163624.16047 -10655603.41445  21588293.5944                   21588289.5124
        46.0004         31.5004
  -4904908.63746  -5247570.78543  22629124.5864                   22629126.1684
        41.7504         23.0004
   1281370.08247  -9560429.08244  21228938.2274                   21228935.4414
        46.0004         27.7504
 19  3  6  0 12  5.0000000  0  7G11G13G17G18G19G01G28
   1591020.24246  -6678995.44142  23199821.1094                   23199819.2274
        37.7504         13.7504
   2185360.50847  -6204383.03143  22993177.3524                   22993175.5594
        43.2504         23.0004
  -8855940.16448 -18707928.26645  20762953.9224                   20762951.6454
        49.2504         34.0004
   1458258.086 6                  23793425.477
        37.000
  -3189567.36747 -10675818.89545  21583356.4454                   21583352.6914
        46.0004         30.5004
  -4913303.78946  -5254112.44143  22627526.9774                   22627528.6804
        41.7504         22.7504
   1277398.62547  -9563523.72744  21228182.2814                   21228179.7934
        45.7504         28.0004
 19  3  6  0 12 10.0000000  0  7G11G13G17G18G19G01G28
   1592077.23046  -6678171.87942  23200022.1484                   23200020.7304
        38.0004         14.7504
   2188798.40247  -6201704.16043  22993832.0864                   22993830.0784
        44.5004         22.5004
  -8871326.16848 -18719917.35245  20760025.8204                   20760023.7934
        49.2504         34.2504
   1458706.125 6                  23793511.242
        37.500
  -3215501.99647 -10696027.69545  21578421.4304                   21578417.6334
        46.0004         31.0004
  -4921683.74247  -5260642.28543  22625932.7974                   22625934.3524
        42.2504         23.0004
   1273430.99247  -9566615.39144  21227427.3674                   21227424.7034
        46.0004         27.0004
 19  3  6  0 12 15.0000000  0  7G11G13G17G18G19G01G28
   1593144.22746  -6677340.37942  23200225.3364                   23200223.8164
        38.5004         16.2504
   2192242.60247  -6199020.35243  22994486.7664                   22994485.4024
        43.2504         22.5004
  -8886701.64848 -18731898.25045  20757100.4144                   20757097.9884
        49.2504         34.0004
   1459165.457 6                  23793597.664
        37.000
  -3241428.19547 -10716229.91845  21573488.3054                   21573484.1804
        46.0004         31.5004
  -4930048.73047  -5267160.44943  22624340.9144                   22624342.1994
        42.0004         22.5004
   1269467.04347  -9569704.18744  21226673.1724                   21226670.6804
        45.7504         27.5004
 19  3  6  0 12 20.0000000  0  7G11G13G17G18G19G01G28
   1594220.87146  -6676501.41842  23200430.6484                   23200429.0354
        39.0004         15.5004
   2195693.17247  -6196331.60944  22995144.0474                   22995142.1374
        45.0004         26.0004
  -8902066.67248 -18743870.97745  20754176.0864                   20754174.2854
        49.5004         34.2504
   1459635.703 6                  23793687.664
        37.000
  -3267345.89547 -10736425.52745  21568556.0234                   21568551.8484
        46.0004         31.5004
  -4938399.01246  -5273667.12943  22622752.2664                   22622753.0824
        41.5004         22.5004
   1265506.61747  -9572790.22744  21225919.3674                   21225916.7774
        46.0004         27.0004
 19  3  6  0 12 25.0000000  0  7G11G13G17G18G19G01G28
   1595307.61346  -6675654.64842  23200636.6724                   23200635.2854
        37.5004         14.7504
   2199149.64147  -6193638.27744  22995801.9304                   22995799.6134
        45.7504         26.2504
  -8917421.35248 -18755835.68045  20751254.3204                   20751252.0314
        49.5004         34.5004
   1460117.402 6                  23793778.961
        36.500
  -3293255.48447 -10756614.80945  21563625.7194                   21563621.5124
        46.0004         30.5004
  -4946734.22746  -5280162.10943  22621165.3914                   22621166.7464
        41.2504         22.7504
   1261549.86347  -9575873.41044  21225166.8054                   21225164.0744
        46.0004         27.5004
 19  3  6  0 12 30.0000000  0  7G11G13G17G18G19G01G28
   1596405.39846  -6674799.21942  23200846.2814                   23200844.1454
        37.7504         15.5004
   2202613.43847  -6190939.18444  22996460.7504                   22996458.8054
        45.2504         25.7504
  -8932764.39848 -18767791.29745  20748334.2584                   20748332.6484
        49.5004         33.7504
   1460611.430 5                  23793873.172
        35.750
  -3319155.59447 -10776796.71145  21558696.8364                   21558692.6054
        45.7504         31.2504
  -4955053.38346  -5286644.56643  22619582.3594                   22619583.6174
        41.5004         22.2504
   1257597.85547  -9578952.89544  21224414.5314                   21224411.4344
        46.0004         27.0004
 19  3  6  0 12 35.0000000  0  7G11G13G17G18G19G01G28
   1597514.59046  -6673934.89842  23201056.9844                   23201055.2304
        38.2504         14.7504
   2206084.95747  -6188234.12544  22997121.4144                   22997119.7854
        45.2504         26.7504
  -8948095.40248 -18779737.53145  20745417.4614                   20745415.4104
        49.2504         34.0004
   1461118.141 6                  23793970.641
        36.500
  -3345045.75047 -10796970.85245  21553770.1484                   21553765.9804
        45.7504         31.5004
  -4963356.09846  -5293114.22343  22618001.9694                   22618003.8954
        41.2504         22.5004
   1253651.02047  -9582028.34444  21223663.7344                   21223660.7114
        46.0004         26.7504
 19  3  6  0 12 40.0000000  0  7G11G13G17G18G19G01G28
   1598634.98046  -6673061.85542  23201270.4454                   23201268.9224
        39.2504         13.7504
   2209564.13347  -6185523.05544  22997783.4534                   22997781.7194
        45.2504         24.5004
  -8963414.55948 -18791674.51645  20742502.2114                   20742499.8554
        49.7504         34.2504
   1461637.332 6                  23794068.953
        37.500
  -3370925.98847 -10817137.26645  21548845.4454                   21548841.8134
        45.7504         31.5004
  -4971642.64846  -5299571.25043  22616425.4844                   22616427.0944
        41.0004         22.0004
   1249709.07847  -9585100.00044  21222913.2974                   21222910.7704
        45.7504         27.2504
 19  3  6  0 12 45.0000000  0  7G11G13G17G18G19G01G28
   1599766.45746  -6672180.17242  23201485.5944                   23201484.3874
        38.5004         13.7504
   2213050.48447  -6182806.42644  22998446.7734                   22998444.9924
        44.5004         25.7504
  -8978722.03948 -18803602.42645  20739589.2424                   20739586.8244
        49.5004         34.2504
   1462169.000 6                  23794169.555
        37.500
  -3396796.76647 -10837296.30945  21543922.0634                   21543918.5634
        46.2504         31.0004
  -4979912.97346  -5306015.65243  22614851.9694                   22614853.2154
        41.0004         21.7504
   1245771.98047  -9588167.86344  21222164.1414                   21222161.8164
        45.7504         26.2504
 19  3  6  0 12 50.0000000  0  7G11G13G17G18G19G01G28
   1600908.84846  -6671290.02742  23201702.8444                   23201701.8984
        39.7504         14.7504
   2216543.97347  -6180084.22744  22999111.2114                   22999110.0704
        44.5004         25.2504
  -8994018.00848 -18815521.35945  20736678.5474                   20736676.3714
        49.5004         33.7504
   1462712.813 6                  23794273.328
        38.000
  -3422658.09047 -10857447.99245  21539000.5474                   21538996.8284
        46.0004         30.5004
  -4988167.35246  -5312447.65243  22613280.7974                   22613282.4064
        41.0004         22.5004
   1241839.53147  -9591232.10944  21221416.1484                   21221413.6134
        46.0004         26.5004
 19  3  6  0 12 55.0000000  0  7G11G13G17G18G19G01G28
   1602063.35246  -6670390.43042  23201921.9454                   23201921.3834
        38.7504         14.7504
   2220045.81647  -6177355.53544  22999778.0704                   22999775.9184
        45.2504         25.5004
  -9009301.27348 -18827430.39545  20733770.2814                   20733767.6174
        49.7504         34.0004
   1463270.016 6                  23794379.992
        37.000
  -3448508.75847 -10877591.35945  21534081.8204                   21534077.9694
        46.0004         30.7504
  -4996404.56246  -5318866.25843  22611713.3914                   22611715.5044
        41.0004         22.2504
   1237912.92247  -9594291.80544  21220668.2274                   21220665.8954
        45.7504         26.2504
 19  3  6  0 13  0.0000000  0  7G11G13G17G18G19G01G28
   1603229.84446  -6669481.41842  23202143.5164                   23202143.0084
        39.0004         14.7504
   2223555.89147  -6174620.39544  23000445.9384                   23000443.8874
        44.7504         25.5004
  -9024571.94948 -18839329.62145  20730864.4384                   20730862.1644
        49.7504         34.2504
   1463840.480 6                  23794488.141
        36.500
  -3474348.81647 -10897726.46145  21529164.3754                   21529160.4534
        46.0004         31.0004
  -5004624.77046  -5325271.60943  22610148.9534                   22610150.4884
        41.2504         22.0004
   1233992.10947  -9597346.98444  21219922.3674                   21219920.0474
        46.0004         28.0004
 19  3  6  0 13  5.0000000  0  7G11G13G17G18G19G01G28
   1604406.20746  -6668564.82442  23202367.9144                   23202367.6484
        36.5004         14.7504
   2227075.21147  -6171878.06244  23001115.7424                   23001114.1134
        44.5004         24.0004
  -9039831.18748 -18851219.93045  20727960.3134                   20727958.8164
        49.2504         34.0004
   1464423.219 6                  23794598.133
        38.500
  -3500178.87547 -10917853.77345  21524248.9384                   21524245.3444
        45.5004         30.7504
  -5012830.51646  -5331665.66443  22608586.9774                   22608589.3874
        40.2504         22.2504
   1230074.73847  -9600399.47344  21219177.0554                   21219174.5314
        45.7504         27.0004
 19  3  6  0 13 10.0000000  0  7G11G13G17G18G19G01G28
   1605593.08646  -6667639.94942  23202593.0084                   23202593.3164
        37.5004         13.7504
   2230599.96147  -6169131.51244  23001786.0864                   23001784.3634
        44.2504         25.2504
  -9055083.34448 -18863104.71545  20725057.7894                   20725055.4534
        48.0004         32.5004
   1465020.656 6                  23794712.008
        37.250
  -3526004.69147 -10937977.78145  21519334.6804                   21519330.7194
        44.0004         31.0004
  -5021023.25046  -5338049.63743  22607028.3914                   22607029.7584
        39.7504         22.5004
   1226157.66447  -9603451.73844  21218431.5704                   21218429.2464
        44.0004         25.0004
 19  3  6  0 13 15.0000000  0  7G11G13G17G18G19G01G28
   1606785.28546  -6666711.14542  23202820.2034                   23202820.3324
        37.7504         13.7504
   2234135.42247  -6166376.66843  23002458.5474                   23002457.4414
        44.0004         23.0004
  -9070324.49248 -18874980.98445  20722157.2034                   20722155.5474
        48.7504         32.2504
   1465625.188 5                  23794826.039
        35.750
  -3551819.25047 -10958093.05945  21514422.0864                   21514418.4734
        45.0004         30.0004
  -5029205.52046  -5344425.48443  22605470.6024                   22605472.9534
        39.7504         22.2504
   1222241.55547  -9606503.28944  21217686.0704                   21217683.7074
        44.2504         26.5004
 19  3  6  0 13 20.0000000  0  7G11G13G17G18G19G01G28
   1607989.05546  -6665773.00842  23203048.6094                   23203049.9534
        38.2504         13.7504
   2237685.42647  -6163610.44943  23003133.9454                   23003132.6524
        44.5004         22.5004
  -9085549.43748 -18886844.57445  20719259.3284                   20719258.1884
        48.7504         32.2504
   1466242.547 6                  23794943.266
        36.250
  -3577617.96147 -10978195.95345  21509511.6954                   21509508.9734
        45.0004         30.0004
  -5037370.93746  -5350788.13743  22603916.4144                   22603918.8364
        40.0004         21.5004
   1218332.48047  -9609549.32044  21216941.4924                   21216939.5784
        44.5004         25.7504
 19  3  6  0 13 25.0000000  0  7G11G13G17G18G19G01G28
   1609209.69546  -6664821.98842  23203280.5004                   23203281.8164
        38.0004         14.7504
   2241247.05147  -6160835.15644  23003811.8284                   23003810.2734
        43.5004         25.0004
  -9100757.09448 -18898694.71145  20716365.9694                   20716364.0594
        48.5004         33.0004
   1466877.672 6                  23795064.680
        36.250
  -3603401.70347 -10998287.18045  21504605.4844                   21504602.4414
        45.0004         30.0004
  -5045513.91046  -5357133.32043  22602367.1954                   22602369.4774
        39.2504         21.5004
   1214434.32847  -9612586.85544  21216199.4224                   21216197.7774
        43.5004         24.5004
 19  3  6  0 13 30.0000000  0  7G11G13G17G18G19G01G28
   1610442.33246  -6663861.41842  23203515.0944                   23203517.1254
        37.5004         13.7504
   2244816.59447  -6158053.68443  23004490.8284                   23004489.4574
        44.0004         22.7504
  -9115952.06248 -18910534.94145  20713474.0634                   20713472.5864
        48.5004         33.5004
   1467525.500 5                  23795188.586
        35.750
  -3629174.48447 -11018369.87145  21499701.0234                   21499698.1214
        45.2504         31.2504
  -5053639.40646  -5363464.88343  22600820.6804                   22600823.0434
        39.2504         22.0004
   1210542.24647  -9615619.64844  21215458.7814                   21215457.5124
        44.0004         26.7504
 19  3  6  0 13 35.0000000  0  7G11G13G17G18G19G01G28
   1611684.176 6                  23203751.352
        36.750
   2248388.86346  -6155270.06644  23005169.1174                   23005169.8244
        40.7504         24.0004
  -9131138.97747 -18922368.87145  20710583.3134                   20710583.7734
        45.7504         32.2504
   1468184.371 5                  23795312.070
        35.750
  -3654942.10946 -11038448.49645  21494797.0394                   21494795.3244
        41.5004         30.0004
  -5061751.00846  -5369785.55543  22599276.6254                   22599279.7934
        38.2504         20.7504
   1206652.04346  -9618650.96144  21214717.9844                   21214717.3164
        41.5004         24.5004
 19  3  6  0 13 40.0000000  0  7G11G13G17G18G19G01G28
   1612933.793 6                  23203989.734
        38.500
   2251966.15646  -6152482.60944  23005850.5164                   23005850.7274
        41.7504         24.5004
  -9146317.13347 -18934196.03945  20707695.1724                   20707695.1564
        47.2504         32.7504
   1468852.473 6                  23795440.227
        37.000
  -3680702.67647 -11058521.69945  21489895.2114                   21489893.2464
        43.0004         30.0004
  -5069849.94146  -5376096.46143  22597735.3444                   22597739.1374
        39.2504         21.2504
   1202763.35547  -9621681.12144  21213978.3284                   21213977.6024
        43.5004         25.5004
 19  3  6  0 13 45.0000000  0  7G11G13G17G18G19G01G28
   1614198.441 6                  23204230.172
        37.500
   2255553.26247  -6149687.45343  23006533.0164                   23006533.2584
        43.0004         23.0004
  -9161480.54747 -18946011.68045  20704809.6954                   20704809.0904
        46.5004         31.5004
   1469537.016 5                  23795570.633
        35.250
  -3706450.75047 -11078585.13344  21484995.6094                   21484993.0864
        42.7504         29.7504
  -5077928.81646  -5382391.67643  22596197.2584                   22596201.8634
        37.2504         21.7504
   1198882.98847  -9624704.78944  21213239.7274                   21213238.9414
        42.0004         24.7504
 19  3  6  0 13 50.0000000  0  7G11G13G17G18G19G01G28
   1615478.881 6                  23204473.563
        38.500
   2259149.84847  -6146884.93743  23007217.6414                   23007217.5664
        42.0004         22.7504
  -9176629.06247 -18957815.73045  20701926.8674                   20701926.4964
        47.0004         33.0004
   1470238.855 5                  23795703.195
        35.250
  -3732186.58247 -11098639.03144  21480097.4454                   21480095.3914
        42.5004         29.5004
  -5085986.94446  -5388670.76343  22594664.6724                   22594668.0944
        38.5004         22.5004
   1195011.43047  -9627721.60244  21212503.0554                   21212501.9734
        42.7504         27.0004
 19  3  6  0 13 55.0000000  0  7G11G13G17G18G19G01G28
   1616774.137 6                  23204719.563
        36.750
   2262755.01047  -6144075.68843  23007904.1884                   23007903.3204
        43.0004         22.0004
  -9191763.70347 -18969608.92645  20699047.0634                   20699046.1524
        47.5004         32.0004
   1470957.090 6                  23795841.609
        37.250
  -3757911.17647 -11118684.13745  21475202.5314                   21475200.2194
        44.0004         31.7504
  -5094025.35546  -5394934.41443  22593135.0394                   22593139.0124
        37.5004         22.0004
   1191147.67647  -9630732.30144  21211768.0704                   21211766.3164
        42.5004         24.5004
 19  3  6  0 14  0.0000000  0  7G11G13G17G18G19G01G28
   1618073.852 6                  23204968.023
        38.000
   2266360.47347  -6141266.25843  23008589.8754                   23008589.5354
        42.0004         22.2504
  -9206894.41047 -18981399.07445  20696167.8284                   20696167.2034
        47.0004         32.2504
   1471681.676 6                  23795978.422
        37.000
  -3783633.53947 -11138727.52744  21470308.1804                   21470305.2734
        42.5004         27.5004
  -5102054.62146  -5401190.98443  22591607.6334                   22591610.2504
        39.7504         20.5004
   1187281.03947  -9633745.23044  21211032.1334                   21211030.8164
        43.5004         27.0004
 19  3  6  0 14  5.0000000  0  7G11G13G17G18G19G01G28
   1619381.398 6                  23205217.055
        37.500
   2269973.20346  -6138451.15243  23009277.2814                   23009277.0824
        41.7504         21.5004
  -9222013.86747 -18993180.47745  20693291.0004                   20693289.9344
        47.0004         32.5004
   1472415.277 6                  23796118.266
        36.750
  -3809346.12947 -11158763.30544  21465415.0164                   21465412.9024
        42.5004         28.2504
  -5110070.53946  -5407437.16444  22590082.0554                   22590084.6294
        39.7504         24.0004
   1183417.56347  -9636755.73844  21210297.1094                   21210295.5164
        43.7504         24.5004
 19  3  6  0 14 10.0000000  0  7G11G13G17G18G19G01G28
   1620707.875 6                  23205468.766
        36.250
   2273597.27047  -6135627.19943  23009967.6094                   23009966.5084
        42.0004         22.2504
  -9237115.43747 -19004947.96145  20690416.8444                   20690416.0004
        47.0004         33.0004
   1473168.535 6                  23796261.672
        37.500
  -3835043.58247 -11178787.32045  21460525.1094                   21460522.6374
        42.7504         30.0004
  -5118062.23846  -5413664.45743  22588561.2504                   22588564.1414
        38.7504         21.5004
   1179566.37547  -9639756.69944  21209564.3364                   21209563.0634
        42.7504         24.5004
 19  3  6  0 14 15.0000000  0  7G11G13G17G18G19G01G28
   1622043.297 6                  23205722.453
        37.000
   2277223.22346  -6132801.77343  23010656.8524                   23010656.5204
        39.2504         22.5004
  -9252209.66047 -19016709.65645  20687544.5474                   20687544.0864
        46.0004         32.5004
   1473932.285 6                  23796406.672
        38.000
  -3860736.26246 -11198807.54744  21455636.0554                   21455633.5744
        41.5004         28.7504
  -5126040.10546  -5419880.93743  22587042.8754                   22587046.2154
        38.2504         21.2504
   1175716.65247  -9642756.46144  21208831.3674                   21208830.4774
        42.5004         25.2504
 19  3  6  0 14 20.0000000  0  7G11G13G17G18G19G01G28
   1623387.617 6                  23205978.266
        36.000
   2280854.91046  -6129971.85243  23011347.2814                   23011347.8444
        39.2504         23.0004
  -9267293.74847 -19028463.49245  20684673.9844                   20684673.8054
        45.5004         32.5004
   1474706.574 6                  23796553.836
        37.250
  -3886420.91846 -11218821.56245  21450747.8134                   21450746.4304
        41.2504         31.7504
  -5134004.05546  -5426086.63343  22585527.9614                   22585530.8014
        37.5004         21.2504
   1171869.82646  -9645753.98644  21208099.4224                   21208098.5474
        41.5004         25.0004
 19  3  6  0 14 25.0000000  0  7G11G13G17G18G19G01G28
   1624742.828 5                  23206236.078
        35.500
   2284492.95746  -6127137.05543  23012040.0004                   23012040.3754
        40.0004         22.0004
  -9282366.57447 -19040208.53545  20681805.5234                   20681805.3164
        45.7504         32.0004
   1475492.797 5                  23796703.250
        35.500
  -3912095.96947 -11238828.07844  21445862.2344                   21445859.8324
        42.0004         29.5004
  -5141951.67246  -5432279.52343  22584015.1884                   22584018.4774
        37.7504         21.0004
   1168027.68046  -9648747.86344  21207368.2194                   21207367.2934
        41.0004         24.7504
 19  3  6  0 14 30.0000000  0  7G11G13G17G18G19G01G28
   1626108.340 6                  23206495.852
        37.500
   2288137.10946  -6124297.42243  23012733.7194                   23012734.0594
        41.7504         21.2504
  -9297428.80147 -19051945.33245  20678939.8754                   20678939.2384
        46.5004         31.2504
   1476290.887 6                  23796856.117
        37.750
  -3937762.46947 -11258827.95344  21440978.6024                   21440976.4844
        42.5004         28.2504
  -5149883.99646  -5438460.59443  22582506.0164                   22582508.9734
        39.5004         20.7504
   1164189.23047  -9651738.84044  21206638.2894                   21206636.8404
        42.0004         25.5004
 19  3  6  0 14 35.0000000  0  7G11G13G17G18G19G01G28
   1627483.879 5                  23206758.883
        35.500
   2291792.06346  -6121449.44943  23013429.2344                   23013429.3674
        38.0004         21.5004
  -9312476.82847 -19063671.08245  20676076.1954                   20676076.3834
        43.5004         30.5004
   1477099.824 6                  23797009.492
        36.250
  -3963415.53946 -11278817.37144  21436096.7974                   21436094.8834
        39.2504         28.5004
  -5157800.46946  -5444629.27743  22580998.5314                   22581002.6604
        37.0004         21.0004
   1160356.65246  -9654725.28544  21205908.3754                   21205908.0004
        40.0004         24.0004
 19  3  6  0 14 40.0000000  0  7G11G13G17G18G19G01G28
   1628874.758 6                  23207021.766
        37.000
   2295456.86346  -6118593.75443  23014125.9694                   23014127.1954
        40.0004         22.7504
  -9327509.33247 -19075384.72345  20673215.3054                   20673215.7234
        46.0004         32.5004
   1477924.996 6                  23797165.109
        37.250
  -3989055.14846 -11298796.27345  21431217.1414                   21431216.2274
        41.7504         30.0004
  -5165696.09446  -5450781.69943  22579496.1024                   22579500.2664
        38.5004         20.5004
   1156533.32847  -9657704.50044  21205180.8914                   21205180.2584
        42.2504         26.7504
 19  3  6  0 14 45.0000000  0  7G11G13G17G18G19G01G28
   1630278.000 6                  23207289.766
        36.250
   2299127.23046  -6115733.73043  23014824.3984                   23014825.6524
        40.2504         22.0004
  -9342530.57447 -19087089.57845  20670356.5004                   20670357.2704
        46.0004         32.2504
   1478764.023 6                  23797326.023
        37.250
  -4014686.12547 -11318768.45744  21426339.9304                   21426338.5004
        42.0004         29.7504
  -5173574.39546  -5456920.63743  22577996.9064                   22578001.3094
        37.2504         20.7504
   1152715.24647  -9660679.61744  21204454.2034                   21204453.5744
        42.0004         26.7504
 19  3  6  0 14 50.0000000  0  7G11G13G17G18G19G01G28
   1631688.602 6                  23207558.594
        37.250
   2302803.18446  -6112869.33243  23015524.5474                   23015525.5354
        41.2504         22.2504
  -9357542.78147 -19098787.41445  20667500.1174                   20667500.6484
        47.0004         32.5004
   1479611.945 6                  23797487.180
        37.500
  -4040309.24247 -11338734.52745  21421464.2114                   21421462.7664
        42.7504         30.0004
  -5181440.25846  -5463049.90243  22576500.8524                   22576504.4304
        38.5004         20.7504
   1148898.59447  -9663653.64144  21203728.0474                   21203727.9344
        42.2504         27.5004
 19  3  6  0 14 55.0000000  0  7G11G13G17G18G19G01G28
   1633109.199 6                  23207829.063
        38.000
   2306485.75846  -6109999.80143  23016225.5634                   23016226.3714
        40.2504         22.0004
  -9372543.83247 -19110476.52345  20664646.1484                   20664646.5234
        46.7504         32.2504
   1480471.508 6                  23797650.828
        38.500
  -4065923.18047 -11358693.43044  21416590.1644                   21416588.6294
        42.2504         28.5004
  -5189290.95746  -5469167.32043  22575006.8204                   22575010.5904
        39.0004         22.0004
   1145085.86747  -9666624.58644  21203002.5554                   21203002.7304
        44.0004         29.0004
 19  3  6  0 15  0.0000000  0  7G11G13G17G18G19G01G28
   1634547.750 6                  23208102.781
        36.000
   2310180.01646  -6107121.16443  23016927.8134                   23016929.2504
        40.0004         22.5004
  -9387526.99647 -19122151.73445  20661794.5394                   20661794.8794
        46.0004         32.7504
   1481349.984 6                  23797818.813
        37.250
  -4091521.82847 -11378640.42445  21411718.3444                   21411717.6414
        42.0004         30.2504
  -5197118.39846  -5475266.60943  22573516.8054                   22573521.1724
        38.5004         21.5004
   1141284.85547  -9669586.43044  21202279.3834                   21202279.1844
        42.5004         25.7504
 19  3  6  0 15  5.0000000  0  7G11G13G17G18G19G01G28
   1635991.977 6                  23208378.547
        37.250
   2313875.41446  -6104241.62143  23017632.1174                   23017633.3014
        41.2504         21.5004
  -9402504.54347 -19133822.51645  20658945.0314                   20658945.7194
        46.5004         32.5004
   1482235.977 6                  23797987.617
        38.500
  -4117116.70347 -11398584.45344  21406848.6644                   21406847.8284
        42.5004         28.2504
  -5204935.14846  -5481357.55943  22572030.5004                   22572034.4304
        38.7504         20.7504
   1137482.72347  -9672549.10244  21201556.4924                   21201556.3714
        42.0004         24.7504
 19  3  6  0 15 10.0000000  0  7G11G13G17G18G19G01G28
   1637439.527 6                  23208654.383
        39.000
   2317574.65647  -6101359.09443  23018336.3594                   23018336.4654
        42.0004         22.7504
  -9417475.30948 -19145488.04746  20656096.3204                   20656094.4224
        49.0004         37.7504
   1483126.090 6                  23798157.125
        38.250
  -4142705.27747 -11418523.58245  21401980.5704                   21401976.9384
        45.2504         34.7504
  -5212742.93746  -5487441.54344  22570545.1884                   22570548.2034
        39.5004         26.0004
   1133679.20747  -9675512.87545  21200833.1334                   21200831.0704
        45.7504         30.7504
 19  3  6  0 15 15.0000000  0  7G11G13G17G18G19G01G28
   1638896.53145  -6663243.23053  23208930.4454                   23208927.2814
        35.0004         20.5004
   2321274.59847  -6098476.03545  23019040.5394                   23019039.9384
        44.0004         30.0004
  -9432437.30548 -19157146.75446  20653249.0234                   20653247.5084
        48.2504         37.2504
   1484026.355 6                  23798328.383
        37.000
  -4168288.48847 -11438458.56645  21397111.3364                   21397108.2734
        44.7504         35.0004
  -5220535.67246  -5493513.80943  22569061.6094                   22569064.7194
        38.7504         22.5004
   1129878.97347  -9678474.10944  21200109.3444                   21200107.7074
        43.5004         29.0004
 19  3  6  0 15 20.0000000  0  7G11G13G17G18G19G01G28
   1640358.74246  -6662103.80943  23209209.6564                   23209206.0234
        37.2504         18.2504
   2324975.66447  -6095592.07044  23019744.4694                   23019744.3914
        42.2504         27.0004
  -9447394.67648 -19168801.82045  20650402.7344                   20650401.6174
        48.5004         35.0004
   1484934.016 6                  23798501.336
        39.000
  -4193868.64147 -11458391.12945  21392244.1094                   21392240.8554
        44.5004         32.5004
  -5228318.42246  -5499578.26643  22567580.5864                   22567583.6804
        39.0004         21.7504
   1126076.62547  -9681436.97344  21199386.2734                   21199384.9024
        44.5004         25.2504
 19  3  6  0 15 25.0000000  0  7G11G13G17G18G19G01G28
   1641831.74246  -6660956.05542  23209489.9224                   23209486.6954
        38.0004         17.2504
   2328686.34847  -6092700.64144  23020451.3524                   23020450.4964
        44.0004         24.2504
  -9462338.60948 -19180446.46145  20647559.2894                   20647558.1844
        49.5004         34.5004
   1485853.855 6                  23798677.000
        37.500
  -4219436.66047 -11478314.26645  21387378.5394                   21387375.5824
        46.0004         31.5004
  -5236085.21646  -5505630.32043  22566103.5784                   22566105.5594
        38.2504         22.2504
   1122279.65647  -9684395.64844  21198663.9224                   21198662.3364
        44.0004         26.5004
 19  3  6  0 15 30.0000000  0  7G11G13G17G18G19G01G28
   1643317.42246  -6659798.34042  23209772.0234                   23209769.9184
        37.5004         17.7504
   2332407.84047  -6089800.75044  23021159.7114                   23021158.9494
        42.2504         26.0004
  -9477267.45348 -19192079.30545  20644718.5634                   20644717.1214
        48.2504         35.7504
   1486787.301 6                  23798853.914
        38.750
  -4244990.64147 -11498226.43445  21382515.7894                   21382513.3554
        44.2504         32.0004
  -5243833.41446  -5511667.85943  22564629.0084                   22564631.1724
        39.0004         22.7504
   1118490.36347  -9687348.32844  21197942.9844                   21197941.7814
        44.5004         28.0004
 19  3  6  0 15 35.0000000  0  7G11G13G17G18G19G01G28
   1644813.53546  -6658632.57042  23210057.1484                   23210055.0394
        39.5004         16.7504
   2336135.22347  -6086896.34044  23021868.8594                   23021868.3984
        43.0004         26.0004
  -9492185.73048 -19203703.94146  20641880.4384                   20641878.5234
        49.5004         36.5004
   1487732.934 6                  23799034.281
        39.250
  -4270535.99647 -11518131.91445  21377654.7034                   21377652.3524
        45.7504         33.2504
  -5251566.25046  -5517693.45343  22563157.7504                   22563159.5904
        40.5004         22.5004
   1114704.77747  -9690298.14144  21197222.9384                   21197221.3244
        45.7504         29.5004
 19  3  6  0 15 40.0000000  0  7G11G13G17G18G19G01G28
   1646325.60546  -6657454.32842  23210344.6174                   23210343.7074
        36.5004         16.2504
   2339871.84047  -6083984.66844  23022579.6644                   23022579.2304
        44.2504         25.5004
  -9507088.64848 -19215316.60946  20639043.3984                   20639043.0044
        48.5004         36.0004
   1488695.938 6                  23799217.141
        36.750
  -4296068.69947 -11538027.52045  21372795.3204                   21372793.7384
        45.0004         32.7504
  -5259277.98446  -5523702.57043  22561688.8524                   22561692.7974
        37.2504         22.5004
   1110928.42647  -9693240.76644  21196503.7894                   21196502.5314
        43.2504         27.5004
 19  3  6  0 15 45.0000000  0  7G11G13G17G18G19G01G28
   1647850.46146  -6656266.09842  23210635.3754                   23210634.2384
        38.2504         15.5004
   2343617.43846  -6081066.04343  23023291.9694                   23023292.0704
        41.5004         22.2504
  -9521977.48848 -19226918.28545  20636210.3594                   20636209.7584
        48.7504         35.5004
   1489672.543 6                  23799402.891
        39.500
  -4321588.76247 -11557913.26645  21367939.3364                   21367937.9384
        45.2504         31.2504
  -5266971.25046  -5529697.32443  22560225.8284                   22560229.1724
        39.7504         22.0004
   1107159.36747  -9696177.67645  21195786.5314                   21195785.6454
        45.5004         30.5004
 19  3  6  0 15 50.0000000  0  7G11G13G17G18G19G01G28
   1649387.20346  -6655068.68042  23210927.8524                   23210926.9494
        39.0004         15.5004
   2347372.75447  -6078139.81644  23024007.3984                   23024007.3634
        44.0004         25.7504
  -9536852.11748 -19238508.91046  20633379.8054                   20633379.4774
        49.2504         36.0004
   1490662.016 6                  23799591.266
        39.500
  -4347095.91447 -11577788.97345  21363086.0474                   21363084.0394
        45.7504         32.5004
  -5274647.00446  -5535678.44543  22558764.9924                   22558767.8554
        39.5004         22.5004
   1103397.03547  -9699109.37544  21195070.5554                   21195070.0514
        45.0004         29.0004
 19  3  6  0 15 55.0000000  0  7G11G13G17G18G19G01G28
   1650936.56346  -6653861.33242  23211221.6174                   23211221.4184
        37.7504         16.2504
   2351135.07447  -6075208.15244  23024722.9454                   23024722.9694
        43.5004         25.2504
  -9551713.64548 -19250089.33246  20630551.9924                   20630551.3054
        49.0004         36.2504
   1491665.051 6                  23799782.164
        38.000
  -4372592.10547 -11597656.12945  21358233.7504                   21358231.9224
        45.5004         33.5004
  -5282304.53546  -5541645.35543  22557307.6644                   22557311.0164
        39.0004         22.2504
   1099641.52747  -9702035.74244  21194356.0864                   21194355.2854
        44.5004         28.0004
 19  3  6  0 16  0.0000000  0  7G11G13G17G18G19G01G28
   1652492.92646  -6652648.68042  23211519.1094                   23211518.3164
        39.0004         14.7504
   2354905.58647  -6072270.09044  23025440.7894                   23025440.5394
        43.5004         26.2504
  -9566565.37948 -19261662.10945  20627726.0084                   20627725.1684
        49.7504         35.5004
   1492677.250 6                  23799974.469
        38.750
  -4398078.97347 -11617516.03545  21353384.3914                   21353381.8164
        46.0004         32.5004
  -5289950.43446  -5547603.21943  22555853.6564                   22555857.2584
        38.5004         22.2504
   1095886.86747  -9704961.44144  21193641.9454                   21193640.7234
        45.2504         27.7504
 19  3  6  0 16  5.0000000  0  7G11G13G17G18G19G01G28
   1654060.98045  -6651426.75842  23211817.2344                   23211816.4224
        35.7504         15.5004
   2358680.20347  -6069328.84444  23026158.8284                   23026158.5434
        42.2504         25.5004
  -9581406.36348 -19273226.52745  20624901.5164                   20624900.3014
        48.7504         35.7504
   1493702.547 6                  23800169.594
        38.250
  -4423557.81247 -11637369.67645  21348535.7344                   21348533.0434
        45.2504         32.5004
  -5297579.12546  -5553547.67243  22554401.1724                   22554404.6174
        39.7504         22.5004
   1092137.24647  -9707883.23444  21192927.5704                   21192926.5634
        45.0004         27.7504
 19  3  6  0 16 10.0000000  0  7G11G13G17G18G19G01G28
   1655639.73846  -6650196.59842  23212117.3524                   23212117.3284
        37.0004         15.5004
   2362461.42247  -6066382.43744  23026878.3754                   23026877.6484
        43.2504         24.0004
  -9596236.14848 -19284782.19145  20622079.6724                   20622078.8204
        48.5004         34.5004
   1494739.934 6                  23800367.602
        38.000
  -4449027.06647 -11657215.84045  21343688.8134                   21343686.4104
        45.2504         31.2504
  -5305191.98446  -5559479.73843  22552952.4924                   22552956.0044
        38.5004         21.0004
   1088391.96147  -9710801.65644  21192215.0394                   21192213.3244
        43.7504         25.0004
 19  3  6  0 16 15.0000000  0  7G11G13G17G18G19G01G28
   1657227.39846  -6648959.49642  23212419.1724                   23212419.4844
        38.2504         15.5004
   2366249.98447  -6063430.32443  23027599.5474                   23027598.1884
        43.5004         20.7504
  -9611054.01648 -19296328.57845  20619260.3524                   20619257.2894
        50.0004         34.0004
   1495787.445 6                  23800567.391
        38.250
  -4474485.70747 -11677053.74645  21338844.3834                   21338840.8324
        46.2504         30.0004
  -5312790.30146  -5565400.52043  22551506.2034                   22551509.6054
        40.5004         21.0004
   1084650.76247  -9713716.86744  21191503.4534                   21191500.8134
        45.5004         26.5004
 19  3  6  0 16 20.0000000  0  7G11G13G17G18G19G01G28
   1658816.21146  -6647721.48742  23212721.9454                   23212722.1724
        38.5004         15.5004
   2370038.24447  -6060478.42643  23028319.6564                   23028318.5554
        43.0004         22.0004
  -9625867.85348 -19307871.83845  20616440.6564                   20616437.8014
        49.5004         33.5004
   1496837.043 6                  23800766.508
        37.750
  -4499941.49647 -11696889.43444  21333999.5554                   21333995.1484
        45.7504         29.5004
  -5320381.77847  -5571315.99043  22550061.9844                   22550064.1524
        42.0004         21.0004
   1080905.83547  -9716635.00944  21190790.3444                   21190787.4104
        45.5004         26.5004
 19  3  6  0 16 25.0000000  0  7G11G13G17G18G19G01G28
   1660411.51246  -6646478.37542  23213026.6484                   23213025.3954
        40.0004         13.7504
   2373833.67647  -6057520.94143  23029043.1724                   23029040.1414
        42.7504         22.5004
  -9640672.27048 -19319407.72145  20613625.2734                   20613620.2274
        51.0004         34.7504
   1497895.055 6                  23800969.000
        39.750
  -4525388.28947 -11716718.05145  21329159.2114                   21329153.1844
        47.0004         30.7504
  -5327961.62147  -5577222.30143  22548620.7344                   22548621.5944
        44.5004         20.5004
   1077161.76648  -9719552.42944  21190079.7274                   21190074.8204
        48.0004         29.2504
 19  3  6  0 16 30.0000000  0  7G11G13G17G18G19G01G28
   1662021.516 6                  23213332.172
        39.750
   2377632.22747  -6054561.06644  23029765.1954                   23029763.2424
        43.7504         24.5004
  -9655464.39548 -19330934.12646  20610808.6094                   20610806.0044
        50.5004         36.5004
   1498968.559 6                  23801172.664
        39.500
  -4550826.59147 -11736540.17545  21324316.9144                   21324312.9024
        46.7504         33.0004
  -5335521.22547  -5583112.97843  22547181.4304                   22547182.6564
        43.2504         22.0004
   1073425.48547  -9722463.88745  21189367.3204                   21189363.6604
        47.5004         30.5004
 19  3  6  0 16 35.0000000  0  7G11G13G17G18G19G01G28
   1663642.05146  -6645772.06653  23213640.3674                   23213636.2234
        39.0004         20.0004
   2381446.00547  -6051589.26944  23030491.0394                   23030488.7664
        44.5004         25.5004
  -9670240.44248 -19342447.89346  20607996.9384                   20607993.8914
        50.7504         37.0004
   1500053.750 6                  23801379.039
        37.000
  -4576247.88747 -11756348.94145  21319479.1954                   21319475.0124
        47.2504         33.0004
  -5343064.59446  -5588990.87943  22545745.7424                   22545747.0274
        41.7504         22.2504
   1069695.80247  -9725370.10544  21188657.2194                   21188654.1884
        46.0004         28.5004
 19  3  6  0 16 40.0000000  0  7G11G13G17G18G19G01G28
   1665271.71146  -6644502.14842  23213952.1484                   23213946.9064
        39.2504         17.2504
   2385261.27047  -6048616.35243  23031218.5864                   23031214.1844
        44.2504         23.0004
  -9685008.30148 -19353955.30146  20605189.2274                   20605183.3794
        51.7504         36.7504
   1501149.890 6                  23801588.648
        38.750
  -4601663.96947 -11776153.66845  21314645.4694                   21314638.3364
        47.7504         32.5004
  -5350593.72347  -5594857.73044  22544315.0164                   22544313.6644
        44.2504         24.2504
   1065968.15648  -9728274.73844  21187950.6644                   21187944.6094
        48.2504         29.7504
 19  3  6  0 16 45.0000000  0  7G11G13G17G18G19G01G28
   1666912.80546  -6643223.41842  23214263.9924                   23214259.7544
        37.7504         16.7504
   2389085.21947  -6045636.68443  23031945.9534                   23031941.9614
        46.0004         23.7504
  -9699763.45748 -19365452.84446  20602380.2194                   20602375.8134
        51.7504         36.0004
   1502258.500 6                  23801800.117
        36.750
  -4627068.23848 -11795949.20745  21309810.5474                   21309804.1524
        49.0004         32.5004
  -5358105.87147  -5600711.35943  22542885.0944                   22542884.2704
        42.5004         22.2504
   1062246.20347  -9731174.99644  21187241.4144                   21187236.0984
        47.2504         28.0004
 19  3  6  0 16 50.0000000  0  7G11G13G17G18G19G01G28
   1668565.219 6                  23214578.867
        38.000
   2392916.62547  -6042651.12544  23032675.6174                   23032671.0164
        46.5004         26.5004
  -9714505.91848 -19376940.45346  20599575.7274                   20599570.0084
        52.0004         37.2504
   1503379.566 6                  23802013.344
        37.750
  -4652461.42648 -11815736.09445  21304978.2114                   21304971.8594
        48.7504         34.0004
  -5365601.11346  -5606551.80943  22541458.2114                   22541457.3594
        41.5004         22.0004
   1058529.96947  -9734070.72344  21186534.4694                   21186528.8164
        47.5004         29.2504
 19  3  6  0 16 55.0000000  0  7G11G13G17G18G19G01G28
   1670239.434 6                  23214896.969
        39.250
   2396765.15247  -6039652.28143  23033407.5164                   23033403.2854
        46.2504         22.5004
  -9729224.89148 -19388409.78545  20596773.6644                   20596769.5354
        50.5004         34.0004
   1504523.707 6                  23802230.680
        38.000
  -4677833.41847 -11835506.48045  21300149.4924                   21300144.1024
        47.5004         30.5004
  -5373068.95746  -5612370.92643  22540036.8364                   22540036.3484
        41.5004         22.5004
   1054830.34047  -9736953.58244  21185829.9694                   21185824.8634
        45.7504         25.5004
 19  3  6  0 17  0.0000000  0  7G11G13G17G18G19G01G28
   1671928.953 6                  23215218.695
        38.500
   2400623.56647  -6036645.72744  23034141.8834                   23034137.6994
        46.0004         25.5004
  -9743928.41448 -19399867.07046  20593976.8984                   20593971.5234
        51.5004         37.0004
   1505684.070 6                  23802451.664
        38.750
  -4703191.64848 -11855266.12545  21295324.7194                   21295318.3094
        48.5004         33.0004
  -5380515.93047  -5618173.68443  22538620.8674                   22538619.1804
        42.0004         22.5004
   1051139.83247  -9739829.26244  21185128.0394                   21185122.4454
        47.5004         29.0004
 19  3  6  0 17  5.0000000  0  7G11G13G17G18G19G01G28
   1673629.711 6                  23215541.883
        37.750
   2404492.99247  -6033630.59443  23034877.5394                   23034873.8054
        44.7504         23.5004
  -9758617.32848 -19411312.98045  20591181.3364                   20591175.4534
        51.5004         35.7504
   1506857.047 6                  23802674.219
        38.750
  -4728535.91848 -11875014.91045  21290501.5004                   21290494.8794
        48.2504         32.2504
  -5387945.95747  -5623963.38743  22537206.8984                   22537204.9414
        42.5004         22.2504
   1047455.79347  -9742699.95344  21184427.0784                   21184420.6334
        47.5004         29.0004
 19  3  6  0 17 10.0000000  0  7G11G13G17G18G19G01G28
   1675339.398 6                  23215867.008
        38.500
   2408365.17247  -6030613.31644  23035614.1564                   23035611.1454
        45.5004         26.5004
  -9773297.85248 -19422752.36346  20588386.5784                   20588382.5864
        51.5004         38.0004
   1508040.602 6                  23802899.820
        39.000
  -4753874.11348 -11894758.96945  21285679.0394                   21285673.6484
        48.2504         33.7504
  -5395362.07446  -5629742.14544  22535795.0634                   22535793.6914
        41.5004         24.2504
   1043773.70747  -9745569.12944  21183725.6484                   21183720.7504
        47.2504         29.7504
 19  3  6  0 17 15.0000000  0  7G11G13G17G18G19G01G28
   1677053.009 6                  23216191.523
        38.000
   2412239.03947  -6027594.76244  23036350.6884                   23036347.9534
        44.2504         25.2504
  -9787972.33648 -19434187.03145  20585593.2814                   20585589.8204
        50.5004         34.7504
   1509229.254 6                  23803124.180
        37.500
  -4779207.21547 -11914499.04345  21280857.4454                   21280853.0394
        47.2504         31.7504
  -5402768.51147  -5635513.43143  22534384.5004                   22534384.8244
        42.0004         22.5004
   1040090.21347  -9748439.39844  21183023.5944                   21183020.0704
        46.5004         26.5004
 19  3  6  0 17 20.0000000  0  7G11G13G17G18G19G01G28
   1678773.789 6                  23216520.047
        38.000
   2416116.09447  -6024573.61344  23037090.0084                   23037086.1914
        46.0004         24.5004
  -9802637.88348 -19445614.69146  20582804.0474                   20582799.3554
        51.5004         36.5004
   1510426.273 6                  23803353.211
        37.500
  -4804533.25848 -11934233.58245  21276039.8984                   21276033.7584
        48.2504         33.0004
  -5410162.23847  -5641274.71143  22532978.6644                   22532977.4144
        42.0004         22.5004
   1036408.42247  -9751308.27744  21182324.4144                   21182319.2974
        47.5004         29.0004
 19  3  6  0 17 25.0000000  0  7G11G13G17G18G19G01G28
   1680499.082 6                  23216847.992
        40.750
   2419998.78146  -6021548.18043  23037827.9614                   23037825.2194
        41.0004         23.0004
  -9817295.35248 -19457036.11345  20580013.5634                   20580010.2584
        50.0004         35.0004
   1511628.738 6                  23803580.805
        39.250
  -4829850.99647 -11953961.69945  21271220.7814                   21271216.4654
        45.2504         30.5004
  -5417545.64147  -5647028.08644  22531572.9774                   22531573.1024
        44.5004         26.5004
   1032726.58647  -9754177.28545  21181622.9304                   21181619.0704
        47.5004         30.5004
 19  3  6  0 17 30.0000000  0  7G11G13G17G18G19G01G28
   1682232.46946  -6641460.03152  23217178.7894                   23217176.3554
        38.7504         17.2504
   2423878.05947  -6018525.34443  23038567.1094                   23038563.6214
        45.5004         22.5004
  -9831947.77348 -19468453.59046  20577226.8594                   20577222.0354
        51.7504         37.0004
   1512841.043 6                  23803813.805
        39.000
  -4855167.41048 -11973688.77345  21266404.4694                   21266398.4104
        48.2504         33.7504
  -5424915.97746  -5652771.11343  22530171.1024                   22530170.2854
        41.7504         22.0004
   1029044.91447  -9757046.09845  21180922.9694                   21180917.8754
        47.5004         30.0004
 19  3  6  0 17 35.0000000  0  7G11G13G17G18G19G01G28
                                  23217512.3284                   23217509.4694
        38.2504         15.5004
   2427769.89847  -6015492.63343  23039307.2584                   23039302.9964
        46.2504         22.5004
  -9846581.89148 -19479856.80945  20574441.8444                   20574436.4104
        51.5004         35.2504
   1514072.297 6                  23804046.609
        39.000
  -4880467.60948 -11993403.22345  21261589.8134                   21261583.2504
        48.5004         32.0004
  -5432262.48447  -5658495.59443  22528772.3834                   22528771.7114
        42.0004         21.5004
   1025375.10247  -9759905.69944  21180224.9774                   21180219.3714
        47.5004         27.7504
 19  3  6  0 17 40.0000000  0  7G11G13G17G18G19G01G28
   1685743.77746  -6638723.96942  23217847.5474                   23217844.6134
        38.0004         14.7504
   2431671.34457  -6012452.48454  23040050.1724                   23040045.2974
        46.0004         24.7504
  -9861203.68048 -19491250.40646  20571659.5634                   20571653.8794
        52.0004         36.0004
   1515313.945 6                  23804284.516
        38.000
  -4905755.68048 -12013108.21545  21256778.3674                   21256771.0704
        49.0004         33.7504
  -5439594.34057  -5664208.63353  22527378.2344                   22527376.8444
        42.2504         22.0004
   1021709.29748  -9762762.18444  21179528.0394                   21179521.9024
        48.0004         28.0004
 19  3  6  0 17 45.0000000  0  7G11G13G17G18G19G01G28
   1687508.832 6                  23218183.281
        37.250
   2435572.72747  -6009412.44544  23040793.0554                   23040787.6524
        46.0004         25.2504
  -9875819.59048 -19502639.43046  20568878.5234                   20568873.2154
        52.0004         37.0004
   1516561.859 6                  23804521.383
        37.500
  -4931039.52748 -12032809.91445  21251966.5314                   21251959.2384
        48.5004         33.7504
  -5446916.36347  -5669914.13743  22525983.9844                   22525982.7544
        42.0004         22.2504
   1018042.47747  -9765619.44544  21178829.7584                   21178823.9924
        47.7504         29.0004
 19  3  6  0 17 50.0000000  0  7G11G13G17G18G19G01G28
   1689286.492 6                  23218521.109
        38.000
   2439481.12547  -6006366.94944  23041535.5394                   23041531.3204
        46.7504         26.0004
  -9890422.27348 -19514018.15646  20566099.2424                   20566094.2664
        51.5004         36.2504
   1517823.484 6                  23804760.141
        37.500
  -4956312.15248 -12052502.86745  21247157.3134                   21247150.7464
        48.7504         34.2504
  -5454220.12146  -5675605.35443  22524594.2814                   22524593.0434
        40.7504         21.0004
   1014382.44547  -9768471.42644  21178132.9924                   21178127.6764
        46.7504         27.7504
 19  3  6  0 17 55.0000000  0  7G11G13G17G18G19G01G28
   1691077.21946  -6637341.99653  23218863.1174                   23218855.4534
        37.7504         20.2504
   2443399.74247  -6003313.46943  23042282.5864                   23042277.3954
        46.5004         23.5004
  -9905009.89848 -19525385.12546  20563324.1954                   20563318.6954
        52.0004         36.5004
   1519099.305 6                  23805004.555
        38.500
  -4981570.96548 -12072185.04745  21242351.2504                   21242344.4924
        49.0004         33.5004
  -5461505.14147  -5681281.99243  22523208.7344                   22523207.2894
        42.5004         22.5004
   1010730.11348  -9771317.39144  21177439.2894                   21177432.5434
        48.0004         29.5004
 19  3  6  0 18  0.0000000  0  7G11G13G17G18G19G01G28
   1692877.83246  -6635938.95743  23219205.6954                   23219198.8444
        38.0004         18.2504
   2447324.96947  -6000254.85944  23043029.3054                   23043024.4384
        46.7504         24.0004
  -9919585.87148 -19536743.03146  20560550.4304                   20560544.9144
        52.2504         36.5004
   1520386.50846  -3327906.44953  23805249.9144                   23805246.7274
        38.5004         18.2504
  -5006819.56248 -12091859.28545  21237547.2034                   21237539.7504
        49.2504         33.2504
  -5468774.82047  -5686946.68743  22521825.6254                   22521823.1294
        42.5004         22.0004
   1007082.03948  -9774160.04744  21176744.6334                   21176738.5164
        48.0004         28.7504
 19  3  6  0 18  5.0000000  0  7G11G13G17G18G19G01G28
   1694684.86746  -6634530.82442  23219549.7814                   23219542.6644
        40.5004         15.5004
   2451253.71547  -5997193.49243  23043777.4694                   23043771.8164
        45.2504         22.2504
  -9934153.58248 -19548094.48045  20557778.7274                   20557772.2814
        52.0004         35.7504
   1521680.97746  -3326897.72342  23805496.2814                   23805493.9574
        39.2504         17.2504
  -5032060.80948 -12111527.76245  21232744.0234                   21232735.7584
        48.5004         32.2504
  -5476032.27747  -5692601.82443  22520445.6804                   22520442.5554
        44.5004         22.7504
   1003435.25048  -9777001.69544  21176051.0634                   21176044.2854
        49.0004         29.7504
 19  3  6  0 18 10.0000000  0  8G11G13G17G18G19G01G28G24
   1696498.53946  -6633117.57042  23219895.0634                   23219888.5984
        38.5004         17.2504
   2455182.21947  -5994132.34443  23044524.8914                   23044519.3874
        47.5004         23.2504
  -9948714.79748 -19559440.89546  20555007.2034                   20555000.9144
        52.5004         36.0004
   1522983.23046  -3325883.10542  23805744.2274                   23805742.0904
        36.5004         14.7504
  -5057297.80548 -12131192.96545  21227941.3204                   21227933.0704
        49.5004         33.2504
  -5483277.46146  -5698247.45743  22519066.4454                   22519063.8054
        41.5004         22.0004
    999788.91448  -9779843.00044  21175357.1024                   21175350.1334
        48.0004         29.0004
   1371318.56357   1182656.37153  22643484.5004                   22643480.1564
        43.2504         19.7504
 19  3  6  0 18 15.0000000  0  8G11G13G17G18G19G01G28G24
   1698318.25846  -6631699.58642  23220241.3364                   23220235.2854
        38.2504         15.5004
   2459114.32447  -5991068.34843  23045272.9064                   23045267.2074
        46.7504         23.7504
  -9963268.75848 -19570781.63346  20552238.2974                   20552231.7704
        52.2504         36.5004
   1524293.71146  -3324861.80142  23805993.6094                   23805991.4844
        39.0004         14.7504
  -5082528.67248 -12150853.36745  21223140.2274                   21223132.4964
        49.5004         33.7504
  -5490511.51247  -5703884.35543  22517689.4924                   22517686.5354
        42.0004         21.0004
    996142.07848  -9782684.68044  21174663.2584                   21174656.3204
        48.0004         28.5004
   1345566.70347   1162589.98643  22638583.7194                   22638580.0004
        44.2504         22.5004
 19  3  6  0 18 20.0000000  0  8G11G13G17G18G19G01G28G24
   1700148.422 6                  23220588.680
        38.000
   2463052.10547  -5987999.95344  23046021.9924                   23046016.6254
        46.2504         27.0004
  -9977811.36448 -19582113.52146  20549469.8984                   20549464.8834
        52.0004         37.0004
   1525615.68846  -3323831.72342  23806244.1954                   23806243.1844
        38.5004         15.5004
  -5107749.73848 -12170506.13345  21218339.4844                   21218333.1054
        49.0004         34.2504
  -5497729.47347  -5709508.73443  22516314.3914                   22516313.3014
        42.5004         21.5004
    992500.00048  -9785522.66244  21173969.4224                   21173963.9964
        48.0004         28.5004
   1319820.56347   1142528.08244  22633683.8134                   22633681.1524
        44.0004         26.5004
 19  3  6  0 18 25.0000000  0  8G11G13G17G18G19G01G28G24
   1701989.418 6                  23220939.172
        39.250
   2467001.93047  -5984922.19143  23046773.1414                   23046768.8284
        43.0004         22.2504
  -9992338.00848 -19593433.01246  20546705.5394                   20546700.6334
        51.0004         36.2504
   1526949.47346  -3322792.39842  23806497.8204                   23806497.0784
        40.7504         15.5004
  -5132955.19147 -12190146.76245  21213543.4144                   21213536.7384
        47.2504         31.0004
  -5504930.50447  -5715119.93743  22514944.5554                   22514943.1134
        45.0004         23.0004
    988865.11347  -9788355.05944  21173277.8674                   21173271.9574
        47.5004         29.2504
   1294085.78947   1122474.97344  22628786.0634                   22628783.9304
        45.2504         27.5004
 19  3  6  0 18 30.0000000  0  8G11G13G17G18G19G01G28G24
   1703846.40646  -6630026.98053  23221291.4144                   23221286.3984
        39.0004         18.5004
   2470959.27347  -5981838.52043  23047525.6724                   23047521.7234
        46.0004         22.7504
 -10006850.49648 -19604741.42646  20543943.5084                   20543938.1254
        51.5004         36.2504
   1528300.65246  -3321739.58642  23806754.8284                   23806754.7274
        37.5004         14.7504
  -5158148.77348 -12209778.10245  21208749.2034                   21208742.8874
        48.2504         33.0004
  -5512110.27746  -5720714.52743  22513578.1804                   22513576.7624
        41.5004         21.7504
    985239.05147  -9791180.54744  21172586.6024                   21172581.9304
        46.2504         27.5004
   1268360.47347   1102429.29744  22623889.7344                   22623888.7464
        43.5004         27.2504
 19  3  6  0 18 35.0000000  0  8G11G13G17G18G19G01G28G24
   1705716.84446  -6628569.54342  23221648.7584                   23221643.7074
        38.0004         16.7504
   2474920.46547  -5978751.98443  23048280.4614                   23048276.2384
        44.7504         22.5004
 -10021350.98048 -19616040.47745  20541184.8834                   20541179.9534
        51.2504         35.2504
   1529666.87946  -3320675.06642  23807016.9694                   23807013.5234
        39.2504         14.7504
  -5183333.58248 -12229402.61745  21203956.9064                   21203950.8634
        48.5004         32.0004
  -5519271.27047  -5726294.53543  22512217.9774                   22512214.5044
        44.2504         21.5004
    981619.35547  -9794001.07844  21171899.6484                   21171893.7704
        47.7504         28.5004
   1242644.37147   1082390.76243  22618998.7274                   22618995.7504
        44.5004         23.2504
 19  3  6  0 18 40.0000000  0  8G11G13G17G18G19G01G28G24
   1707591.77046  -6627108.50442  23222007.0084                   23222000.6644
        38.5004         15.5004
   2478891.64147  -5975657.48444  23049037.1254                   23049030.6954
        47.7504         24.5004
 -10035840.77348 -19627331.28146  20538428.8754                   20538421.1484
        52.7504         36.2504
   1531038.68046  -3319606.01642  23807278.5234                   23807275.5394
        39.2504         13.7504
  -5208506.39848 -12249017.85245  21199168.1644                   21199159.1484
        49.7504         33.5004
  -5526421.87546  -5731866.48043  22510856.8984                   22510853.0394
        41.5004         21.7504
    978000.64148  -9796820.88344  21171212.1884                   21171203.5904
        48.0004         27.5004
   1216935.02047   1062357.52743  22614107.3834                   22614103.0234
        44.0004         22.7504
 19  3  6  0 18 45.0000000  0  8G11G13G17G18G19G01G28G24
   1709477.75046  -6625638.87542  23222366.1094                   23222359.8244
        39.0004         13.7504
   2482864.18047  -5972562.00844  23049793.7034                   23049786.9734
        47.0004         26.5004
 -10050321.66848 -19638615.08646  20535674.0004                   20535665.9844
        53.0004         37.0004
   1532423.004 6                  23807540.383
        38.750
  -5233673.01248 -12268628.17645  21194379.8284                   21194370.4844
        50.0004         34.5004
  -5533556.06246  -5737425.56243  22509499.3134                   22509495.8674
        41.7504         20.7504
    974385.66448  -9799637.75844  21170524.9384                   21170516.4384
        48.2504         28.2504
   1191230.32547   1042327.89843  22609215.3134                   22609211.2704
        44.5004         22.2504
 19  3  6  0 18 50.0000000  0  8G11G13G17G18G19G01G28G24
   1711375.79746  -6624159.98842  23222727.4064                   23222721.6644
        37.5004         14.7504
   2486846.67248  -5969458.77344  23050551.1954                   23050545.1764
        48.2504         28.7504
 -10064787.86748 -19649887.42646  20532920.1954                   20532913.4694
        52.7504         37.5004
   1533820.711 6                  23807807.398
        38.500
  -5258825.97348 -12288227.85545  21189592.2584                   21189584.3714
        49.7504         35.0004
  -5540672.34046  -5742970.71943  22508145.0704                   22508141.4654
        41.7504         21.0004
    970777.75847  -9802449.08644  21169836.6724                   21169829.9964
        47.5004         28.2504
   1165536.37547   1022306.60944  22604325.5084                   22604322.1484
        45.5004         25.0004
 19  3  6  0 18 55.0000000  0  8G11G13G17G18G19G01G28G24
   1713287.11746  -6622670.57442  23223089.5084                   23223084.8484
        38.0004         14.7504
   2490841.16447  -5966346.15644  23051309.9454                   23051305.3954
        47.2504         26.0004
 -10079237.72348 -19661147.04746  20530169.5864                   20530163.8164
        52.0004         37.5004
   1535232.53546  -3318866.06653  23808075.0084                   23808071.3284
        37.7504         19.5004
  -5283963.12948 -12307815.25045  21184807.8524                   21184800.9494
        49.2504         35.0004
  -5547769.53946  -5748501.00444  22506792.9694                   22506791.2894
        41.0004         24.2504
    967178.43847  -9805253.76644  21169151.1414                   21169144.9024
        47.7504         29.7504
   1139853.57047   1002294.03144  22599437.5864                   22599434.6564
        44.0004         24.5004
 19  3  6  0 19  0.0000000  0  8G11G13G17G18G19G01G28G24
                                  23223453.9144                   23223451.2194
        37.5004         14.7504
   2494843.77547  -5963227.26444  23052070.2344                   23052066.1134
        44.2504         24.0004
 -10093673.91848 -19672396.03946  20527420.4384                   20527414.9024
        51.5004         36.5004
   1536658.88046  -3317754.69942  23808344.1644                   23808342.8364
        38.5004         17.2504
  -5309088.46547 -12327393.43445  21180024.9694                   21180018.6484
        47.7504         33.0004
                                  22505444.3674                   22505444.6804
        42.5004         22.7504
    963586.01647  -9808053.04944  21168465.5474                   21168460.4184
        47.5004         28.5004
   1114181.46047    982289.86543  22594550.8134                   22594548.4224
        42.0004         23.2504
 19  3  6  0 19  5.0000000  0  8G11G13G17G18G19G01G28G24
   1717145.27046  -6619664.28542  23223826.6484                   23223819.3484
        40.0004         13.7504
   2498849.96157  -5960105.60954  23052836.5554                   23052830.0744
        45.0004         24.0004
 -10108100.12548 -19683637.31646  20524678.9454                   20524673.0984
        51.5004         36.2504
   1538096.66046  -3316634.36142  23808623.1644                   23808617.0434
        39.7504         16.2504
  -5334205.58248 -12346965.27745  21175249.1804                   21175240.7974
        48.2504         32.5004
  -5561911.94947  -5759521.10543  22504106.1254                   22504100.8754
        42.5004         22.0004
    959996.78947  -9810849.91044  21167787.3594                   21167779.1214
        47.5004         28.2504
   1088517.51157    962292.10553  22589671.7734                   22589666.4224
        45.7504         22.5004
 19  3  6  0 19 10.0000000  0  8G11G13G17G18G19G01G28G24
   1719085.17246  -6618152.63742  23224192.1564                   23224188.4494
        38.2504         13.7504
   2502857.28147  -5956983.03144  23053596.5004                   23053592.6684
        45.7504         25.2504
 -10122519.01248 -19694872.77746  20521933.2664                   20521928.1724
        51.0004         37.0004
   1539540.84446  -3315509.01242  23808894.2584                   23808892.1914
        38.0004         15.5004
  -5359316.94148 -12366532.54745  21170468.5474                   21170462.1174
        48.2504         34.2504
  -5568963.48846  -5765015.81243  22502760.0784                   22502758.7584
        41.2504         21.2504
    956408.64847  -9813645.85244  21167101.9614                   21167096.5944
        46.0004         28.5004
   1062852.40147    942293.30544  22584784.1094                   22584782.5554
        43.7504         24.7504
 19  3  6  0 19 15.0000000  0  8G11G13G17G18G19G01G28G24
   1721029.55156  -6616637.50852  23224560.0554                   23224558.8594
        36.7504         14.7504
   2506867.69546  -5953857.98043  23054357.8984                   23054356.0274
        39.5004         22.2504
 -10136930.48048 -19706102.46945  20519188.1884                   20519186.2504
        49.5004         35.0004
   1540991.03116                  23809168.586
        38.750
  -5384421.76247 -12386094.71145  21165688.6804                   21165685.3364
        45.7504         30.7504
  -5576004.94547  -5770502.61343  22501418.2424                   22501419.0124
        42.5004         21.5004
    952819.82447  -9816442.28944  21166416.5164                   21166413.6524
        45.0004         26.7504
   1037191.90247    922298.17643  22579898.5004                   22579899.2774
        42.5004         22.7504
 19  3  6  0 19 20.0000000  0  8G11G13G17G18G19G01G28G24
   1722984.13346  -6615114.48042  23224933.0944                   23224931.0164
        38.0004         13.7504
   2510883.28147  -5950728.97343  23055123.1254                   23055120.1954
        44.2504         22.0004
 -10151330.89148 -19717323.55945  20516449.5394                   20516446.0594
        51.0004         35.0004
   1542452.809 6                  23809448.281
        38.750
  -5409517.12148 -12405649.51245  21160914.3204                   21160909.5554
        48.2504         32.0004
  -5583030.60246  -5775977.11743  22500082.2034                   22500081.9064
        40.0004         21.0004
    949235.32447  -9819235.39844  21165735.6254                   21165731.6484
        45.7504         27.2504
   1011538.72747    902308.70343  22575018.8524                   22575017.3324
        44.2504         22.7504
 19  3  6  0 19 25.0000000  0  8G11G13G17G18G19G01G28G24
   1724945.71946  -6613586.03942  23225307.0004                   23225304.5394
        37.0004         14.7504
   2514903.93847  -5947596.03543  23055887.9144                   23055885.1484
        44.5004         22.7504
 -10165722.24648 -19728537.62946  20513711.2344                   20513706.9104
        51.0004         36.5004
   1543922.766 6                  23809727.891
        37.500
  -5434603.89548 -12425197.69145  21156140.6954                   21156135.3594
        48.0004         33.5004
  -5590043.45746  -5781441.77043  22498748.2734                   22498747.0984
        41.0004         22.0004
    945652.55947  -9822027.20744  21165053.9694                   21165049.1374
        46.0004         27.2504
    985890.18046    882322.78943  22570137.4844                   22570136.8714
        41.2504         22.2504
 19  3  6  0 19 30.0000000  0  8G11G13G17G18G19G01G28G24
   1726909.27746  -6612055.96142  23225682.1334                   23225678.3594
        36.5004         14.7504
   2518922.14647  -5944464.95843  23056653.7734                   23056649.0434
        46.0004         23.7504
 -10180109.98048 -19739748.86746  20510974.0554                   20510968.5594
        51.0004         37.2504
   1545396.141 6                  23810009.555
        38.250
  -5459688.77748 -12444744.35545  21151368.1094                   21151361.0554
        48.2504         34.2504
  -5597048.78946  -5786900.46143  22497416.4534                   22497414.7384
        40.2504         22.0004
    942066.18447  -9824821.78944  21164373.0004                   21164367.1094
        46.5004         27.7504
    960242.27647    862337.39143  22565258.2974                   22565255.7504
        44.0004         23.0004
 19  3  6  0 19 35.0000000  0  8G11G13G17G18G19G01G28G24
   1728879.48846  -6610520.73042  23226056.8594                   23226053.4494
        36.0004         13.7504
   2522941.89847  -5941332.70744  23057417.6884                   23057413.5434
        44.7504         26.7504
 -10194490.14848 -19750954.19546  20508237.0314                   20508232.2854
        51.0004         37.5004
   1546877.535 6                  23810291.039
        37.750
  -5484767.77747 -12464286.43445  21146595.4304                   21146588.9344
        47.7504         34.5004
  -5604041.85946  -5792349.57843  22496085.1564                   22496084.1024
        40.2504         22.5004
    938480.60247  -9827615.76244  21163689.8914                   21163685.0744
        46.5004         28.2504
    934598.22447    842355.01843  22560377.7734                   22560375.6844
        42.2504         22.5004
 19  3  6  0 19 40.0000000  0  8G11G13G17G18G19G01G28G24
   1730863.21146  -6608975.01242  23226433.5944                   23226430.9184
        36.5004         14.7504
   2526970.03547  -5938193.92643  23058185.3284                   23058180.9064
        45.2504         22.5004
 -10208855.20748 -19762147.75846  20505504.0004                   20505499.5044
        51.0004         36.7504
   1548372.777 6                  23810575.664
        38.000
  -5509833.04348 -12483817.82445  21141826.3204                   21141819.8244
        48.2504         34.0004
  -5611015.10546  -5797783.36343  22494758.5314                   22494756.9224
        40.7504         21.7504
    934903.93447  -9830402.79344  21163009.3984                   21163003.6994
        46.0004         28.0004
    908960.98447    822377.89144  22555499.4144                   22555497.5124
        44.0004         27.0004
 19  3  6  0 19 45.0000000  0  8G11G13G17G18G19G01G28G24
   1732855.68846  -6607422.39842  23226813.1804                   23226810.4304
        36.5004         14.7504
   2531005.40247  -5935049.46144  23058953.1804                   23058948.5394
        45.0004         26.0004
 -10223209.12548 -19773332.62146  20502772.4694                   20502767.1914
        51.5004         37.7504
   1549878.453 6                  23810862.359
        37.500
  -5534887.72748 -12503340.93745  21137058.4694                   21137051.8914
        48.0004         34.5004
  -5617973.96546  -5803205.81243  22493434.0084                   22493432.1454
        41.5004         21.2504
    931330.55947  -9833187.21944  21162329.5554                   21162323.8794
        46.7504         27.7504
    883332.56347    802407.74244  22550622.7034                   22550620.4614
        42.5004         24.5004
 19  3  6  0 19 50.0000000  0  8G11G13G17G18G19G01G28G24
   1734861.13346  -6605859.79742  23227195.4694                   23227192.3914
        39.2504         14.7504
   2535049.86347  -5931897.94944  23059722.2424                   23059718.2464
        43.2504         25.2504
 -10237548.22348 -19784505.94146  20500043.4844                   20500038.5634
        51.2504         37.0004
   1551398.051 6                  23811151.336
        40.250
  -5559928.79347 -12522853.44145  21132293.1484                   21132287.2154
        46.7504         33.2504
  -5624914.05147  -5808613.66443  22492113.2194                   22492111.4884
        43.7504         22.2504
    927765.02747  -9835965.57044  21161651.0944                   21161645.1024
        47.5004         28.5004
    857713.90247    782445.13744  22545748.1254                   22545745.7814
        43.0004         24.7504
 19  3  6  0 19 55.0000000  0  8G11G13G17G18G19G01G28G24
   1736881.12556  -6604285.71952  23227580.8914                   23227577.2154
        38.0004         14.7504
   2539100.53147  -5928741.55943  23060495.6804                   23060488.9344
        45.5004         23.5004
 -10251873.84048 -19795668.76246  20497320.4144                   20497313.0274
        51.7504         36.7504
   1552933.61316                  23811444.594
        39.000
  -5584958.76648 -12542357.31645  21127532.3674                   21127523.4104
        49.0004         34.2504
  -5631834.17646  -5814005.91443  22490798.1334                   22490794.9384
        41.2504         21.7504
    924207.30147  -9838737.80144  21160976.8204                   21160969.0204
        47.0004         26.7504
    832104.94947    762490.12543  22540876.5164                   22540872.4344
        43.0004         22.5004
 19  3  6  0 20  0.0000000  0  8G11G13G17G18G19G01G28G24
   1738907.93046  -6602706.42642  23227965.7504                   23227962.6374
        36.5004         15.5004
   2543158.51247  -5925579.53943  23061266.6484                   23061261.5274
        43.2504         22.2504
 -10266188.84448 -19806823.33646  20494594.7974                   20494589.5084
        50.5004         36.7504
   1554477.570 6                  23811737.102
        37.500
  -5609978.28947 -12561853.07445  21122770.1884                   21122762.9574
        47.0004         33.5004
  -5638741.76846  -5819388.53643  22489482.9614                   22489480.6214
        41.0004         21.7504
    920651.53547  -9841508.55944  21160298.5784                   21160291.8204
        45.5004         27.2504
    806504.94247    742542.03843  22536004.1024                   22536000.9494
        42.5004         22.7504
 19  3  6  0 20  5.0000000  0  8G11G13G17G18G19G01G28G24
   1740945.28946  -6601118.93742  23228352.3754                   23228350.3134
        36.2504         13.7504
   2547225.92647  -5922410.10944  23062040.0554                   23062035.7194
        45.0004         24.5004
 -10280490.63348 -19817967.56246  20491872.7034                   20491868.2624
        50.7504         36.0004
   1556033.855 6                  23812033.938
        37.250
  -5634985.10548 -12581338.87945  21118011.3284                   21118004.4774
        48.0004         32.2504
  -5645633.14846  -5824758.38743  22488170.5554                   22488169.3674
        39.2504         21.5004
    917100.95747  -9844275.23044  21159622.2584                   21159616.5634
        46.0004         25.0004
    780916.05147    722602.66743  22531133.4304                   22531131.6484
        43.0004         22.7504
 19  3  6  0 20 10.0000000  0  8G11G13G17G18G19G01G28G24
   1743000.809 5                  23228745.234
        34.250
   2551297.89848  -5919237.16044  23062816.5634                   23062810.4534
        48.5004         27.0004
 -10294777.40648 -19829100.11345  20489156.2734                   20489148.8404
        50.7504         34.5004
   1557609.547 5                  23812336.977
        32.500
  -5659980.98048 -12600816.17645  21113255.3524                   21113247.7974
        49.5004         33.5004
  -5652500.98846  -5830110.03543  22486866.2114                   22486863.2234
        37.5004         19.0004
    913560.99247  -9847033.63343  21158949.5164                   21158942.2194
        44.2504         22.0004
    755338.28547    702671.90643  22526269.0164                   22526264.5864
        44.0004         22.5004
 19  3  6  0 20 15.0000000  0  8G11G13G17G18G19G01G28G24
   1745062.78916                  23229135.727
        37.500
   2555380.67247  -5916055.75843  23063591.4304                   23063588.7814
        46.2504         22.5004
 -10309051.82448 -19840223.03146  20486437.5314                   20486434.1414
        51.7504         36.5004
   1559192.816 6                  23812634.039
        39.500
  -5684963.29348 -12620282.89145  21108500.4064                   21108495.4304
        48.7504         33.0004
  -5659356.238 7                  22485558.563
        42.500
    910024.03947  -9849789.69144  21158275.2814                   21158270.5044
        47.0004         27.5004
    729768.44447    682747.40444  22521400.1954                   22521399.2624
        44.2504         25.2504
 19  3  6  0 20 20.0000000  0  8G11G13G17G18G19G01G28G24
   1747133.836 6                  23229530.539
        37.000
   2559470.72347  -5912868.67944  23064370.2114                   23064368.5784
        46.7504         25.0004
 -10323314.15948 -19851336.50346  20483723.0394                   20483721.3364
        52.2504         37.0004
   1560786.782 6                  23812937.625
        39.000
  -5709934.37948 -12639740.86345  21103748.3984                   21103745.0744
        48.7504         33.5004
  -5666196.55747  -5834801.80253  22484257.9064                   22484257.6524
        43.0004         22.7504
    906491.24948  -9852542.49544  21157602.6804                   21157600.5434
        48.0004         29.0004
    704208.11747    662830.29744  22516536.6334                   22516536.5084
        43.7504         25.2504
 19  3  6  0 20 25.0000000  0  8G11G13G17G18G19G01G28G24
   1749210.242 6                  23229926.180
        37.250
   2563559.44947  -5909682.69143  23065148.5004                   23065146.8364
        45.7504         22.2504
 -10337570.96948 -19862445.72346  20481010.7344                   20481008.6134
        52.5004         36.0004
   1562386.859 6                  23813243.250
        37.500
  -5734901.71148 -12659195.93045  21098997.3984                   21098993.3404
        49.2504         31.7504
  -5673025.96947  -5840123.44543  22482958.4774                   22482958.2234
        42.5004         21.5004
    902957.79348  -9855295.85544  21156931.2034                   21156927.6644
        48.0004         27.0004
    678648.43047    642913.63343  22511673.5634                   22511673.2304
        44.2504         22.0004
 19  3  6  0 20 30.0000000  0  8G11G13G17G18G19G01G28G24
   1751284.62946  -6599580.18053  23230318.7584                   23230314.4064
        37.7504         19.5004
   2567644.50047  -5906499.51244  23065924.8134                   23065923.6644
        46.2504         25.0004
 -10351826.72748 -19873554.11346  20478297.4924                   20478294.8714
        52.5004         36.5004
   1563986.238 6                  23813545.367
        38.250
  -5759868.63348 -12678650.67645  21094246.0944                   21094242.2194
        49.0004         33.2504
  -5679851.38747  -5845441.94943  22481657.9694                   22481659.7894
        43.2504         21.7504
    899417.69948  -9858054.35944  21156256.0164                   21156254.3554
        48.0004         28.7504
    653085.69347    622994.62944  22506808.2274                   22506808.9414
        44.5004         24.0004
 19  3  6  0 20 35.0000000  0  8G11G13G17G18G19G01G28G24
                                  23230714.516
        37.500
                                  23066702.484
        46.500
                                  20475584.5314                   20475583.6134
        52.0004         37.5004
                                  23813851.406
        37.500
                                  21089495.1564                   21089492.4344
        48.7504         34.5004
                                  22480361.125
        42.500
                                  21155581.6644                   21155579.5164
        47.0004         28.5004
                                  22501942.6564                   22501944.0984
        44.5004         25.2504
 19  3  6  0 20 40.0000000  0  8G11G13G17G18G19G01G28G24
   3330851.20345  -5370686.29353  23530902.0784                   23530900.4694
        35.5004         19.2504
   4151217.84047  -4676104.74255  23367269.6094                   23367267.5044
        47.7504         30.2504
  -8804913.71748 -18668167.56246  20772665.1024                   20772665.3914
        52.5004         37.5004
   3142606.047 5                  24113948.320
        35.250
  -4234377.35748 -11489955.95745  21384537.2034                   21384534.9144
        50.0004         35.7504
  -4118063.28646  -4623149.76453  22778857.0084                   22778860.0234
        41.0004         21.5004
   2467739.78347  -8635985.22744  21454698.6254                   21454696.6484
        46.0004         27.0004
   2177376.22747   1810753.25844  22796871.4224                   22796873.4224
        44.5004         26.7504
 19  3  6  0 20 45.0000000  0  8G11G13G17G18G19G01G28G24
   3332930.340 6                  23531297.086
        36.500
   4155296.49647  -4672926.55944  23368044.8444                   23368044.2544
        46.5004         24.0004
  -8819159.45348 -18679268.14145  20769953.8204                   20769953.2504
        52.5004         35.7504
   3144213.301 6                  24114253.164
        36.000
  -4259337.12948 -11509405.12145  21379786.6024                   21379784.5984
        49.2504         32.5004
  -4124866.17247  -4628450.74243  22777561.7974                   22777565.7704
        42.5004         20.0004
   2464188.96947  -8638752.10944  21454021.5784                   21454021.1054
        47.0004         25.7504
   2151808.64147   1790830.46543  22792005.6094                   22792007.9654
        43.5004         22.7504
 19  3  6  0 20 50.0000000  0  8G11G13G17G18G19G01G28G24
   3335010.461 6                  23531691.633
        39.750
   4159378.17647  -4669746.05544  23368821.0784                   23368821.0314
        45.5004         24.5004
  -8833399.08248 -18690363.96946  20767243.2664                   20767243.3244
        51.5004         36.0004
   3145823.641 6                  24114558.734
        39.250
  -4284290.82047 -11528849.56245  21375037.3674                   21375035.8554
        47.7504         33.0004
  -4131662.37147  -4633746.46143  22776267.4924                   22776272.5634
        44.0004         20.5004
   2460634.56647  -8641521.75444  21453344.3594                   21453344.2854
        47.0004         26.7504
   2126247.45347   1770912.65643  22787140.0004                   22787143.4104
        45.0004         22.7504
 19  3  6  0 20 55.0000000  0  8G11G13G17G18G19G01G28G24
   3337103.07846  -5369511.58653  23532090.0164                   23532086.8324
        39.0004         19.0004
   4163471.57847  -4666556.35943  23369599.9064                   23369600.0204
        45.0004         22.5004
  -8847622.74648 -18701447.32046  20764536.9694                   20764536.3524
        51.5004         36.2504
   3147447.113 6                  24114867.813
        36.750
  -4309228.47348 -11548281.47745  21370292.2114                   21370290.0474
        48.0004         32.5004
  -4138439.73047  -4639027.53943  22774978.9694                   22774982.6724
        44.0004         22.0004
   2457088.66447  -8644284.80144  21452670.3914                   21452669.6604
        47.0004         28.0004
   2100695.77047   1751002.26243  22782278.5554                   22782281.7584
        43.5004         23.0004
 19  3  6  0 21  0.0000000  0  8G11G13G17G18G19G01G28G24
   3339207.53945  -5367871.62942  23532491.4614                   23532487.9804
        35.5004         16.7504
   4167569.22747  -4663363.40244  23370381.1174                   23370379.5664
        46.7504         26.2504
  -8861834.53148 -18712521.42246  20761833.3984                   20761831.2584
        52.0004         37.5004
   3149083.988 5                  24115181.328
        35.250
  -4334156.64548 -11567706.00845  21365549.5864                   21365546.3794
        48.7504         34.7504
  -4145199.72347  -4644295.02343  22773693.4774                   22773695.6804
        42.5004         21.5004
   2453548.27747  -8647043.50844  21451997.8204                   21451995.5554
        46.5004         27.7504
   2075153.48847   1731099.19144  22777418.5314                   22777419.9224
        44.5004         26.0004
 19  3  6  0 21  5.0000000  0  8G11G13G17G18G19G01G28G24
   3341318.46116                  23532892.672
        39.500
   4171671.56347  -4660166.80543  23371161.7974                   23371160.5234
        45.2504         22.7504
  -8876037.47748 -18723588.54746  20759129.7974                   20759127.5394
        52.2504         36.7504
   3150727.660 6                  24115493.750
        37.750
  -4359074.637 8                  21360806.664
        48.500
  -4151948.81247  -4649554.08243  22772407.9384                   22772410.4734
        43.0004         22.0004
   2450007.96548  -8649802.21144  21451323.1094                   21451321.0354
        48.5004         27.7504
   2049617.29757   1711200.83653  22772559.3984                   22772560.0204
        43.2504         23.2504
 19  3  6  0 21 10.0000000  0  8G11G13G17G18G19G01G28G24
   3343430.82456  -5366159.59053  23533295.4454                   23533290.6764
        37.2504         19.0004
   4175769.03547  -4656973.94543  23371942.7814                   23371939.0434
        47.0004         23.0004
  -8890238.35558 -18734654.29756  20756429.5084                   20756424.5164
        52.2504         36.2504
   3152375.668 6                  24115808.508
        37.500
  -4383993.86348 -11585568.80155  21356066.4064                   21356059.7504
        49.2504         34.2504
  -4158688.90646  -4654806.08243  22771127.2114                   22771127.6914
        41.5004         20.5004
   2446464.97047  -8652562.98344  21450651.2424                   21450645.6484
        47.7504         27.0004
   2024079.87547   1691301.57443  22767701.1024                   22767699.3524
        43.7504         22.2504
 19  3  6  0 21 15.0000000  0  8G11G13G17G18G19G01G28G24
   3345540.063 6                  23533695.695
        36.500
   4179858.65647  -4653787.22344  23372720.5164                   23372716.6724
        47.0004         25.7504
  -8904440.92248 -18745721.22746  20753726.5314                   20753721.3794
        52.0004         37.0004
   3154021.594 6                  24116120.398
        37.000
  -4408916.41848 -11604988.94545  21351322.5944                   21351316.0944
        49.0004         34.2504
  -4165426.85246  -4660056.46543  22769844.3444                   22769844.4264
        41.2504         20.0004
   2442912.65247  -8655331.01644  21449974.3054                   21449969.2734
        46.5004         27.0004
   1998537.33247   1671398.28543  22762840.1804                   22762838.0784
        44.0004         23.0004
 19  3  6  0 21 20.0000000  0  8G11G13G17G18G19G01G28G24
   3347659.039 6                  23534100.000
        38.500
   4183953.80147  -4650596.21943  23373498.7424                   23373495.3914
        45.5004         22.7504
  -8918632.00048 -18756779.22345  20751025.6644                   20751020.8014
        51.2504         35.5004
   3155678.000 6                  24116434.992
        36.500
  -4433828.52348 -11624400.98445  21346582.6804                   21346575.8284
        48.5004         33.0004
  -4172149.04747  -4665294.53543  22768565.3284                   22768564.5204
        43.0004         20.5004
   2439365.07447  -8658095.39144  21449299.2424                   21449293.4184
        46.0004         26.0004
   1973001.00447   1651499.84443  22757979.3204                   22757978.0474
        44.2504         22.5004
 19  3  6  0 21 25.0000000  0  8G11G13G17G18G19G01G28G24
   3349790.816 6                  23534506.734
        38.000
   4188055.95747  -4647399.75044  23374282.8594                   23374276.2624
        46.0004         24.5004
  -8932809.23448 -18767826.39846  20748331.8284                   20748325.0314
        52.2504         36.7504
   3157348.523 6                  24116755.617
        38.250
  -4458728.48448 -11643803.53145  21341846.9774                   21341838.1644
        48.7504         33.2504
  -4178852.44147  -4670517.93443  22767291.6884                   22767289.0704
        42.2504         20.5004
   2435824.88347  -8660853.94944  21448628.9064                   21448620.0784
        47.5004         27.7504
   1947474.03147   1631608.69143  22753124.7194                   22753120.4614
        44.5004         22.2504
 19  3  6  0 21 30.0000000  0  8G11G13G17G18G19G01G28G24
   3351929.801 6                  23534912.781
        37.000
   4192167.81347  -4644195.68744  23375063.4844                   23375057.9734
        46.7504         26.7504
  -8946974.12948 -18778863.97346  20745633.8674                   20745628.4304
        52.2504         38.2504
   3159027.688 6                  24117073.367
        37.250
  -4483615.41048 -11663195.91845  21337109.1334                   21337102.3674
        49.2504         35.2504
  -4185542.51647  -4675730.99643  22766017.2894                   22766015.6524
        42.7504         20.7504
   2432287.98047  -8663609.98044  21447953.3054                   21447947.1804
        47.5004         28.5004
   1921956.41047   1611724.84443  22748268.0164                   22748264.5904
        44.0004         22.5004
 19  3  6  0 21 35.0000000  0  8G11G13G17G18G19G01G28G24
   3354083.723 6                  23535322.195
        36.000
   4196286.91447  -4640985.97343  23375846.0164                   23375842.7234
        45.0004         22.7504
  -8961124.08248 -18789889.88746  20742939.4774                   20742935.7304
        52.0004         36.2504
   3160722.484 5                  24117394.859
        35.750
  -4508489.34448 -11682578.19145  21332375.4534                   21332369.5904
        49.2504         34.0004
  -4192211.59447  -4680927.65643  22764746.8754                   22764746.7384
        42.7504         21.5004
   2428760.50847  -8666358.64844  21447280.9924                   21447276.3284
        47.2504         28.7504
   1896446.93847   1591847.37943  22743412.2584                   22743410.8014
        42.7504         22.0004
 19  3  6  0 21 40.0000000  0  8G11G13G17G18G19G01G28G24
   3356252.793 6                  23535735.633
        36.750
   4200416.33247  -4637768.30944  23376631.3444                   23376627.9494
        45.5004         26.7504
  -8975257.44948 -18800902.95746  20740248.8834                   20740245.4844
        51.7504         38.7504
   3162433.953 5                  24117720.938
        34.500
  -4533348.12948 -11701948.72745  21327643.3524                   21327638.8634
        48.2504         35.5004
  -4198859.97547  -4686108.25443  22763482.0784                   22763481.6684
        43.5004         22.0004
   2425242.26747  -8669100.18044  21446611.1174                   21446606.5664
        47.7504         28.5004
   1870952.51647   1571981.52743  22738560.7734                   22738559.6024
        42.2504         22.7504
 19  3  6  0 21 45.0000000  0  8G11G13G17G18G19G01G28G24
   3358432.410 6                  23536149.258
        39.750
   4204557.19547  -4634541.64844  23377418.0864                   23377416.1134
        44.0004         26.7504
  -8989375.61348 -18811904.11746  20737562.6564                   20737559.2664
        51.2504         38.5004
   3164157.191 6                  24118048.758
        37.250
  -4558191.50047 -11721307.17245  21322915.6024                   21322911.2154
        47.2504         35.0004
  -4205491.45347  -4691275.61743  22762218.9454                   22762219.2544
        44.5004         22.0004
   2421730.94147  -8671836.28544  21445942.3834                   21445938.9734
        47.2504         29.7504
   1845468.80547   1552124.08644  22733710.4694                   22733709.8014
        43.0004         24.5004
 19  3  6  0 21 50.0000000  0  8G11G13G17G18G19G01G28G24
   3360625.25446  -5364058.28952  23536567.0474                   23536562.6844
        38.7504         17.7504
   4208702.02747  -4631311.90243  23378208.6024                   23378205.2774
        44.0004         22.0004
  -9003480.64548 -18822895.01246  20734879.5864                   20734875.7544
        51.5004         36.5004
   3165893.945 6                  24118379.273
        41.000
  -4583024.10548 -11740657.21545  21318191.2814                   21318185.8794
        48.0004         32.2504
  -4212103.36747  -4696427.71144  22760962.2504                   22760961.5274
        45.0004         25.5004
   2418227.72348  -8674566.02744  21445276.7734                   21445272.2304
        48.0004         29.7504
   1819989.78947   1532270.35244  22728862.4534                   22728861.2544
        44.7504         26.0004
 19  3  6  0 21 55.0000000  0  8G11G13G17G18G19G01G28G24
   3362822.75046  -5362345.94942  23536985.3364                   23536981.3284
        37.0004         16.7504
   4212848.91547  -4628080.55544  23378998.6644                   23378994.6804
        45.7504         24.7504
  -9017579.92048 -18833881.48946  20732197.1414                   20732193.1484
        52.5004         37.5004
   3167637.852 6                  24118711.578
        37.250
  -4607851.52848 -11760003.28645  21313468.0394                   21313461.9694
        49.5004         35.0004
  -4218705.50647  -4701572.27543  22759705.3754                   22759704.7544
        42.0004         22.0004
   2414722.30948  -8677297.52544  21444610.1724                   21444605.6294
        48.2504         29.5004
   1794518.86147   1512422.87444  22724016.6564                   22724014.6994
        43.5004         24.7504
 19  3  6  0 22  0.0000000  0  8G11G13G17G18G19G01G28G24
   3365038.00046  -5360619.76242  23537406.0084                   23537403.7624
        36.7504         15.5004
   4217005.73847  -4624841.51644  23379788.6644                   23379785.8164
        45.0004         25.7504
  -9031661.02348 -18844853.76646  20729516.5004                   20729512.4384
        51.2504         36.5004
   3169400.125 6                  24119046.359
        37.000
  -4632662.87548 -11779336.79345  21308745.5004                   21308739.6604
        48.7504         33.7504
  -4225283.90246  -4706698.28143  22758453.3284                   22758453.1564
        39.5004         21.0004
   2411229.28547  -8680019.35944  21443944.6414                   21443940.3874
        46.2504         27.2504
   1769059.91447   1492584.74243  22719171.5164                   22719170.4264
        42.5004         22.2504
 19  3  6  0 22  5.0000000  0  8G11G13G17G18G19G01G28G24
   3367261.91045  -5358887.13342  23537831.1954                   23537827.3204
        33.5004         15.5004
   4221165.09047  -4621600.47744  23380579.5944                   23380577.4614
        46.2504         25.7504
  -9045733.23048 -18855819.14546  20726839.5164                   20726835.8134
        52.0004         36.7504
   3171172.918 5                  24119383.602
        34.000
  -4657466.91848 -11798664.64845  21304025.5004                   21304020.6644
        49.0004         34.2504
  -4231848.05946  -4711813.28143  22757205.1254                   22757204.0634
        41.0004         20.5004
   2407738.49247  -8682739.49244  21443281.4454                   21443276.1804
        47.0004         26.7504
   1743608.19147   1472752.19143  22714329.0164                   22714327.3404
        43.0004         22.0004
 19  3  6  0 22 10.0000000  0  8G11G13G17G18G19G01G28G24
   3369492.44146  -5357148.82442  23538255.9534                   23538251.9844
        38.0004         14.7504
   4225328.80147  -4618356.00844  23381373.4924                   23381370.1524
        47.2504         25.5004
  -9059795.67248 -18866776.88745  20724163.4774                   20724159.3324
        52.7504         35.0004
   3172953.035 6                  24119722.984
        36.750
  -4682261.67248 -11817985.20745  21299307.7974                   21299301.4964
        49.5004         33.0004
  -4238399.22747  -4716918.03543  22755958.3914                   22755958.5664
        44.0004         19.7504
   2404250.30948  -8685457.53144  21442617.6024                   21442613.8134
        48.5004         26.5004
   1718160.09047   1452922.52743  22709485.5004                   22709485.2384
        44.0004         22.0004
 19  3  6  0 22 15.0000000  0  8G11G13G17G18G19G01G28G24
   3371730.586 5                  23538680.094
        35.250
   4229494.34447  -4615110.14844  23382165.8524                   23382163.3794
        47.5004         25.7504
  -9073849.16048 -18877727.66046  20721489.0554                   20721486.1254
        52.5004         36.0004
   3174741.535 6                  24120063.836
        36.000
  -4707048.93048 -11837299.98045  21294590.4924                   21294586.0314
        49.7504         34.0004
  -4244936.57447  -4722012.09443  22754714.2664                   22754714.7274
        42.0004         20.2504
   2400764.85247  -8688173.48044  21441954.1094                   21441950.9494
        47.5004         26.5004
   1692714.94547   1433095.14543  22704644.1564                   22704643.6254
        44.2504         22.5004
 19  3  6  0 22 20.0000000  0  8G11G13G17G18G19G01G28G24
   3373970.969 6                  23539107.234
        38.250
   4233659.56647  -4611864.53544  23382957.9614                   23382956.1094
        46.5004         24.5004
  -9087897.86748 -18888674.69945  20718815.9304                   20718813.0784
        52.7504         35.5004
   3176533.219 5                  24120404.742
        35.250
  -4731831.80548 -11856611.28945  21289874.8754                   21289870.2464
        49.2504         33.5004
  -4251465.68447  -4727099.71143  22753472.2894                   22753471.7504
        44.5004         20.0004
   2397276.84048  -8690891.42244  21441290.2504                   21441286.5434
        48.0004         26.0004
   1667270.06647   1413267.94943  22699802.1884                   22699801.8554
        44.2504         22.2504
 19  3  6  0 22 25.0000000  0  8G11G13G17G18G19G01G28G24
   3376215.286 6                  23539533.281
        38.250
   4237829.44147  -4608615.29344  23383749.5474                   23383749.5514
        44.5004         26.7504
  -9101937.45748 -18899614.64846  20716142.1254                   20716141.5084
        50.7504         36.0004
   3178329.844 5                  24120746.297
        34.250
  -4756605.46548 -11875915.44545  21285158.3364                   21285155.8594
        48.0004         33.7504
  -4257984.41047  -4732179.21543  22752229.9774                   22752231.8204
        42.5004         21.2504
   2393789.48447  -8693608.85544  21440625.5474                   21440623.8484
        45.7504         26.5004
   1641829.69947   1393444.28544  22694958.2194                   22694960.7624
        42.5004         24.0004
 19  3  6  0 22 30.0000000  0  8G11G13G17G18G19G01G28G24
   3378465.914 6                  23539962.133
        39.000
   4242003.71947  -4605362.58644  23384544.8204                   23384544.2664
        46.5004         27.2504
  -9115968.21548 -18910547.69946  20713472.6484                   20713471.9224
        51.5004         37.0004
   3180134.672 5                  24121088.641
        34.500
  -4781370.72748 -11895213.02745  21280446.6414                   21280443.6414
        48.7504         35.5004
  -4264491.18047  -4737249.41443  22750992.7894                   22750993.3364
        42.5004         21.0004
   2390302.85247  -8696325.69944  21439962.6804                   21439959.8284
        46.5004         27.0004
   1616397.73047   1373627.19143  22690119.7504                   22690121.3794
        44.0004         23.2504
 19  3  6  0 22 35.0000000  0  8G11G13G17G18G19G01G28G24
   3380715.883 6                  23540389.617
        36.250
   4246178.46148  -4602109.56644  23385339.3914                   23385339.0234
        48.0004         29.0004
  -9129995.10948 -18921477.75846  20710804.2034                   20710803.0004
        52.2504         38.0004
   3181940.258 5                  24121432.906
        34.000
  -4806131.74248 -11914507.33245  21275735.1644                   21275732.0274
        49.5004         35.5004
  -4270992.47847  -4742315.38743  22749755.1414                   22749756.0004
        43.0004         21.5004
   2386811.47547  -8699046.24244  21439297.7034                   21439296.0664
        46.2504         27.5004
   1590967.06647   1353811.08643  22685280.1954                   22685281.6604
        43.0004         22.7504
 19  3  6  0 22 40.0000000  0  8G11G13G17G18G19G01G28G24
   3382978.305 6                  23540820.742
        37.750
   4250352.48447  -4598857.03944  23386134.3984                   23386133.3244
        46.5004         26.0004
  -9144012.65648 -18932400.48046  20708136.7344                   20708134.9804
        52.0004         36.7504
   3183759.719 6                  24121778.273
        37.000
  -4830886.73848 -11933796.91445  21271025.0554                   21271021.6214
        49.0004         34.5004
  -4277475.94547  -4747367.39143  22748521.8834                   22748522.5354
        42.2504         22.0004
   2383324.84847  -8701763.06644  21438634.0234                   21438632.3134
        47.0004         28.2504
   1565542.62147   1333999.84444  22680443.3134                   22680444.2774
        44.0004         25.5004
 19  3  6  0 22 45.0000000  0  8G11G13G17G18G19G01G28G24
   3385244.578 6                  23541251.852
        38.000
   4254529.94147  -4595601.92644  23386929.1724                   23386929.7974
        46.2504         26.0004
  -9158022.98448 -18943317.66046  20705471.1174                   20705470.4144
        51.5004         38.0004
   3185584.379 5                  24122125.930
        34.250
  -4855634.30948 -11953080.75445  21266314.8984                   21266313.5824
        48.5004         35.7504
  -4283949.55947  -4752411.82043  22747289.6564                   22747291.6724
        42.0004         21.7504
   2379837.44147  -8704480.56644  21437970.5704                   21437969.5084
        45.5004         28.5004
   1540122.49247   1314191.94943  22675605.6954                   22675607.8914
        43.7504         22.7504
 19  3  6  0 22 50.0000000  0  8G11G13G17G18G19G01G28G24
   3387514.273 6                  23541682.766
        39.000
   4258708.41447  -4592345.94544  23387724.5634                   23387724.8484
        47.2504         28.5004
  -9172027.10548 -18954229.93046  20702805.5234                   20702805.0984
        52.0004         38.0004
   3187413.668 5                  24122475.250
        35.500
  -4880376.13748 -11972360.07446  21261606.6174                   21261604.8834
        48.5004         36.0004
  -4290413.55547  -4757448.62543  22746058.8364                   22746061.5784
        42.7504         22.2504
   2376348.78147  -8707198.98044  21437306.3594                   21437305.6054
        46.0004         28.7504
   1514704.70347   1294385.90644  22670768.4144                   22670770.5824
        44.0004         26.7504
 19  3  6  0 22 55.0000000  0  8G11G13G17G18G19G01G28G24
   3389791.191 6                  23542117.445
        37.750
   4262886.32047  -4589090.41444  23388520.4144                   23388519.4384
        47.5004         27.0004
  -9186024.05948 -18965136.64846  20700141.7274                   20700141.6054
        52.0004         38.0004
   3189251.289 5                  24122824.352
        34.750
  -4905112.64848 -11991635.28545  21256899.3984                   21256897.8914
        49.0004         35.2504
  -4296864.52346  -4762475.39543  22744831.8284                   22744834.6024
        41.7504         22.5004
   2372861.45347  -8709916.38744  21436643.3134                   21436642.7624
        45.5004         27.0004
   1489289.98047   1274582.20744  22665932.5164                   22665934.5004
        43.7504         26.7504
 19  3  6  0 23  0.0000000  0  8G11G13G17G18G19G01G28G24
   3392066.574 6                  23542549.734
        38.000
   4267063.46947  -4585835.53944  23389313.6564                   23389313.8204
        45.5004         27.5004
  -9200018.69948 -18976041.56646  20697478.4534                   20697477.7074
        51.7504         38.2504
   3191089.063 6                  24123172.969
        36.000
  -4929846.35248 -12010908.29345  21252191.9224                   21252190.1724
        48.2504         35.7504
  -4303311.14147  -4767498.70343  22743604.7424                   22743607.6564
        42.2504         22.7504
   2369367.78947  -8712638.72744  21435977.0944                   21435976.6914
        46.5004         28.0004
   1463876.29747   1254779.34444  22661095.8984                   22661097.8524
        43.2504         25.0004
 19  3  6  0 23  5.0000000  0  8G11G13G17G18G19G01G28G24
   3394348.902 6                  23542984.125
        38.000
   4271244.37947  -4582577.68744  23390108.8594                   23390109.5704
        46.5004         26.5004
  -9214004.35248 -18986939.48446  20694817.3054                   20694817.2154
        51.2504         36.5004
   3192935.961 5                  24123525.680
        34.500
  -4954571.95348 -12030175.01245  21247486.8524                   21247485.3594
        48.5004         34.5004
  -4309745.20746  -4772512.30943  22742380.4144                   22742383.4924
        41.7504         21.7504
   2365875.21947  -8715360.22344  21435313.5864                   21435312.5164
        45.7504         27.0004
   1438471.83247   1234983.65644  22656261.1644                   22656264.2384
        43.7504         25.2504
 19  3  6  0 23 10.0000000  0  8G11G13G17G18G19G01G28G24
   3396650.002 6                  23543422.211
        38.500
   4275435.88847  -4579311.53444  23390906.6884                   23390907.9734
        46.0004         25.7504
  -9227971.41648 -18997822.88446  20692159.6564                   20692159.8554
        52.0004         36.5004
   3194802.523 6                  24123880.180
        37.000
  -4979280.80648 -12049428.61945  21242785.2274                   21242784.0784
        48.7504         35.0004
  -4316154.49247  -4777506.52343  22741161.7274                   22741163.9344
        43.0004         22.5004
   2362395.63347  -8718071.55944  21434651.4774                   21434651.1914
        46.2504         26.5004
   1413080.78847   1215198.45144  22651430.0864                   22651432.9774
        44.5004         26.7504
 19  3  6  0 23 15.0000000  0  8G11G13G17G18G19G01G28G24
   3398964.820 6                  23543861.633
        37.250
   4279635.42047  -4576039.19844  23391705.5314                   23391706.5004
        46.2504         25.7504
  -9241923.37448 -19008694.54245  20689503.3984                   20689503.2154
        52.0004         34.0004
   3196683.891 5                  24124237.703
        33.500
  -5003975.94448 -12068671.59845  21238084.7814                   21238083.4384
        49.0004         32.5004
  -4322544.11447  -4782485.46943  22739944.1954                   22739947.3834
        42.0004         21.2504
   2358924.53047  -8720776.33244  21433989.6724                   21433990.0314
        47.0004         24.0004
   1387701.08647   1195422.07443  22646599.6094                   22646602.8834
        43.0004         22.7504
 19  3  6  0 23 20.0000000  0  8G11G13G17G18G19G01G28G24
   3401287.254 6                  23544303.547
        38.500
   4283842.80947  -4572760.73443  23392506.5164                   23392507.0634
        43.2504         22.2504
  -9255862.74648 -19019556.39145  20686851.1954                   20686850.5164
        50.7504         34.5004
   3198573.785 6                  24124597.242
        38.000
  -5028658.30147 -12087904.59445  21233388.3674                   21233386.2074
        47.5004         30.5004
  -4328919.44547  -4787453.26243  22738730.5864                   22738734.5474
        42.7504         22.0004
   2355457.95747  -8723477.56244  21433330.4614                   21433330.2774
        46.0004         28.2504
   1362328.64847   1175651.30944  22641771.1564                   22641773.7384
        43.7504         24.7504
 19  3  6  0 23 25.0000000  0  8G11G13G17G18G19G01G28G24
   3403620.699 6                  23544747.469
        36.750
   4288051.39147  -4569481.32444  23393307.2504                   23393307.0124
        44.7504         24.5004
  -9269792.30148 -19030410.59846  20684201.1484                   20684198.3674
        51.0004         36.2504
   3200476.176 5                  24124959.039
        35.500
  -5053333.35247 -12107131.91045  21228693.5944                   21228689.5514
        47.7504         33.5004
  -4335278.22346  -4792408.12543  22737521.2584                   22737524.3634
        40.5004         22.0004
   2351995.44947  -8726175.59844  21432672.3054                   21432669.4654
        45.7504         25.7504
   1336964.14847   1155886.78543  22636945.2584                   22636946.1884
        43.0004         22.7504
 19  3  6  0 23 30.0000000  0  8G11G13G17G18G19G01G28G24
   3405969.172 6                  23545196.813
        38.750
   4292265.08647  -4566197.92243  23394110.2664                   23394108.5164
        45.5004         22.0004
  -9283707.87148 -19041253.89846  20681554.6094                   20681551.9844
        53.0004         36.5004
   3202394.652 6                  24125325.859
        38.250
  -5077996.74248 -12126350.12545  21224001.7584                   21223997.2194
        49.0004         32.5004
  -4341616.08647  -4797346.73843  22736317.0234                   22736317.8094
        45.7504         21.2504
   2348541.86348  -8728866.69144  21432016.7114                   21432013.4264
        49.0004         27.7504
   1311608.52047   1136129.17243  22632122.3444                   22632121.7734
        44.5004         22.0004
 19  3  6  0 23 35.0000000  0  8G11G13G17G18G19G01G28G24
   3408329.930 6                  23545644.633
        37.000
   4296487.55947  -4562907.69943  23394912.7814                   23394912.8754
        46.7504         22.5004
  -9297607.20748 -19052084.55545  20678908.8284                   20678908.2114
        52.5004         35.7504
   3204324.938 6                  24125693.055
        36.500
  -5102644.55948 -12145556.22345  21219310.3284                   21219307.4614
        49.5004         33.0004
  -4347934.47747  -4802270.16443  22735113.9224                   22735115.9884
        44.0004         22.0004
   2345098.17647  -8731550.09844  21431360.5234                   21431358.6604
        47.7504         26.0004
   1286258.26647   1116375.71543  22627297.1484                   22627298.1884
        44.2504         22.0004
 19  3  6  0 23 40.0000000  0  8G11G13G17G18G19G01G28G24
   3410699.641 6                  23546096.031
        37.500
   4300710.47747  -4559617.12943  23395716.1724                   23395715.8134
        45.7504         23.7504
  -9311497.77748 -19062908.39145  20676264.8364                   20676264.5474
        52.2504         35.2504
   3206264.879 6                  24126060.875
        36.500
  -5127285.37548 -12164756.87145  21214621.2114                   21214618.9654
        49.0004         33.0004
  -4354237.65647  -4807181.74643  22733913.9144                   22733917.0944
        43.2504         21.5004
   2341658.13347  -8734230.67244  21430705.0864                   21430703.9454
        47.2504         26.0004
   1260909.78147   1096623.64143  22622472.7034                   22622474.9494
        44.2504         22.0004
 19  3  6  0 23 45.0000000  0  8G11G13G17G18G19G01G28G24
   3413070.273 6                  23546547.078
        37.750
   4304931.19147  -4556328.24644  23396520.0314                   23396520.3634
        46.5004         25.2504
  -9325385.10348 -19073729.65046  20673622.4614                   20673623.6684
        52.2504         36.7504
   3208206.941 5                  24126430.891
        35.750
  -5151923.44448 -12183955.33945  21209932.6414                   21209931.9614
        49.0004         34.5004
  -4360533.91447  -4812087.88743  22732715.6884                   22732719.1914
        42.5004         21.5004
   2338214.15847  -8736914.25444  21430050.5944                   21430050.0234
        47.2504         28.0004
   1235561.18847   1076871.53144  22617649.5704                   22617651.5354
        44.5004         24.2504
 19  3  6  0 23 50.0000000  0  8G11G13G17G18G19G01G28G24
   3415446.52715                  23546998.602
        34.000
   4309153.82847  -4553037.94144  23397322.3594                   23397323.3914
        44.2504         24.2504
  -9339264.00848 -19084544.43745  20670980.8754                   20670980.2304
        50.5004         35.5004
   3210155.809 5                  24126800.305
        35.500
  -5176553.99247 -12203148.01645  21205244.1954                   21205243.0984
        47.0004         33.2504
  -4366818.43746  -4816984.98443  22731520.3444                   22731523.4734
        39.5004         21.2504
   2334770.98847  -8739597.30544  21429393.9454                   21429393.1724
        44.7504         24.0004
   1210218.14847   1057123.62943  22612826.6024                   22612829.3674
        42.7504         22.0004
 19  3  6  0 23 55.0000000  0  8G11G13G17G18G19G01G28G24
   3417827.719 6                  23547451.469
        38.500
   4313376.42647  -4549747.49243  23398126.5554                   23398126.6334
        45.2504         21.5004
  -9353136.20348 -19095353.87546  20668341.1414                   20668339.7544
        51.5004         36.5004
   3212110.109 6                  24127173.352
        36.000
  -5201178.66048 -12222336.00445  21200559.6094                   21200556.8134
        48.0004         33.7504
  -4373091.54747  -4821873.04743  22730326.0864                   22730329.3634
        43.7504         21.7504
   2331328.59847  -8742279.62944  21428739.1954                   21428737.7934
        46.5004         27.7504
   1184874.39147   1037375.32044  22608003.6254                   22608005.5984
        43.5004         25.0004
 19  3  6  0 24  0.0000000  0  8G11G13G17G18G19G01G28G24
   3420206.418 6                  23547904.805
        36.750
   4317600.13347  -4546456.34443  23398931.6024                   23398929.6644
        45.2504         23.0004
  -9367005.32948 -19106160.99446  20665701.8984                   20665699.8834
        51.7504         36.5004
   3214064.406 6                  24127545.938
        38.000
  -5225799.33648 -12241520.96145  21195874.2274                   21195870.1804
        48.5004         33.5004
  -4379361.54946  -4826758.75643  22729133.2274                   22729136.2034
        41.7504         21.5004
   2327878.80547  -8744967.78944  21428083.3834                   21428081.4144
        47.0004         28.0004
   1159537.02347   1017631.92244  22603182.5554                   22603182.8714
        43.2504         25.2504
 19  3  6  0 24  5.0000000  0  8G11G13G17G18G19G01G28G24
   3422589.008 6                  23548358.797
        39.250
   4321826.61347  -4543162.98044  23399734.7344                   23399733.0474
        44.7504         25.0004
  -9380866.82048 -19116962.15246  20663064.1174                   20663061.3984
        51.5004         37.5004
   3216024.797 6                  24127918.906
        37.000
  -5250412.67648 -12260700.16045  21191190.9454                   21191185.8054
        48.0004         34.5004
  -4385621.61347  -4831636.73843  22727941.9384                   22727943.3794
        44.0004         20.7504
   2324428.02048  -8747656.71544  21427426.8914                   21427423.9264
        48.2504         28.5004
   1134207.57447    997894.69943  22598362.5164                   22598362.5944
        43.5004         23.0004
 19  3  6  0 24 10.0000000  0  8G11G13G17G18G19G01G28G24
   3424985.293 6                  23548814.547
        36.250
   4326063.89847  -4539861.25044  23400541.7814                   23400539.7974
        47.0004         27.7504
  -9394711.45748 -19127750.21946  20660430.0084                   20660426.6884
        51.5004         37.5004
   3217999.734 5                  24128294.625
        31.750
  -5275009.73848 -12279866.72745  21186510.0164                   21186505.3754
        48.7504         35.7504
  -4391861.82646  -4836499.22743  22726754.9144                   22726756.1214
        41.5004         21.0004
   2320986.58247  -8750338.38344  21426771.5704                   21426767.8794
        46.0004         27.7504
   1108890.94947    978167.45343  22593544.2894                   22593544.5514
        43.0004         22.7504
 19  3  6  0 24 15.0000000  0  8G11G13G17G18G19G01G28G24
   3427382.883 6                  23549269.828
        39.000
   4330306.49647  -4536555.32844  23401349.1564                   23401346.6134
        45.5004         25.2504
  -9408549.43748 -19138533.04346  20657796.1484                   20657793.4804
        51.0004         37.2504
   3219977.336 5                  24128670.141
        34.750
  -5299598.34047 -12299026.66445  21181830.8594                   21181826.1644
        47.5004         34.5004
  -4398094.31647  -4841355.72743  22725568.2034                   22725569.9654
        43.5004         21.5004
   2317542.99247  -8753021.69144  21426116.1564                   21426112.6724
        46.2504         28.7504
   1083577.79747    958442.92243  22588727.2814                   22588727.4344
        42.2504         22.7504
 19  3  6  0 24 20.0000000  0  8G11G13G17G18G19G01G28G24
   3429785.98446  -5355047.94553  23549727.0004                   23549724.8404
        37.0004         18.5004
   4334557.55547  -4533242.81644  23402156.2664                   23402154.9104
        44.5004         24.5004
  -9422375.19948 -19149306.36746  20655164.7584                   20655161.4884
        50.7504         36.5004
   3221961.805 5                  24129046.555
        33.500
  -5324174.02747 -12318176.53945  21177153.3444                   21177149.2774
        47.5004         34.2504
  -4404314.98846  -4846203.00043  22724383.6724                   22724385.3794
        40.5004         21.5004
   2314101.84447  -8755703.10944  21425460.4384                   21425457.8284
        45.0004         27.2504
   1058275.38746    938726.77143  22583911.2424                   22583912.1254
        41.0004         22.5004
 19  3  6  0 24 25.0000000  0  8G11G13G17G18G19G01G28G24
   3432205.80946  -5353162.33642  23550187.0474                   23550185.4614
        37.5004         17.2504
   4338824.10546  -4529918.20443  23402969.8524                   23402966.5234
        41.5004         22.0004
  -9436180.06648 -19160063.41046  20652538.6724                   20652534.9304
        51.0004         36.0004
                                  24129428.664
        33.000
  -5348728.59048 -12337309.96545  21172482.1884                   21172478.0234
        48.0004         33.2504
  -4410512.09146  -4851031.96443  22723204.0704                   22723205.6954
        40.7504         22.5004
   2310674.59047  -8758373.69944  21424809.0944                   21424804.3364
        46.0004         27.2504
   1032985.67146    919020.51343  22579100.5864                   22579098.6644
        39.7504         22.2504
 19  3  6  0 24 30.0000000  0  8G11G13G17G18G19G01G28G24
   3434639.82846  -5351265.71942  23550649.5554                   23550648.9224
        37.5004         14.7504
   4343110.32047  -4526578.30943  23403784.2894                   23403783.1684
        43.5004         22.0004
  -9449962.93448 -19170803.32445  20649914.2114                   20649914.4064
        50.0004         35.7504
   3225979.02315                  24129811.492
        34.000
  -5373259.23047 -12356424.76245  21167812.8834                   21167810.1294
        47.5004         33.7504
  -4416687.89147  -4855844.26243  22722028.2974                   22722031.9614
        42.0004         21.5004
   2307260.28147  -8761034.19944  21424158.0704                   21424156.0164
        45.2504         26.2504
   1007710.59046    899325.62543  22574289.1644                   22574290.8914
        39.2504         22.0004
 19  3  6  0 24 35.0000000  0  8G11G13G17G18G19G01G28G24
   3437087.535 6                  23551114.914
        37.750
   4347405.32147  -4523231.54643  23404600.4224                   23404600.4844
        43.5004         22.0004
  -9463729.53148 -19181530.53545  20647294.2664                   20647294.8324
        50.0004         35.2504
   3228009.031 5                  24130197.359
        34.000
  -5397774.64847 -12375527.71145  21163146.5314                   21163144.9184
        46.7504         32.5004
  -4422843.51246  -4860640.91843  22720856.7894                   22720861.4104
        41.2504         21.2504
   2303855.74247  -8763687.10944  21423510.1564                   21423509.2774
        45.0004         27.2504
    982445.73846    879638.71543  22569480.6884                   22569483.2344
        38.7504         20.5004
 19  3  6  0 24 40.0000000  0  8G11G13G17G18G19G01G28G24
   3439543.906 6                  23551584.219
        39.000
   4351702.48847  -4519883.10943  23405420.0314                   23405419.0554
        43.0004         20.5004
  -9477486.87148 -19192250.53546  20644677.9304                   20644676.5784
        51.2504         37.5004
   3230048.223 5                  24130587.289
        35.000
  -5422281.85248 -12394624.20345  21158485.1644                   21158481.5434
        48.0004         33.0004
  -4428984.09447  -4865425.77743  22719690.2274                   22719692.2504
        43.5004         20.5004
   2300455.10947  -8766336.92244  21422864.2664                   21422862.0204
        46.5004         26.0004
    957182.85546    859953.34443  22564675.2034                   22564676.1094
        39.7504         21.5004
 19  3  6  0 24 45.0000000  0  8G11G13G17G18G19G01G28G24
   3441994.293 6                  23552049.094
        38.250
   4355999.85547  -4516534.55943  23406237.1644                   23406236.6644
        44.2504         19.7504
  -9491241.48048 -19202968.41046  20642059.7814                   20642059.4024
        50.5004         37.5004
   3232081.895 5                  24130973.383
        35.000
  -5446784.47347 -12413717.16045  21153821.4924                   21153819.1414
        47.5004         33.7504
  -4435123.68747  -4870209.85543  22718520.6174                   22718524.0704
        42.5004         21.7504
   2297047.36347  -8768992.32444  21422215.1484                   21422213.9964
        46.0004         28.0004
    931917.40246    840266.00843  22559866.9694                   22559868.6414
        41.5004         22.5004
 19  3  6  0 24 50.0000000  0  8G11G13G17G18G19G01G28G24
   3444459.754 6                  23552519.039
        38.500
   4360297.62547  -4513185.65343  23407054.7114                   23407054.5124
        43.2504         20.5004
  -9504985.21148 -19213677.84046  20639444.4924                   20639443.8484
        51.5004         38.7504
   3234131.828 5                  24131363.883
        34.500
  -5471279.42248 -12432804.14545  21149160.2274                   21149158.0204
        48.2504         34.7504
  -4441242.62647  -4874977.91143  22717356.6804                   22717359.6024
        43.0004         22.0004
   2293646.86347  -8771642.08244  21421568.6024                   21421567.2774
        46.5004         29.2504
    906658.79746    820583.94543  22555059.3594                   22555061.8364
        40.5004         21.5004
 19  3  6  0 24 55.0000000  0  8G11G13G17G18G19G01G28G24
   3446935.663 6                  23552991.008
        39.250
   4364608.59447  -4509826.43743  23407875.8594                   23407874.8874
        43.2504         20.0004
  -9518710.41048 -19224372.75846  20636833.5314                   20636831.0474
        51.0004         37.0004
   3236192.820 5                  24131755.844
        34.500
  -5495755.32047 -12451876.21145  21144503.5784                   21144499.4024
        47.5004         32.5004
  -4447343.93547  -4879732.11143  22716195.8914                   22716197.9694
        43.0004         22.5004
   2290255.93047  -8774284.33244  21420923.1724                   21420921.1804
        46.7504         27.2504
    881412.62946    800911.68843  22550256.1954                   22550257.7974
        38.2504         22.0004
 19  3  6  0 25  0.0000000  0  8G11G13G17G18G19G01G28G24
   3449427.211 6                  23553464.672
        39.500
   4368926.46647  -4506461.93743  23408698.0394                   23408696.1844
        43.0004         19.5004
  -9532421.13348 -19235056.46546  20634224.3984                   20634222.0514
        51.5004         36.7504
   3238270.320 5                  24132151.625
        35.500
  -5520218.37147 -12470938.40645  21139848.8674                   21139844.0634
        47.2504         30.0004
  -4453423.65347  -4884469.54343  22715039.8134                   22715040.9884
        42.7504         19.7504
   2286874.44947  -8776919.30144  21420280.2814                   21420277.1454
        47.2504         27.0004
    856176.17946    781246.88443  22545453.9924                   22545455.4144
        40.2504         20.0004
 19  3  6  0 25  5.0000000  0  8G11G13G17G18G19G01G28G24
   3451934.949 6                  23553941.836
        39.500
   4373250.36347  -4503092.64543  23409520.0554                   23409519.1054
        43.0004         19.0004
  -9546117.38748 -19245728.87146  20631618.0004                   20631615.5784
        51.5004         36.2504
   3240365.867 5                  24132550.570
        34.500
  -5544669.13347 -12489990.88745  21135195.2194                   21135191.0824
        47.5004         32.2504
  -4459481.69946  -4889190.15643  22713886.3204                   22713888.3834
        39.7504         18.2504
   2283501.67647  -8779547.41844  21419638.4924                   21419634.9884
        47.0004         26.0004
    830953.54746    761592.89843  22540654.3984                   22540655.3794
        40.7504         19.5004
 19  3  6  0 25 10.0000000  0  9G11G15G13G17G18G19G01G28G24
   3454454.930 6                  23554422.352
        41.250
   3128895.43415                  23617826.422
        34.000
   4377586.30546  -4499713.96943  23410345.5084                   23410344.2114
        41.7504         19.0004
  -9559796.43748 -19256387.86746  20629015.7734                   20629012.8954
        51.7504         36.7504
   3242474.211 6                  24132952.484
        37.250
  -5569102.30947 -12509029.73845  21130546.5234                   21130541.3324
        47.7504         32.0004
  -4465520.71146  -4893895.79342  22712737.8674                   22712739.1994
        40.7504         17.2504
   2280138.47347  -8782168.08244  21418999.1644                   21418995.3954
        47.5004         26.2504
    805741.80547    741947.41843  22535857.1174                   22535857.5944
        42.0004         20.0004
 19  3  6  0 25 15.0000000  0  9G11G15G13G17G18G19G01G28G24
   3456987.94146  -5350346.73853  23554906.0314                   23554895.2734
        39.5004         21.0004
   3128041.609 5                  23617665.281
        34.000
   4381931.40247  -4496328.25443  23411174.1174                   23411170.3754
        43.5004         19.0004
  -9573460.63348 -19267035.31246  20626416.9384                   20626411.7704
        52.5004         37.7504
   3244597.066 6                  24133356.719
        36.500
  -5593521.09848 -12528057.39145  21125900.8444                   21125893.3914
        48.7504         32.2504
  -4471540.78546  -4898586.85542  22711593.1334                   22711593.9614
        41.2504         17.2504
   2276782.97347  -8784782.79344  21418361.2734                   21418356.5354
        47.7504         27.7504
    780543.33646    722312.15643  22531063.7344                   22531061.7774
        41.5004         20.2504
 19  3  6  0 25 20.0000000  0  9G11G15G13G17G18G19G01G28G24
   3459532.785 5                  23555388.984
        33.000
   3127203.094 5                  23617504.758
        35.250
   4386287.61347  -4492933.78943  23412002.3284                   23411999.8874
        42.0004         18.5004
  -9587108.35248 -19277669.89146  20623819.2734                   20623815.0664
        52.5004         37.5004
   3246733.199 6                  24133763.672
        39.250
  -5617923.38747 -12547072.14845  21121256.5164                   21121250.6764
        47.2504         31.0004
  -4477542.44547  -4903263.44143  22710450.4614                   22710451.4264
        42.5004         18.2504
   2273435.64847  -8787391.07444  21417724.3674                   21417719.1994
        47.7504         27.7504
    755358.52046    702687.64543  22526270.1724                   22526269.1484
        41.7504         19.5004
 19  3  6  0 25 25.0000000  0  9G11G15G13G17G18G19G01G28G24
                                  23555877.797
        30.500
   3126376.633 5                  23617348.281
        35.000
   4390651.29747  -4489533.48443  23412831.5944                   23412830.5164
        43.0004         18.5004
  -9600736.00448 -19288288.83646  20621225.1174                   20621221.5824
        51.7504         37.0004
   3248896.363 6                  24134174.047
        37.250
  -5642309.77048 -12566074.51645  21116615.1484                   21116610.1724
        48.2504         33.7504
  -4483512.65646  -4907915.53942  22709314.3674                   22709315.5554
        40.0004         17.2504
   2270105.90647  -8789985.66844  21417089.2194                   21417085.9734
        46.5004         26.0004
    730189.10946    683075.17643  22521480.0164                   22521479.7934
        41.5004         19.5004
 19  3  6  0 25 30.0000000  0  9G11G15G13G17G18G19G01G28G24
   3464689.426 6                  23556368.961
        39.000
   3125560.422 5                  23617193.656
        33.250
   4395020.04747  -4486129.26642  23413663.6564                   23413661.4224
        42.5004         17.7504
  -9614349.77048 -19298896.94946  20618634.5004                   20618630.3134
        52.0004         37.5004
   3251075.590 5                  24134588.914
        35.000
  -5666684.37947 -12585067.70745  21111976.0084                   21111971.7034
        46.7504         30.7504
  -4489462.40646  -4912551.69142  22708181.1334                   22708182.6994
        40.7504         17.2504
   2266784.43447  -8792573.83244  21416457.6804                   21416453.7464
        47.5004         28.5004
    705031.23446    663471.58243  22516691.8524                   22516692.1054
        41.0004         20.2504
 19  3  6  0 25 35.0000000  0  9G11G15G13G17G18G19G01G28G24
   3467288.805 4                  23556864.039
        29.250
   3124755.887 6                  23617038.430
        36.000
   4399396.48047  -4482719.08643  23414496.1564                   23414494.1954
        43.7504         18.2504
  -9627948.73448 -19309493.55146  20616046.4924                   20616043.0434
        51.7504         37.7504
   3253269.641 6                  24135005.906
        39.000
  -5691045.22348 -12604050.17245  21107340.6954                   21107336.6094
        48.0004         33.2504
  -4495392.37146  -4917172.43742  22707052.8674                   22707054.3914
        40.2504         17.2504
   2263471.35547  -8795155.46144  21415826.4844                   21415822.7664
        46.2504         26.7504
    679884.68447    643876.95343  22511907.1254                   22511907.0274
        42.5004         20.0004
 19  3  6  0 25 40.0000000  0  9G11G15G13G17G18G19G01G28G24
   3469894.75815                  23557360.172
        34.500
   3123956.203 5                  23616885.602
        34.500
   4403774.34847  -4479307.77043  23415329.4694                   23415326.7034
        44.5004         18.5004
  -9641539.31248 -19320083.62146  20613459.9144                   20613456.9494
        51.5004         37.7504
   3255471.355 6                  24135425.266
        36.500
  -5715398.48047 -12623026.75045  21102706.6484                   21102702.1054
        47.7504         33.5004
  -4501309.41446  -4921783.10942  22705926.9614                   22705929.0234
        38.5004         16.7504
   2260160.30147  -8797735.48844  21415196.8204                   21415192.8244
        46.5004         26.5004
    654742.15246    624285.38343  22507122.6174                   22507122.3754
        41.7504         21.0004
 19  3  6  0 25 45.0000000  0  9G11G15G13G17G18G19G01G28G24
   3472516.086 6                  23557859.375
        38.750
   3123160.438 5                  23616733.977
        32.500
   4408150.39547  -4475897.87543  23416161.3594                   23416159.2544
        42.5004         18.5004
  -9655119.67248 -19330665.70346  20610875.8914                   20610872.2074
        51.2504         37.5004
   3257689.895 6                  24135846.789
        37.250
  -5739745.58647 -12641998.51245  21098073.5554                   21098068.5164
        47.2504         31.0004
  -4507205.66447  -4926377.55543  22704804.9534                   22704806.6054
        42.2504         18.5004
   2256856.03147  -8800310.26244  21414567.2894                   21414564.1094
        46.5004         29.0004
    629606.96946    604699.55943  22502339.4694                   22502339.5554
        41.5004         21.2504
 19  3  6  0 25 50.0000000  0  9G11G15G13G17G18G19G01G28G24
   3475156.406 6                  23558361.469
        38.250
   3122377.438 5                  23616586.695
        33.750
   4412534.91847  -4472481.37543  23416996.6094                   23416993.6254
        43.7504         19.0004
  -9668681.97348 -19341233.73046  20608294.4144                   20608291.5634
        51.2504         38.0004
   3259928.613 6                  24136273.211
        38.000
  -5764076.85947 -12660957.95345  21093443.2974                   21093438.4884
        46.5004         31.2504
  -4513076.88346  -4930952.52042  22703687.5554                   22703689.3834
        39.7504         17.7504
   2253564.68447  -8802874.94144  21413942.1254                   21413937.7974
        47.0004         26.5004
    604486.00447    585124.77343  22497558.4694                   22497559.0354
        42.0004         21.5004
 19  3  6  0 25 55.0000000  0  9G11G15G13G17G18G19G01G28G24
   3477802.742 6                  23558865.227
        36.000
   3121610.418 5                  23616440.344
        32.000
   4416933.34047  -4469054.03943  23417832.4064                   23417830.1684
        42.5004         19.5004
  -9682228.55948 -19351789.51246  20605717.4844                   20605713.5984
        51.5004         37.5004
   3262174.152 6                  24136701.172
        37.500
  -5788390.08247 -12679903.31645  21088816.7814                   21088811.3524
        47.2504         30.2504
  -4518934.84446  -4935517.24243  22702573.6954                   22702573.8524
        41.5004         18.5004
   2250278.57847  -8805435.53144  21413315.9774                   21413312.5274
        46.5004         27.0004
    579376.49246    565558.90243  22492781.8134                   22492780.6294
        41.2504         20.0004
 19  3  6  0 26  0.0000000  0  9G11G15G13G17G18G19G01G28G24
   3480455.85916                  23559370.766
        37.000
   3120852.387 5                  23616296.617
        32.750
   4421335.85547  -4465623.45343  23418671.4454                   23418667.8404
        44.0004         19.2504
  -9695765.80148 -19362338.04346  20603142.2424                   20603138.2544
        52.2504         38.2504
   3264428.027 6                  24137130.789
        36.250
  -5812694.10948 -12698841.52345  21084192.5234                   21084186.4964
        48.5004         33.5004
  -4524780.17246  -4940072.01643  22701461.4844                   22701461.8134
        41.2504         18.2504
   2246994.16447  -8807994.84044  21412692.7664                   21412687.5634
        47.2504         27.7504
    554275.23447    545999.45743  22488005.8914                   22488003.5394
        42.0004         19.2504
 19  3  6  0 26  5.0000000  0  9G11G15G13G17G18G19G01G28G24
   3483104.691 5                  23559874.922
        32.000
   3120100.42215                  23616153.172
        31.500
   4425741.43847  -4462190.54743  23419510.4144                   23419506.6684
        44.5004         19.7504
  -9709298.85948 -19372883.27046  20600567.2814                   20600563.2624
        52.5004         37.0004
   3266679.070 5                  24137559.492
        33.000
  -5836991.52748 -12717774.55145  21079569.7114                   21079563.8484
        48.2504         32.2504
  -4530622.78947  -4944624.78143  22700349.9384                   22700349.6764
        44.5004         18.2504
   2243703.75448  -8810558.78544  21412065.2974                   21412061.7074
        48.0004         28.7504
    529175.60546    526441.35243  22483228.5164                   22483227.6254
        39.7504         18.5004
 19  3  6  0 26 10.0000000  0  9G11G15G13G17G18G19G01G28G24
   3485760.930 5                  23560381.961
        32.250
   3119352.441 5                  23616013.266
        31.000
   4430147.78147  -4458757.10243  23420350.6024                   23420345.5554
        46.0004         19.7504
  -9722823.28148 -19383421.79346  20597993.5634                   20597989.6914
        52.0004         37.2504
   3268938.211 5                  24137990.453
        31.750
  -5861281.49248 -12736701.82845  21074947.3444                   21074941.5164
        48.5004         31.5004
  -4536451.86747  -4949166.85543  22699240.5314                   22699240.7274
        43.0004         20.7504
   2240415.87547  -8813120.78144  21411440.6254                   21411436.1454
        47.2504         26.2504
    504079.84446    506886.22342  22478453.8134                   22478452.4064
        40.5004         17.2504
 19  3  6  0 26 15.0000000  0  9G11G15G13G17G18G19G01G28G24
   3488426.81315                  23560890.352
        32.500
   3118618.805 5                  23615873.625
        33.500
   4434566.25447  -4455314.13343  23421189.9844                   23421185.5204
        44.7504         19.7504
  -9736331.16848 -19393947.42246  20595422.1024                   20595418.7974
        51.7504         37.5004
   3271207.234 5                  24138420.891
        33.000
  -5885553.81648 -12755615.32045  21070327.6484                   21070322.5474
        48.0004         30.5004
  -4542264.43047  -4953696.13343  22698134.4774                   22698134.2154
        43.0004         22.0004
   2237135.90247  -8815676.61744  21410816.3984                   21410811.2624
        47.7504         27.0004
    478995.14146    487339.68842  22473679.6644                   22473678.5864
        40.5004         17.7504
 19  3  6  0 26 20.0000000  0  9G11G15G13G17G18G19G01G28G24
   3491107.738 5                  23561399.750
        32.500
   3117900.543 5                  23615735.914
        32.000
   4438997.54347  -4451861.14143  23422032.6884                   23422029.8204
        43.7504         20.7504
  -9749820.75048 -19404458.78146  20592855.4774                   20592851.7344
        52.2504         38.0004
   3273492.367 5                  24138855.398
        33.750
  -5909807.80548 -12774514.53145  21065713.2584                   21065706.9654
        48.0004         32.0004
  -4548055.37147  -4958208.51243  22697031.3984                   22697032.6484
        42.0004         20.5004
   2233867.17247  -8818223.66844  21410193.5554                   21410189.9144
        47.0004         27.5004
    453924.12946    467803.85943  22468908.7664                   22468907.8444
        40.5004         19.2504
 19  3  6  0 26 25.0000000  0  9G11G15G13G17G18G19G01G28G24
   3493794.38516                  23561908.094
        39.750
   3117191.387 5                  23615601.102
        30.500
   4443437.02047  -4448401.82443  23422876.1804                   23422875.0044
        43.0004         20.7504
  -9763297.00448 -19414959.75046  20590290.6254                   20590287.7974
        51.7504         37.2504
                                  24139291.969
        29.500
  -5934047.46147 -12793402.57845  21061100.3284                   21061095.6604
        47.5004         31.2504
  -4553833.00447  -4962710.57443  22695932.2814                   22695933.1954
        44.5004         20.7504
   2230603.64148  -8820766.68044  21409572.7194                   21409568.5704
        48.5004         28.5004
    428858.20846    448271.95443  22464138.3834                   22464138.4694
        39.0004         19.7504
 19  3  6  0 26 30.0000000  0  9G11G15G13G17G18G19G01G28G24
   3496501.340 6                  23562424.578
        41.000
                                  23615468.023
        31.500
   4447879.25846  -4444940.36343  23423724.5474                   23423720.1334
        41.7504         19.5004
  -9776757.52748 -19425448.48046  20587730.9534                   20587726.0394
        52.2504         36.7504
   3278095.09816                  24139731.828
        38.000
  -5958275.48047 -12812281.56645  21056491.5164                   21056484.9224
        47.2504         30.0004
  -4559584.74647  -4967192.48044  22694839.2734                   22694838.3634
        46.0004         24.7504
   2227352.70348  -8823299.92245  21408955.6484                   21408951.4654
        49.0004         30.0004
    403803.10946    428748.41843  22459372.4924                   22459370.5274
        41.2504         19.0004
 19  3  6  0 26 35.0000000  0  9G11G15G13G17G18G19G01G28G24
   3499225.53146  -5347087.24653  23562940.5084                   23562938.3134
        39.7504         19.7504
                                  23615332.828
        30.000
   4452322.34846  -4441478.25043  23424567.4064                   23424566.5234
        39.2504         18.2504
  -9790204.48448 -19435926.65645  20585169.6334                   20585168.4264
        50.2504         35.2504
   3280424.941 6                  24140172.469
        37.000
  -5982493.58247 -12831152.79744  21051879.0234                   21051876.1564
        45.0004         27.0004
  -4565313.01647  -4971656.08644  22693747.2814                   22693749.5704
        46.0004         27.2504
   2224112.45747  -8825824.78544  21408336.5004                   21408335.0904
        47.7504         29.7504
    378754.83646    409230.32843  22454603.2344                   22454604.6254
        38.5004         19.0004
 19  3  6  0 26 40.0000000  0  8G11G13G17G18G19G01G28G24
   3501961.03946  -5344955.71943  23563460.3834                   23563459.0594
        37.0004         18.5004
   4456760.43046  -4438020.04342  23425411.9694                   23425410.8134
        38.0004         16.7504
  -9803645.43448 -19446400.13345  20582612.8054                   20582609.9924
        48.7504         34.5004
   3282767.742 5                  24140619.406
        35.250
  -6006708.96947 -12850021.93444  21047272.2664                   21047268.1884
        44.2504         27.0004
  -4571024.74647  -4976106.81244  22692660.3594                   22692662.4414
        42.7504         27.0004
   2220874.84847  -8828347.61344  21407719.5784                   21407716.8634
        46.5004         29.7504
    353710.32446    389715.07043  22449837.9064                   22449839.0004
        37.2504         18.2504
 19  3  6  0 26 45.0000000  0  8G11G13G17G18G19G01G28G24
   3504700.68846  -5342820.98842  23563983.1644                   23563981.0824
        41.0004         16.2504
   4461197.96546  -4434562.21142  23426257.2344                   23426255.6994
        40.7504         16.7504
  -9817081.40648 -19456869.71145  20580055.7114                   20580054.3054
        51.0004         35.7504
   3285117.199 6                  24141067.672
        37.500
  -6030920.02347 -12868887.68445  21042665.3984                   21042661.2544
        46.0004         30.7504
  -4576726.85947  -4980549.99244  22691576.0864                   22691577.8164
        46.5004         24.5004
   2217634.34848  -8830872.66044  21407104.4064                   21407102.0594
        49.0004         29.2504
    328674.02746    370206.33243  22445074.4224                   22445075.2814
        39.7504         18.2504
 19  3  6  0 26 50.0000000  0  8G11G13G17G18G19G01G28G24
   3507438.64147  -5340687.42242  23564505.0394                   23564502.4654
        42.7504         17.2504
   4465632.19146  -4431107.09042  23427101.1484                   23427099.7344
        40.5004         16.7504
  -9830513.52348 -19467336.30145  20577500.3594                   20577498.0594
        50.7504         35.0004
   3287463.727 6                  24141513.766
        37.000
  -6055126.91447 -12887750.20344  21038059.2034                   21038055.4454
        45.5004         26.7504
  -4582422.96147  -4984988.54744  22690491.9844                   22690493.5904
        47.5004         28.5004
   2214391.89148  -8833399.25845  21406487.6954                   21406485.7814
        49.2504         31.0004
    303628.41746    350690.22143  22440308.8984                   22440309.5314
        40.5004         18.2504
 19  3  6  0 26 55.0000000  0  8G11G13G17G18G19G01G28G24
   3510188.50447  -5338544.72342  23565028.6644                   23565026.4144
        43.0004         16.7504
   4470070.516 6                  23427946.188
        40.750
  -9843934.70348 -19477794.40245  20574946.3674                   20574944.7974
        51.0004         35.0004
   3289824.281 6                  24141963.805
        36.750
  -6079324.01647 -12906605.10544  21033454.8984                   21033450.5084
        45.7504         27.5004
  -4588101.70747  -4989413.57844  22689412.4454                   22689413.4534
        47.7504         28.0004
   2211154.14848  -8835922.20345  21405872.8284                   21405869.3634
        49.7504         31.2504
    278594.434 6                  22435545.938
        37.000
 19  3  6  0 27  0.0000000  0  8G11G13G17G18G19G01G28G24
   3512953.74647  -5336389.97742  23565552.5944                   23565552.4414
        45.0004         17.2504
   4474516.289 6                  23428790.461
        37.500
  -9857339.95748 -19488240.03545  20572393.0314                   20572394.0784
        49.0004         32.5004
   3292201.473 7                  24142413.359
        42.000
  -6103506.76247 -12925448.78143  21028850.2114                   21028849.2114
        42.7504         23.0004
  -4593758.99248  -4993821.82445  22688332.6334                   22688337.0514
        48.2504         30.2504
   2207926.12948  -8838437.52745  21405255.8594                   21405255.5234
        49.2504         30.5004
    253573.895 5                  22430782.734
        30.750
 19  3  6  0 27  5.0000000  0  8G11G13G17G18G19G01G28G24
   3515740.75047  -5334218.29343  23566083.0084                   23566083.4804
        43.5004         18.5004
   4478973.630 6                  23429638.484
        39.500
  -9870726.14148 -19498670.84045  20569846.7664                   20569847.7774
        50.2504         32.5004
   3294602.16446  -2087202.24253  24142870.6414                   24142880.6844
        39.5004         20.5004
  -6127671.85547 -12944278.72743  21024253.0944                   21024250.7584
        45.0004         22.0004
  -4599389.03148  -4998208.85544  22687262.6804                   22687267.3984
        48.0004         29.2504
   2204712.28548  -8840941.82844  21404645.4064                   21404645.0554
        48.0004         27.7504
    228570.598 6                  22426024.242
        41.000
 19  3  6  0 27 10.0000000  0  8G11G13G17G18G19G01G28G24
   3518554.57447  -5332025.72343  23566618.9614                   23566619.0864
        44.7504         19.7504
   4483453.258 6                  23430491.453
        39.500
  -9884080.70348 -19509076.98845  20567305.4144                   20567306.1764
        50.7504         34.7504
   3297030.62946  -2085309.88343  24143333.0314                   24143342.7854
        39.0004         18.2504
  -6151806.77747 -12963085.13344  21019660.8134                   21019658.7934
        44.5004         25.5004
  -4604985.49647  -5002569.76645  22686197.1564                   22686202.2584
        47.7504         31.0004
   2201522.12548  -8843427.65245  21404038.3834                   21404037.6054
        50.0004         30.0004
    203596.125 6                  22421272.828
        37.500
 19  3  6  0 27 15.0000000  0  8G11G13G17G18G19G01G28G24
   3521389.60947  -5329816.59443  23567160.5084                   23567158.8554
        46.7504         19.2504
   4487954.020 6                  23431347.594
        37.750
  -9897411.99648 -19519465.00445  20564769.2344                   20564770.7544
        51.5004         33.7504
   3299484.57446  -2083397.65242  24143800.7194                   24143809.8794
        39.2504         15.5004
  -6175917.69547 -12981872.86743  21015073.4924                   21015071.3094
        43.7504         23.7504
  -4610555.82048  -5006910.27745  22685137.7504                   22685142.6804
        48.7504         31.7504
   2198344.91048  -8845903.41845  21403433.5474                   21403434.0554
        49.7504         32.7504
    178655.145 6                  22416526.367
        36.000
 19  3  6  0 27 20.0000000  0  8G11G13G17G18G19G01G28G24
   3524222.98047  -5327608.81643  23567695.0314                   23567697.9534
        42.2504         19.7504
   4492449.742 6                  23432202.984
        38.000
  -9910742.67648 -19529852.52745  20562231.3754                   20562230.6054
        50.2504         33.5004
   3301938.12546  -2081485.80142  24144265.4534                   24144276.4884
        40.7504         15.5004
  -6200028.09047 -13000660.17644  21010483.3914                   21010481.8014
        43.2504         25.2504
  -4616121.61747  -5011247.25845  22684078.8134                   22684081.7114
        47.5004         30.0004
   2195161.28948  -8848384.16445  21402825.8984                   21402825.5164
        49.0004         32.5004
    153712.082 5                  22411777.953
        34.750
 19  3  6  0 27 25.0000000  0  8G11G13G17G18G19G01G28G24
   3527071.82846  -5325388.87943  23568240.2114                   23568239.9064
        41.0004         19.2504
   4496947.875 6                  23433059.094
        37.250
  -9924057.07048 -19540227.38745  20559698.6484                   20559700.1414
        49.7504         34.5004
   3304404.73446  -2079563.84042  24144735.5944                   24144746.0314
        36.5004         15.5004
  -6224124.89147 -13019436.91844  21005899.1644                   21005897.6454
        44.0004         26.7504
  -4621664.00047  -5015565.96945  22683023.8054                   22683028.2504
        45.5004         30.5004
   2191992.32447  -8850853.48044  21402225.1954                   21402223.9104
        46.5004         27.5004
    128765.648 6                  22407032.234
        39.750
 19  3  6  0 27 30.0000000  0  8G11G13G17G18G19G01G28G24
   3529961.55147  -5323137.18043  23568790.1804                   23568790.0234
        43.5004         20.5004
   4501477.523 6                  23433921.742
        37.500
  -9937331.34448 -19550570.98845  20557173.0474                   20557171.6134
        51.0004         35.0004
   3306914.08247  -2077608.49642  24145214.4304                   24145222.8444
        42.7504         17.2504
  -6248183.38347 -13038183.77744  21001321.4614                   21001318.7234
        44.2504         27.7504
  -4627159.85548  -5019848.47345  22681978.5784                   22681981.3834
        48.5004         32.2504
   2188857.22748  -8853296.42645  21401628.5944                   21401626.7894
        49.2504         31.5004
    103859.82446    319548.41853  22402294.0084                   22402290.9924
        37.5004         19.5004
 19  3  6  0 27 35.0000000  0  8G11G13G17G18G19G01G28G24
   3532856.71147  -5320881.16843  23569341.5944                   23569340.4614
        47.0004         22.7504
   4506015.859 6                  23434785.031
        37.750
  -9950594.34448 -19560905.77745  20554648.9924                   20554649.0664
        50.5004         34.0004
   3309430.57447  -2075647.54343  24145693.2664                   24145701.1214
        43.0004         18.2504
  -6272229.10547 -13056920.67644  20996745.2274                   20996743.1054
        44.2504         24.0004
  -4632644.01248  -5024121.80945  22680935.0474                   22680938.7544
        49.0004         32.2504
   2185723.78948  -8855738.04345  21401031.3524                   21401031.0944
        49.5004         31.0004
     78965.70346    300150.45343  22397556.4694                   22397554.1484
        39.0004         18.2504
 19  3  6  0 27 40.0000000  0  8G11G13G17G18G19G01G28G24
   3535751.90247  -5318625.19944  23569892.1094                   23569892.0514
        47.0004         24.5004
   4510556.848 6                  23435649.469
        37.750
  -9963852.80548 -19571237.03545  20552125.7424                   20552126.2194
        50.7504         34.2504
   3311951.27347  -2073683.36343  24146172.2034                   24146179.9614
        42.5004         18.2504
  -6296269.00447 -13075653.06644  20992171.0634                   20992168.5864
        44.5004         25.2504
  -4638122.88348  -5028391.04345  22679892.4774                   22679895.7584
        49.2504         33.2504
   2182583.35548  -8858185.12945  21400433.5314                   21400433.8674
        49.5004         31.5004
     54086.28546    280763.87942  22392822.1954                   22392820.9454
        39.0004         16.2504
 19  3  6  0 27 45.0000000  0  8G11G13G17G18G19G01G28G24
   3538652.72347  -5316364.80544  23570443.8984                   23570443.5394
        47.0004         26.2504
   4515099.316 6                  23436512.836
        37.000
  -9977103.00048 -19581561.87145  20549604.1954                   20549604.6414
        50.7504         34.5004
   3314478.85947  -2071713.81643  24146653.3444                   24146660.1954
        43.0004         18.2504
  -6320301.04747 -13094379.32844  20987597.1094                   20987595.6994
        44.0004         24.2504
  -4643589.76648  -5032650.96545  22678851.6174                   22678855.7424
        49.0004         32.7504
   2179444.11348  -8860631.30545  21399836.5394                   21399836.2734
        49.7504         31.7504
     29212.20346    261381.52342  22388088.2584                   22388088.2274
        38.2504         15.5004
 19  3  6  0 27 50.0000000  0  8G11G13G17G18G19G01G28G24
   3541563.81647  -5314096.41044  23570997.5004                   23570997.4884
        46.5004         25.5004
   4519647.914 5                  23437378.461
        35.500
  -9990340.34848 -19591876.69145  20547085.0784                   20547085.7624
        50.5004         34.5004
   3317017.89847  -2069735.34443  24147136.8204                   24147142.5514
        43.2504         19.2504
  -6344320.63747 -13113095.89844  20983026.7734                   20983025.0594
        44.2504         24.5004
  -4649039.99648  -5036897.89845  22677814.6174                   22677818.4844
        48.7504         33.0004
   2176310.65648  -8863072.94945  21399240.1884                   21399241.0004
        49.2504         31.0004
      4348.14146    242006.88742  22383356.5004                   22383357.4304
        40.7504         17.2504
 19  3  6  0 27 55.0000000  0  8G11G13G17G18G19G01G28G24
   3544486.93447  -5311818.67644  23571553.6024                   23571553.8794
        45.7504         25.2504
   4524204.406 6                  23438246.844
        36.500
 -10003563.15648 -19602180.17245  20544569.2974                   20544569.5664
        50.7504         34.2504
   3319570.15647  -2067746.56643  24147622.7504                   24147627.4924
        43.0004         19.2504
  -6368325.93447 -13131801.31244  20978458.3204                   20978456.9654
        44.0004         25.2504
  -4654471.84048  -5041130.48845  22676781.0864                   22676784.7304
        48.7504         33.2504
   2173184.74648  -8865508.72745  21398646.1724                   21398645.7704
        49.5004         30.7504
    -20504.00446    222641.57843  22378628.3364                   22378629.0944
        39.2504         18.2504
 19  3  6  0 28  0.0000000  0  8G11G13G17G18G19G01G28G24
   3547422.20347  -5309531.46544  23572112.2734                   23572112.4534
        46.0004         26.0004
   4528768.781 6                  23439114.867
        37.000
 -10016771.23048 -19612472.17245  20542055.8444                   20542056.0354
        50.7504         34.7504
   3322135.73447  -2065747.42243  24148110.1094                   24148115.3954
        43.0004         19.2504
  -6392316.91047 -13150495.57444  20973893.5864                   20973891.9964
        44.5004         24.0004
  -4659885.18048  -5045348.69545  22675751.2664                   22675754.5514
        49.0004         32.2504
   2170066.53948  -8867938.50845  21398052.0004                   21398051.8444
        49.0004         30.7504
    -45344.10546    203285.71142  22373900.5784                   22373902.6764
        41.0004         17.7504
 19  3  6  0 28  5.0000000  0  8G11G13G17G18G19G01G28G24
   3550369.44147  -5307234.90644  23572674.2504                   23572673.3984
        47.0004         25.0004
   4533341.055 6                  23439985.055
        37.000
 -10029964.64548 -19622752.76645  20539545.1724                   20539545.3754
        50.7504         34.5004
   3324714.57047  -2063737.93743  24148601.5944                   24148605.7074
        43.0004         19.0004
  -6416293.59847 -13169178.70344  20969330.1804                   20969329.1094
        44.2504         25.5004
  -4665280.12948  -5049552.54745  22674723.8524                   22674728.4734
        48.7504         33.5004
   2166955.87948  -8870362.38345  21397459.9694                   21397460.1024
        49.2504         31.0004
    -70172.30946    183939.00442  22369176.4924                   22369177.7344
        41.5004         17.2504
 19  3  6  0 28 10.0000000  0  8G11G13G17G18G19G01G28G24
   3553328.65247  -5304929.03944  23573236.1414                   23573236.5944
        46.5004         25.5004
   4537921.18015                  23440857.734
        31.000
 -10043143.47748 -19633021.98045  20537037.1094                   20537037.3204
        51.2504         35.2504
   3327306.53147  -2061718.23842  24149094.4924                   24149098.8754
        42.5004         17.7504
  -6440256.035 7                  20964770.242
        44.500
  -4670656.71548  -5053742.09845  22673701.1024                   22673704.8244
        48.5004         32.0004
   2163852.78948  -8872780.38345  21396870.4304                   21396869.6604
        49.5004         30.5004
    -94988.57846    164601.68042  22364453.3444                   22364455.7114
        41.5004         16.7504
 19  3  6  0 28 15.0000000  0  8G11G13G17G18G19G01G28G24
   3556299.68847  -5302613.92244  23573801.8284                   23573801.8674
        46.0004         25.2504
   4542508.71115                  23441729.617
        34.000
 -10056307.85548 -19643279.94145  20534532.1954                   20534533.1214
        50.5004         35.0004
   3329911.47347  -2059688.39842  24149590.3444                   24149594.4534
        42.7504         17.7504
  -6464204.37147 -13184858.78554  20960214.5704                   20960210.4304
        46.0004         28.5004
  -4676015.16848  -5057917.50445  22672681.1094                   22672685.0784
        48.5004         32.5004
   2160757.03148  -8875192.67645  21396280.5004                   21396280.3204
        49.0004         30.7504
   -119793.04346    145273.51643  22359733.8284                   22359735.7074
        40.0004         18.5004
 19  3  6  0 28 20.0000000  0  8G11G13G17G18G19G01G28G24
   3559281.26247  -5300290.64544  23574368.6884                   23574369.2894
        45.7504         25.0004
   4547102.805 5                  23442604.703
        33.750
 -10069459.02048 -19653527.60945  20532029.6884                   20532030.0274
        51.0004         35.7504
   3332528.16447  -2057649.42642  24150087.8754                   24150091.5354
        42.5004         17.7504
  -6488139.80547 -13203509.77344  20955659.4224                   20955656.8094
        45.0004         27.5004
  -4681356.63748  -5062079.70345  22671665.1484                   22671668.8794
        48.7504         33.0004
   2157667.42248  -8877600.16045  21395692.7194                   21395692.7504
        49.5004         31.0004
   -144587.13746    125953.46543  22355015.2034                   22355018.1804
        41.2504         19.0004
 19  3  6  0 28 25.0000000  0  8G11G13G17G18G19G01G28G24
   3562271.76647  -5297960.37944  23574938.1954                   23574938.3914
        46.0004         26.7504
   4551701.621 5                  23443479.422
        35.500
 -10082598.62548 -19663766.26245  20529528.7584                   20529529.7304
        50.7504         34.7504
   3335154.99647  -2055602.53143  24150588.4694                   24150591.2384
        43.0004         18.2504
  -6512063.95347 -13222151.97344  20951106.4614                   20951104.0274
        45.0004         27.5004
  -4686682.75048  -5066229.91445  22670651.3984                   22670655.2704
        48.5004         32.2504
   2154582.34848  -8880004.11345  21395105.7584                   21395105.5784
        48.7504         30.2504
   -169372.23846    106640.39843  22350298.4144                   22350301.1054
        40.7504         18.5004
 19  3  6  0 28 30.0000000  0  8G11G13G17G18G19G01G28G24
   3565271.48047  -5295622.94144  23575509.3444                   23575509.2154
        46.2504         25.5004
   4556305.543 5                  23444354.094
        30.500
 -10095726.32448 -19673995.61745  20527031.1024                   20527031.6844
        50.7504         34.7504
   3337792.26647  -2053547.51243  24151090.2584                   24151093.2464
        43.0004         18.5004
  -6535976.49647 -13240785.10544  20946556.0474                   20946554.3554
        45.5004         27.0004
  -4691993.27348  -5070367.98045  22669640.4384                   22669645.0274
        48.5004         32.2504
   2151502.10948  -8882404.29745  21394519.5474                   21394519.6294
        49.2504         31.5004
   -194148.21946     87334.46142  22345584.4304                   22345586.9614
        40.2504         17.7504
 19  3  6  0 28 35.0000000  0  7G11G17G18G19G01G28G24
   3568280.73847  -5293278.06243  23576082.5084                   23576081.8244
        47.2504         22.7504
 -10108841.84048 -19684215.51245  20524535.2274                   20524535.7234
        50.7504         34.7504
   3340440.21947  -2051484.16843  24151594.2114                   24151596.9804
        42.0004         19.2504
  -6559877.13747 -13259408.98044  20942007.6024                   20942006.8594
        46.0004         24.0004
  -4697287.81648  -5074493.59845  22668633.5784                   22668637.5164
        48.7504         32.2504
   2148426.98448  -8884800.48844  21393934.1724                   21393934.5314
        49.0004         29.5004
   -218914.46546     68036.07442  22340872.0314                   22340873.8484
        37.0004         17.2504
 19  3  6  0 28 40.0000000  0  8G11G13G17G18G19G01G28G24
   3571299.91447  -5290925.46943  23576656.0084                   23576656.3484
        46.0004         22.5004
                                  23446110.305
        27.500
 -10121944.79748 -19694425.63745  20522041.6564                   20522042.7664
        50.0004         33.5004
   3343099.26646  -2049412.20743  24152098.7424                   24152103.1024
        41.5004         18.5004
  -6583765.45347 -13278023.26243  20937462.2344                   20937461.0234
        42.7504         21.7504
  -4702566.04348  -5078606.52745  22667628.7034                   22667633.3874
        48.0004         30.0004
   2145357.42248  -8887192.37944  21393349.7734                   21393350.4804
        49.2504         27.0004
   -243670.73847     48745.46943  22336160.3674                   22336164.1844
        42.0004         18.2504
 19  3  6  0 28 45.0000000  0  8G11G15G17G18G19G01G28G24
   3574327.44947  -5288566.36343  23577232.2814                   23577232.9344
        46.7504         22.2504
   3150598.21515                  23612921.164
        34.000
 -10135036.60248 -19704627.02345  20519550.6174                   20519552.0354
        50.5004         32.0004
   3345767.87547  -2047332.77743  24152607.9384                   24152610.9694
        43.2504         18.2504
  -6607642.96947 -13296629.13743  20932918.5704                   20932917.3094
        42.0004         21.5004
  -4707829.52748  -5082707.93745  22666627.1254                   22666631.8364
        48.0004         30.5004
   2142291.89148  -8889581.09044  21392765.8754                   21392767.0864
        48.0004         27.7504
   -268418.54346     29461.46142  22331450.4534                   22331454.5984
        37.0004         16.2504
 19  3  6  0 28 50.0000000  0  9G11G15G13G17G18G19G01G28G24
   3577364.25847  -5286200.02043  23577810.5634                   23577811.1254
        47.0004         22.5004
   3150201.75414                  23612844.398
        29.500
   4574773.19115                  23447870.328
        33.500
 -10148116.51248 -19714819.16445  20517061.0394                   20517063.1374
        50.5004         32.0004
   3348446.96147  -2045245.19943  24153117.3524                   24153120.9774
        44.0004         18.5004
  -6631508.84047 -13315225.92243  20928376.2664                   20928375.8324
        45.0004         21.5004
  -4713077.32048  -5086797.16445  22665628.5704                   22665633.8554
        48.7504         31.2504
   2139231.17648  -8891966.06644  21392183.9694                   21392185.7194
        50.0004         29.0004
   -293157.059 6                  22326743.789
        36.500
 19  3  6  0 28 55.0000000  0  9G11G15G13G17G18G19G01G28G24
   3580411.13747  -5283825.81643  23578389.8524                   23578391.3524
        46.7504         22.7504
   3149815.40215                  23612773.055
        30.500
                                  23448751.453
        26.750
 -10161183.63348 -19725001.34445  20514573.9694                   20514576.6994
        50.5004         31.7504
   3351137.30147  -2043148.78543  24153628.7734                   24153633.2934
        42.5004         19.0004
  -6655362.06247 -13333812.81643  20923838.4144                   20923836.6054
        43.0004         21.7504
  -4718308.58648  -5090873.45345  22664633.6174                   22664638.6564
        48.2504         30.0004
   2136176.29748  -8894346.51644  21391603.8524                   21391603.9574
        50.2504         27.5004
   -317885.363 6                  22322037.531
        36.000
 19  3  6  0 29  0.0000000  0  8G11G13G17G18G19G01G28G24
   3583468.41047  -5281443.53143  23578971.2814                   23578973.3404
        46.0004         22.0004
   4584039.60515                  23449633.141
        32.250
 -10174237.49648 -19735173.18045  20512091.2974                   20512092.4534
        50.7504         31.2504
   3353839.24647  -2041043.35543  24154143.1954                   24154147.4964
        44.2504         18.2504
  -6679202.45747 -13352389.71943  20919300.3754                   20919300.1524
        42.5004         20.5004
  -4723523.05548  -5094936.66045  22663640.4844                   22663646.0474
        48.0004         30.2504
   2133127.39848  -8896722.27044  21391022.6954                   21391024.1134
        49.2504         26.7504
   -342603.117 6                  22317334.414
        36.000
 19  3  6  0 29  5.0000000  0  7G11G17G18G19G01G28G24
   3586535.84447  -5279053.34843  23579555.3444                   23579556.7194
        45.5004         22.0004
 -10187278.51648 -19745335.01645  20509608.7664                   20509610.5124
        50.7504         32.2504
   3356552.55147  -2038929.17242  24154659.1954                   24154663.6134
        42.0004         17.2504
  -6703030.16847 -13370956.82043  20914766.3364                   20914765.9534
        43.5004         19.2504
  -4728720.88348  -5098986.92244  22662651.6484                   22662656.9414
        48.0004         29.7504
   2130084.35248  -8899093.48044  21390443.9774                   21390444.9414
        49.0004         27.0004
   -367310.527 6                  22312632.547
        38.500
 19  3  6  0 29 10.0000000  0  7G11G17G18G19G01G28G24
   3589613.32047  -5276655.32443  23580141.5314                   23580142.5274
        47.0004         22.5004
 -10200306.79348 -19755486.93045  20507130.2194                   20507131.3484
        50.7504         33.2504
   3359277.06647  -2036806.18442  24155178.6334                   24155182.4614
        44.0004         17.7504
  -6726845.23047 -13389514.02743  20910234.4694                   20910234.5234
        44.2504         20.0004
  -4733902.19548  -5103024.32445  22661666.3524                   22661671.3484
        48.7504         30.0004
   2127047.07448  -8901460.18744  21389865.6884                   21389867.1564
        49.2504         27.5004
   -392007.707 6                  22307932.250
        36.500
 19  3  6  0 29 15.0000000  0  7G11G17G18G19G01G28G24
   3592700.48447  -5274249.69543  23580727.6484                   23580730.3714
        45.5004         22.2504
 -10213322.62948 -19765629.14545  20504652.8444                   20504655.0744
        50.7504         32.7504
   3362012.50847  -2034674.63742  24155698.8524                   24155703.1294
        42.5004         17.7504
  -6750648.05147 -13408061.66043  20905704.6724                   20905705.1094
        43.5004         20.2504
  -4739067.37947  -5107049.14545  22660682.0004                   22660688.6174
        47.5004         30.0004
   2124015.19948  -8903822.69544  21389288.1724                   21389289.6994
        48.7504         27.2504
   -416695.039 6                  22303234.750
        38.250
 19  3  6  0 29 20.0000000  0  7G11G17G18G19G01G28G24
   3595797.92647  -5271836.12543  23581318.0234                   23581318.0634
        44.5004         23.2504
                                  20502178.9774                   20502179.3634
        47.2504         28.0004
                                  24156221.9924                   24156225.2344
        42.5004         17.2504
  -6774437.44346 -13426598.89243  20901178.0084                   20901177.3484
        39.5004         20.2504
                                  22659702.9694                   22659707.1764
        46.2504         29.5004
                                  21388713.1564                   21388712.2504
        48.5004         27.5004
                                  22298538.406
        41.750
 19  3  6  0 29 25.0000000  0  7G11G17G18G19G01G28G24
   3598905.65247  -5269414.51243  23581911.3594                   23581907.8204
        45.5004         22.7504
 -10239314.24247 -19785882.03944  20499707.7194                   20499705.1724
        46.2504         27.2504
   3367517.71547  -2030384.82043  24156747.5084                   24156749.0474
        42.0004         18.2504
  -6798214.477 6                  20896656.063
        40.500
  -4749347.61748  -5115059.66045  22658727.9534                   22658727.2854
        48.2504         30.5004
   2117969.28948  -8908533.78144  21388140.1954                   21388135.8054
        48.7504         27.5004
   -466038.109 4                  22293846.945
        25.250
 19  3  6  0 29 30.0000000  0  7G11G17G18G19G01G28G24
   3602023.21147  -5266985.26243  23582504.0634                   23582499.8754
        47.7504         22.7504
 -10252291.34048 -19795994.14545  20497238.4384                   20497235.1054
        50.0004         31.5004
   3370287.12947  -2028226.83643  24157274.8204                   24157275.0904
        44.2504         18.2504
  -6821979.57857 -13445118.66453  20892133.4384                   20892126.1134
        42.7504         19.5004
  -4754462.98048  -5119045.72345  22657754.3364                   22657753.9144
        49.0004         31.0004
   2114954.97748  -8910882.59444  21387566.4304                   21387560.8284
        49.0004         28.0004
                                  22289155.203
        38.000
 19  3  6  0 29 35.0000000  0  7G11G17G18G19G01G28G24
   3605149.08247  -5264549.53143  23583097.9224                   23583094.8554
        46.2504         22.7504
 -10265257.40648 -19806097.56245  20494770.8204                   20494767.3524
        50.5004         31.7504
   3373065.96947  -2026061.54743  24157803.4384                   24157802.7544
        44.0004         18.2504
  -6845733.30547 -13463628.02343  20887612.4534                   20887606.1524
        42.2504         19.0004
  -4759563.57048  -5123020.18745  22656783.4844                   22656783.4184
        50.0004         30.7504
   2111944.71148  -8913228.24644  21386992.2424                   21386988.7664
        48.5004         28.0004
   -515341.305 6                  22284463.273
        38.000
 19  3  6  0 29 40.0000000  0  7G11G17G18G19G01G28G24
   3608282.14547  -5262108.18444  23583694.9774                   23583690.6374
        47.0004         25.5004
 -10278213.48448 -19816193.24245  20492305.2734                   20492301.8014
        50.2504         34.2504
   3375853.18447  -2023889.67243  24158333.7504                   24158332.7504
        43.0004         19.0004
  -6869477.19546 -13482129.75443  20883094.7974                   20883088.0084
        41.0004         18.5004
  -4764650.50048  -5126984.05145  22655816.5084                   22655815.3134
        50.0004         35.0004
   2108937.34448  -8915571.68045  21386420.6484                   21386416.4774
        49.2504         31.0004
   -539981.29746      4833.19553  22279775.3444                   22279771.3444
        37.5004         18.2504
 19  3  6  0 29 45.0000000  0  7G11G17G18G19G01G28G24
   3611422.36347  -5259661.25844  23584292.2194                   23584288.8404
        47.5004         24.0004
 -10291159.58248 -19826281.08245  20489841.6644                   20489838.4844
        50.5004         31.5004
   3378648.70747  -2021711.32443  24158865.7504                   24158864.1604
        44.2504         19.0004
  -6893211.21947 -13500623.79343  20878577.6094                   20878571.9804
        42.2504         18.2504
  -4769723.78548  -5130937.25445  22654849.9924                   22654850.0594
        49.2504         31.5004
   2105932.93848  -8917912.76644  21385849.2734                   21385844.8364
        49.0004         27.7504
   -564613.85546    -14361.01642  22275087.6884                   22275084.4804
        38.0004         17.7504
 19  3  6  0 29 50.0000000  0  7G11G17G18G19G01G28G24
   3614569.46547  -5257208.95744  23584891.1094                   23584887.4884
        47.7504         25.5004
 -10304095.94548 -19836361.38745  20487380.1954                   20487376.1564
        50.5004         32.2504
   3381452.34847  -2019526.70743  24159399.1024                   24159397.8674
        43.7504         18.2504
  -6916935.65646 -13519110.39142  20874062.1174                   20874057.5664
        40.7504         17.7504
  -4774783.70348  -5134880.03945  22653887.2274                   22653886.8634
        49.7504         33.5004
   2102931.18048  -8920251.81644  21385276.6564                   21385273.3324
        48.2504         28.2504
   -589239.06246    -33549.48042  22270401.2814                   22270399.2034
        37.5004         17.2504
 19  3  6  0 29 55.0000000  0  7G11G17G18G19G01G28G24
   3617724.18047  -5254750.74243  23585490.6484                   23585487.8954
        46.7504         22.5004
 -10317021.85248 -19846433.50045  20484920.2114                   20484916.8324
        50.0004         30.0004
   3384264.74647  -2017335.18742  24159933.6644                   24159933.1994
        44.0004         16.7504
  -6940649.79347 -13537588.93742  20869550.1024                   20869545.0394
        43.5004         16.7504
  -4779829.48848  -5138811.82044  22652926.0634                   22652926.6884
        48.5004         29.5004
   2099932.81348  -8922588.15644  21384707.1644                   21384702.9734
        49.0004         25.5004
   -613856.199 6                  22265716.063
        37.250
 19  3  6  0 30  0.0000000  0  7G11G17G18G19G01G28G24
   3620886.89547  -5252286.29743  23586093.3834                   23586089.1094
        46.5004         21.7504
 -10329936.97348 -19856497.21944  20482463.2034                   20482459.2624
        50.0004         29.7504
   3387086.33647  -2015136.53542  24160471.0164                   24160469.5474
        43.7504         17.2504
  -6964353.23047 -13556059.13743  20865038.7504                   20865034.1334
        43.0004         18.5004
  -4784860.80548  -5142732.28944  22651969.6954                   22651969.7504
        49.5004         29.5004
   2096938.23048  -8924921.60544  21384137.2504                   21384132.7504
        48.7504         25.7504
   -638464.906 6                  22261034.375
        37.250
 19  3  6  0 30  5.0000000  0  7G11G17G18G19G01G28G24
   3624057.75047  -5249815.50443  23586696.3444                   23586692.4534
        46.5004         21.2504
 -10342841.06648 -19866552.36744  20480007.5944                   20480003.8324
        50.0004         29.7504
   3389917.27747  -2012930.59442  24161009.3054                   24161008.7424
        43.5004         16.2504
  -6988045.70747 -13574520.79743  20860529.7424                   20860525.6094
        42.7504         19.2504
  -4789877.41848  -5146641.35545  22651015.1884                   22651015.0704
        50.0004         30.5004
   2093947.60248  -8927251.96144  21383568.0634                   21383564.0164
        48.7504         27.2504
   -663065.023 6                  22256352.977
        37.250
 19  3  6  0 30 10.0000000  0  7G11G17G18G19G01G28G24
   3627236.59847  -5247338.46143  23587301.0634                   23587297.6414
        46.5004         20.7504
 -10355734.28548 -19876599.02344  20477553.8524                   20477550.1024
        50.0004         29.2504
   3392757.36347  -2010717.58242  24161550.6644                   24161549.7344
        43.5004         16.7504
  -7011727.46947 -13592974.14143  20856024.3134                   20856019.1414
        43.2504         19.5004
  -4794879.55148  -5150539.12144  22650063.1954                   22650062.9774
        50.0004         29.7504
   2090960.77748  -8929579.35944  21383000.1724                   21382995.9144
        48.7504         24.5004
   -687656.766 6                  22251672.859
        37.000
 19  3  6  0 30 15.0000000  0  7G11G17G18G19G01G28G24
   3630424.43047  -5244854.46943  23587908.2194                   23587904.7194
        47.2504         21.7504
 -10368615.61748 -19886636.43745  20475102.1254                   20475099.6334
        50.5004         31.2504
   3395607.66047  -2008496.55142  24162092.3984                   24162091.4224
        43.7504         17.7504
  -7035397.45347 -13611418.27043  20851519.3594                   20851514.5594
        43.0004         19.7504
  -4799866.12148  -5154424.77345  22649115.1954                   22649114.3134
        50.5004         30.5004
   2087978.77748  -8931902.99644  21382432.2584                   21382428.0314
        49.0004         28.0004
   -712238.852 6                  22246996.164
        36.500
 19  3  6  0 30 20.0000000  0  7G11G17G18G19G01G28G24
   3633621.22347  -5242363.44943  23588516.0474                   23588512.9964
        46.7504         22.0004
 -10381485.14848 -19896664.62144  20472653.5004                   20472650.0824
        50.0004         28.7504
   3398468.00847  -2006267.68443  24162637.6954                   24162635.9184
        44.0004         18.2504
  -7059055.66447 -13629853.25043  20847017.6644                   20847012.6254
        43.7504         19.7504
  -4804837.27348  -5158298.41044  22648167.8984                   22648168.3054
        49.0004         28.5004
   2085001.56648  -8934222.90244  21381865.6174                   21381861.7114
        48.5004         25.2504
   -736811.602 6                  22242319.164
        37.000
 19  3  6  0 30 25.0000000  0  7G11G17G18G19G01G28G24
   3636826.57847  -5239865.76643  23589126.1954                   23589122.6844
        46.2504         21.2504
 -10394343.12948 -19906683.83245  20470206.5864                   20470203.2304
        50.0004         30.2504
   3401338.10247  -2004031.28942  24163183.2114                   24163182.6684
        43.7504         17.7504
  -7082702.50447 -13648279.31243  20842518.0394                   20842512.7034
        43.2504         19.2504
  -4809793.25848  -5162160.21144  22647224.8674                   22647225.3554
        49.5004         29.2504
   2082028.76648  -8936539.36744  21381299.3984                   21381296.0354
        48.5004         26.2504
   -761375.242 6                  22237645.391
        37.750
 19  3  6  0 30 30.0000000  0  7G11G17G18G19G01G28G24
   3640040.86347  -5237361.13343  23589738.0004                   23589734.3244
        46.7504         21.2504
 -10407189.23448 -19916693.77744  20467762.1724                   20467758.6954
        49.7504         29.7504
   3404218.31647  -2001786.95742  24163731.4454                   24163730.5004
        43.5004         17.7504
  -7106337.53147 -13666696.26243  20838020.0394                   20838015.0984
        44.0004         20.2504
  -4814733.85548  -5166010.02344  22646284.3054                   22646284.9964
        49.0004         29.2504
   2079060.73448  -8938852.11344  21380735.1644                   21380731.4064
        49.0004         25.5004
   -785929.352 6                  22232972.055
        37.250
 19  3  6  0 30 35.0000000  0  7G11G17G18G19G01G28G24
   3643264.25447  -5234849.39843  23590351.6094                   23590347.8364
        47.0004         21.5004
 -10420023.37948 -19926694.41444  20465319.6094                   20465316.6134
        49.7504         29.5004
   3407108.82047  -1999534.59842  24164281.7034                   24164280.9654
        43.5004         16.2504
  -7129960.60547 -13685103.83243  20833525.2344                   20833520.0434
        44.0004         19.5004
  -4819658.77748  -5169847.61744  22645347.1644                   22645348.1844
        48.7504         28.5004
   2076097.67248  -8941160.99244  21380170.6804                   21380167.1684
        48.0004         26.0004
   -810473.766 6                  22228301.727
        36.500
 19  3  6  0 30 40.0000000  0  7G11G17G18G19G01G28G24
   3646496.69147  -5232330.63343  23590966.3594                   23590963.0354
        47.2504         21.2504
 -10432845.53548 -19936685.69944  20462879.4614                   20462876.7344
        49.5004         29.0004
   3410009.52747  -1997274.32842  24164833.7894                   24164832.4734
        43.5004         16.7504
  -7153571.71147 -13703502.09443  20829032.1954                   20829027.0514
        44.0004         20.5004
  -4824568.10248  -5173673.05544  22644413.1094                   22644413.7114
        49.0004         29.5004
   2073139.54748  -8943466.02344  21379608.6884                   21379604.2544
        49.2504         25.5004
   -835008.508 6                  22223632.945
        37.000
 19  3  6  0 30 45.0000000  0  7G11G17G18G19G01G28G24
   3649738.10547  -5229804.84843  23591583.1804                   23591580.4574
        46.5004         20.7504
 -10445655.78148 -19946667.72744  20460442.5314                   20460438.5164
        50.0004         29.7504
   3412920.39547  -1995006.11742  24165387.1724                   24165386.3714
        43.5004         15.5004
  -7177171.00447 -13721891.14843  20824541.0704                   20824536.0124
        43.7504         20.7504
  -4829461.91048  -5177486.41845  22643482.0864                   22643482.2114
        49.5004         30.5004
   2070186.32048  -8945767.26644  21379046.5634                   21379042.4574
        48.2504         26.5004
   -859533.656 6                  22218965.711
        37.000
 19  3  6  0 30 50.0000000  0  7G11G17G18G19G01G28G24
   3652988.68447  -5227271.95343  23592202.4224                   23592198.5704
        46.2504         20.7504
 -10458453.96548 -19956640.33245  20458006.3984                   20458003.3364
        49.5004         30.5004
   3415841.56647  -1992729.87542  24165942.9694                   24165942.1254
        43.7504         15.5004
  -7200758.15247 -13740270.76243  20820052.6414                   20820047.3284
        43.5004         21.2504
  -4834340.00048  -5181287.52745  22642553.9454                   22642554.0864
        49.5004         30.0004
   2067238.06347  -8948064.58644  21378483.9454                   21378481.6294
        47.7504         26.7504
   -884048.883 6                  22214300.578
        37.000
 19  3  6  0 30 55.0000000  0  7G11G17G18G19G01G28G24
   3656248.08647  -5224732.13343  23592822.8364                   23592818.8444
        47.5004         21.5004
 -10471240.22748 -19966603.64544  20455574.0634                   20455570.2304
        49.7504         29.7504
   3418772.79347  -1990445.81642  24166500.7504                   24166500.9024
        43.5004         16.2504
  -7224333.53547 -13758641.17643  20815566.6484                   20815561.3554
        43.5004         21.5004
  -4839202.66448  -5185076.60945  22641628.6414                   22641628.7304
        50.0004         30.0004
   2064294.64148  -8950358.19544  21377925.9534                   21377921.3054
        48.7504         26.2504
   -908554.574 6                  22209636.914
        37.000
 19  3  6  0 31  0.0000000  0  7G11G17G18G19G01G28G24
   3659516.80147  -5222185.07843  23593443.7274                   23593440.7154
        47.0004         21.5004
 -10484014.23848 -19976557.42645  20453142.5314                   20453139.6294
        49.7504         30.2504
   3421714.51247  -1988153.55942  24167061.0554                   24167060.3674
        43.5004         16.2504
  -7247896.61747 -13777002.03943  20811082.9844                   20811077.2894
        44.0004         20.5004
  -4844049.43748  -5188853.32845  22640706.6414                   22640706.1604
        50.0004         30.0004
   2061356.44147  -8952647.67244  21377365.4144                   21377362.0984
        47.7504         27.5004
   -933050.207 6                  22204976.227
        37.500
 19  3  6  0 31  5.0000000  0  8G11G15G17G18G19G01G28G24
   3662794.53147  -5219631.02343  23594067.9534                   23594064.6524
        46.2504         21.5004
                                  23611489.969
        24.500
 -10496776.34448 -19986501.92245  20450714.0474                   20450710.9384
        49.7504         30.0004
   3424666.35547  -1985853.39142  24167622.5314                   24167622.1804
        43.5004         16.7504
  -7271447.75847 -13795353.53543  20806600.5084                   20806595.7544
        43.7504         20.7504
  -4848880.64848  -5192617.91444  22639786.6174                   22639787.2774
        49.2504         29.5004
   2058423.12948  -8954933.37544  21376807.7734                   21376804.2504
        48.5004         26.0004
   -957536.145 6                  22200317.109
        36.750
 19  3  6  0 31 10.0000000  0  7G11G17G18G19G01G28G24
   3666081.50847  -5217069.74243  23594693.5944                   23594689.6094
        47.0004         21.2504
 -10509526.20348 -19996436.86744  20448287.6804                   20448284.7584
        49.2504         28.2504
   3427628.59047  -1983545.16442  24168186.1334                   24168185.9264
        43.5004         15.5004
  -7294986.57047 -13813695.50043  20802121.7424                   20802116.5514
        44.2504         21.0004
  -4853696.04748  -5196370.16844  22638870.4774                   22638870.4224
        49.0004         28.7504
   2055495.03148  -8957215.01644  21376251.2114                   21376247.1214
        48.5004         26.2504
   -982012.230 6                  22195659.141
        36.500
 19  3  6  0 31 15.0000000  0  7G11G17G18G19G01G28G24
   3669377.69947  -5214501.27043  23595320.9144                   23595316.9804
        47.0004         21.5004
 -10522263.86348 -20006362.33645  20445864.5554                   20445861.1954
        50.0004         30.0004
   3430601.26247  -1981228.79342  24168751.3674                   24168751.9264
        43.5004         16.7504
  -7318513.22747 -13832027.91043  20797643.9774                   20797639.4734
        42.0004         20.0004
  -4858495.63748  -5200110.09845  22637957.4304                   22637957.6254
        49.5004         30.7504
   2052572.10547  -8959492.62144  21375693.3524                   21375690.6254
        47.7504         25.0004
  -1006478.297 6                  22191003.484
        36.500
 19  3  6  0 31 20.0000000  0  7G11G17G18G19G01G28G24
   3672683.00447  -5211925.69543  23595949.4774                   23595946.3554
        46.5004         21.2504
 -10534989.39548 -20016278.32445  20443442.3364                   20443439.3754
        49.7504         30.2504
   3433584.16847  -1978904.48442  24169319.4144                   24169319.5784
        43.2504         16.2504
  -7342027.59847 -13850350.84043  20793169.9454                   20793165.2544
        42.5004         19.2504
  -4863279.47348  -5203837.75844  22637047.9224                   22637047.5164
        50.5004         29.7504
   2049654.27348  -8961766.25844  21375139.3284                   21375135.3014
        48.0004         26.0004
  -1030934.480 6                  22186349.930
        37.250
 19  3  6  0 31 25.0000000  0  7G11G17G18G19G01G28G24
   3675997.57047  -5209342.92643  23596580.2034                   23596577.0474
        46.0004         21.2504
 -10547702.64848 -20026184.75844  20441022.8054                   20441019.8634
        49.5004         29.2504
   3436577.53147  -1976571.98042  24169888.9454                   24169888.9804
        43.5004         15.5004
  -7365529.68447 -13868664.13743  20788697.9454                   20788693.0354
        43.0004         20.5004
  -4868047.41848  -5207553.07844  22636139.6094                   22636139.8054
        49.5004         29.7504
   2046741.65248  -8964035.83644  21374584.9064                   21374581.4494
        48.0004         26.0004
  -1055380.418 6                  22181697.070
        37.000
 19  3  6  0 31 30.0000000  0  7G11G17G18G19G01G28G24
   3679321.53547  -5206752.87543  23597211.2664                   23597209.8984
        45.5004         21.0004
 -10560403.55548 -20036081.60944  20438605.4614                   20438603.3754
        49.5004         28.2504
   3439581.39547  -1974231.37142  24170458.9304                   24170460.4694
        42.5004         14.7504
  -7389019.33246 -13886967.73043  20784225.2584                   20784223.9144
        37.0004         19.2504
  -4872799.49647  -5211256.01244  22635233.5554                   22635235.7074
        47.2504         28.5004
   2043834.36747  -8966301.28943  21374030.3444                   21374027.9964
        47.5004         23.0004
  -1079816.316 7                  22177046.289
        43.000
