     2.11           OBSERVATION DATA    G (GPS)             RINEX VERSION / TYPE
teqc  2019Feb25     Martin Truffer      20190308 01:04:13UTCPGM / RUN BY / DATE
Linux 2.6.32-573.12.1.x86_64|x86_64|gcc|Linux 64|=+         COMMENT
BIT 2 OF LLI FLAGS DATA COLLECTED UNDER A/S CONDITION       COMMENT
51890630                                                    MARKER NAME
5189                                                        MARKER NUMBER
-Unknown-           -Unknown-                               OBSERVER / AGENCY
0220315189          TRIMBLE 5700        2.30                REC # / TYPE / VERS
-Unknown-           TRM41249.00     NONE                    ANT # / TYPE
 -1794242.6499 -3484022.1866  5017979.8839                  APPROX POSITION XYZ
        0.0530        0.0000        0.0000                  ANTENNA: DELTA H/E/N
     1     1                                                WAVELENGTH FACT L1/2
     7    L1    L2    C1    P1    P2    S1    S2            # / TYPES OF OBSERV
    18                                                      LEAP SECONDS
 SNR is mapped to RINEX snr flag value [0-9]                COMMENT
  L1 & L2: min(max(int(snr_dBHz/6), 0), 9)                  COMMENT
  2019     3     4    20    58   20.0000000     GPS         TIME OF FIRST OBS
                                                            END OF HEADER
 19  3  4 20 58 20.0000000  0  5G05G07G09G08G30
   -101122.55956    -61202.21153  23358853.4614                   23358850.5984
        39.0004         22.5004
   -177654.10258   -117094.56656  20309119.1724                   20309115.1604
        48.2504         36.2504
     39138.35556     20389.52754  22174612.6724                   22174612.2464
        39.2504         27.2504
   -254463.65957   -161933.46855  21604895.1334                   21604894.6454
        43.0004         30.7504
   -356638.80557   -237572.79356  20578999.9384                   20578998.4304
        47.0004         36.0004
 19  3  4 20 58 25.0000000  0  5G05G07G09G08G30
   -106357.66846    -65281.56643  23357858.4064                   23357854.9384
        38.5004         21.7504
   -187195.30948   -124529.27746  20307303.4144                   20307299.5274
        48.2504         36.2504
     43672.81646     23922.85544  22175476.0704                   22175475.3054
        40.0004         27.7504
   -268779.77747   -173088.87145  21602170.8054                   21602170.4964
        43.0004         30.2504
   -376095.25047   -252733.66445  20575297.1094                   20575295.8794
        46.7504         35.5004
 19  3  4 20 58 30.0000000  0  5G05G07G09G08G30
   -111552.37946    -69329.39843  23356868.2894                   23356866.8444
        38.0004         21.0004
   -196700.00048   -131935.52746  20305494.9454                   20305490.8634
        48.2504         36.2504
     48241.54646     27482.90344  22176344.3594                   22176344.6214
        39.0004         27.0004
   -283052.48047   -184210.46545  21599454.4844                   21599454.3714
        42.7504         30.0004
   -395516.10547   -267866.79745  20571601.7114                   20571600.2194
        46.7504         35.7504
 19  3  4 20 58 35.0000000  0  5G05G07G09G08G30
   -116706.56246    -73345.66443  23355888.2974                   23355885.5984
        39.5004         21.2504
   -206167.88348   -139313.10246  20303693.2894                   20303689.3364
        48.2504         36.5004
     52844.60246     31069.70344  22177220.7734                   22177220.5984
        39.5004         27.5004
   -297281.58647   -195298.08245  21596747.1724                   21596746.5234
        43.0004         30.5004
   -414901.15647   -282972.03545  20567912.9384                   20567911.8094
        46.5004         35.5004
 19  3  4 20 58 40.0000000  0  5G05G07G09G08G30
   -121819.91846    -77330.11743  23354915.5084                   23354912.0944
        40.2504         21.5004
   -215598.72348   -146661.80946  20301898.4694                   20301894.7464
        48.2504         36.2504
     57482.42246     34683.57844  22178104.3364                   22178103.1174
        39.7504         27.5004
   -311466.84047   -206351.53145  21594047.6804                   21594047.4024
        43.0004         30.2504
   -434250.06247   -298049.10245  20564231.0004                   20564229.6094
        46.7504         35.2504
 19  3  4 20 58 45.0000000  0  6G05G07G09G08G30G27
   -126892.47746    -81282.73443  23353950.8444                   23353947.6414
        40.0004         22.2504
   -224992.44548   -153981.59846  20300111.1884                   20300106.8554
        48.2504         36.0004
     62154.89546     38324.45744  22178993.3754                   22178992.2344
        40.2504         27.5004
   -325608.17247   -217370.74644  21591356.9384                   21591356.1564
        42.7504         29.5004
   -453562.86747   -313098.04345  20560555.6094                   20560554.1844
        46.5004         35.5004
    -25622.37557    -17216.90654  22500110.5784                   22500108.9774
        42.5004         28.0004
 19  3  4 20 58 50.0000000  0  7G05G07G09G08G30G28G27
   -131923.96146    -85203.33643  23352993.3364                   23352990.2074
        40.2504         22.0004
   -234348.87548   -161272.31646  20298330.1484                   20298326.4924
        48.0004         36.2504
     66862.25846     41992.54344  22179888.5314                   22179888.3404
        39.2504         27.2504
   -339705.23047   -228355.46944  21588674.1254                   21588673.5004
        43.0004         29.7504
   -472839.31247   -328118.66446  20556887.7034                   20556886.2304
        47.5004         36.5004
   -151777.83255    -86801.51653  22254523.6254                   22254520.6094
        35.0004         19.5004
    -29155.04747    -19969.64844  22499438.0554                   22499436.5314
        42.2504         28.0004
 19  3  4 20 58 55.0000000  0  7G05G07G09G08G30G28G27
   -136914.87146    -89092.43743  23352042.8914                   23352040.6684
        38.5004         21.7504
   -243668.44947   -168534.34045  20296556.6024                   20296553.3284
        46.5004         34.7504
     71604.12146     45687.50444  22180791.3444                   22180790.5944
        40.2504         27.7504
   -353758.58647   -239306.15245  21585999.8054                   21585999.5314
        43.2504         30.7504
   -492079.81647   -343111.26245  20553225.9224                   20553225.0634
        46.0004         35.5004
   -177473.20346   -106823.80943  22249633.9064                   22249631.4694
        39.5004         22.0004
    -32645.16845    -22689.29743  22498774.5084                   22498772.5904
        33.0004         21.5004
 19  3  4 20 59  0.0000000  0  7G05G07G09G08G30G28G27
   -141863.16446    -92948.43043  23351100.9304                   23351098.8754
        36.0004         20.7504
   -252949.30947   -175766.19945  20294790.9064                   20294787.0594
        46.5004         35.0004
     76382.21946     49410.68444  22181700.0164                   22181699.1214
        39.2504         24.5004
   -367766.52046   -250221.43744  21583334.2504                   21583334.0274
        41.7504         29.7504
   -511282.54247   -358074.46245  20549571.4694                   20549570.7504
        43.5004         31.2504
   -203132.22745   -126817.78943  22244751.6954                   22244748.5044
        34.7504         21.2504
                                  22498118.813
        34.500
 19  3  4 20 59  5.0000000  0  7G05G07G09G08G30G28G27
   -146766.00045    -96768.65643  23350168.1724                   23350166.7734
        35.7504         19.2504
   -262188.16847   -182965.26245  20293032.2814                   20293028.8674
        46.5004         33.0004
     81199.91846     53164.75443  22182616.7814                   22182616.2154
        38.2504         22.7504
   -381725.53146   -261098.55544  21580677.8524                   21580677.5704
        40.5004         28.5004
   -530444.37147   -373005.74244  20545925.2034                   20545924.3524
        42.5004         24.7504
                                  22239876.773
        34.000
    -39489.906 6                  22497471.438
        38.750
 19  3  4 20 59 10.0000000  0  7G05G07G09G08G30G28G27
   -151627.879 5                  23349244.133
        34.000
   -271389.71147   -190135.32845  20291281.6804                   20291277.9614
        46.5004         34.0004
     86052.35946     56945.75844  22183541.4614                   22183539.2074
        40.2504         24.0004
   -395640.53146   -271941.44944  21578030.8914                   21578029.3594
        40.7504         28.7504
   -549569.72746   -387908.55543  20542286.5004                   20542284.9534
        40.2504         22.0004
   -254337.062 5                  22235007.289
        33.750
    -42845.742 6                  22496833.148
        39.000
 19  3  4 20 59 15.0000000  0  7G05G07G09G08G30G28G27
   -156453.609 5                  23348325.391
        33.500
   -280558.99647   -197280.22745  20289537.3444                   20289533.5354
        47.5004         35.0004
     90934.60546     60750.11344  22184469.6094                   22184469.2774
        39.0004         24.7504
   -409516.27046   -282753.71944  21575390.4694                   21575389.6914
        40.5004         28.5004
   -568663.86346   -402787.16043  20538653.0554                   20538651.6884
        41.5004         22.5004
   -279892.535 5                  22230145.320
        34.500
    -46163.73446    -28868.18054  22496202.2344                   22496199.1954
        40.2504         29.0004
 19  3  4 20 59 20.0000000  0  7G05G07G09G08G30G28G27
   -161245.566 6                  23347413.508
        41.250
   -289698.01648   -204401.55545  20287797.8054                   20287793.9574
        48.0004         35.7504
     95844.71546     64576.19143  22185403.3914                   22185402.6024
        38.7504         22.7504
   -423354.99246   -293537.12544  21572756.5314                   21572755.9224
        41.0004         29.0004
   -587728.59447   -417642.79744  20535024.9454                   20535023.5124
        44.5004         28.2504
   -305420.230 6                  22225286.313
        37.000
    -49445.98846    -31425.77744  22495577.4384                   22495575.3204
        38.5004         25.2504
 19  3  4 20 59 25.0000000  0  7G05G07G09G08G30G28G27
   -166004.617 6                  23346507.211
        37.500
   -298807.81248   -211500.09046  20286064.0314                   20286060.4654
        48.5004         37.5004
    100781.47746     68423.03543  22186343.9384                   22186342.5554
        39.5004         22.7504
   -437157.66446   -304292.44944  21570129.3364                   21570129.1604
        41.0004         27.7504
   -606765.06647   -432476.44145  20531402.6884                   20531401.4454
        42.7504         30.2504
   -330921.273 5                  22220433.141
        35.750
    -52693.61346    -33956.43744  22494958.8134                   22494957.4144
        38.5004         27.0004
 19  3  4 20 59 30.0000000  0  7G05G07G09G08G30G28G27
   -170731.06646    -98884.87153  23345607.6884                   23345601.4454
        37.0004         21.2504
   -307888.71547   -218576.12946  20284335.7424                   20284332.1564
        47.5004         36.2504
    105744.59446     72290.40644  22187286.9614                   22187287.0204
        37.5004         24.7504
   -450924.66047   -315019.97744  21567510.1334                   21567509.2704
        42.5004         28.2504
   -625773.48547   -447288.18444  20527785.4064                   20527783.5744
        43.0004         29.5004
   -356396.074 5                  22215585.844
        35.250
    -55906.82046    -36460.21943  22494347.3834                   22494346.3984
        38.2504         22.7504
 19  3  4 20 59 35.0000000  0  6G05G07G09G08G30G27
   -175424.85246   -102542.35943  23344715.8284                   23344709.3554
        39.0004         19.0004
   -316940.58247   -225629.53545  20282613.8984                   20282609.4104
        47.2504         34.7504
    110734.18846     76178.29343  22188237.1414                   22188236.3834
        39.5004         22.2504
   -464655.64146   -325719.46144  21564896.1564                   21564895.9454
        40.0004         27.2504
   -644754.09046   -462078.29343  20524173.0164                   20524171.4344
        40.5004         22.5004
    -59085.69146    -38937.26645  22493742.0474                   22493741.4414
        39.2504         30.0004
 19  3  4 20 59 40.0000000  0  7G05G07G09G08G30G28G27
   -180086.30146   -106174.66043  23343828.3674                   23343823.2154
        38.5004         19.0004
   -325963.66847   -232660.49245  20280896.6254                   20280892.5354
        47.5004         34.7504
    115750.13346     80086.94143  22189192.5474                   22189191.2154
        40.2504         23.7504
   -478351.02747   -336391.18044  21562291.2814                   21562290.1764
        42.5004         29.7504
   -663706.63747   -476846.48844  20520566.5944                   20520565.0824
        42.0004         29.0004
   -407262.60515                  22205904.422
        35.750
    -62230.31646    -41387.60943  22493144.2504                   22493142.5664
        38.2504         23.5004
 19  3  4 20 59 45.0000000  0  7G05G07G09G08G30G28G27
   -184714.88346   -109781.41042  23342947.4064                   23342943.0044
        38.7504         17.7504
   -334957.54747   -239668.71145  20279185.0164                   20279181.2504
        47.7504         34.7504
    120792.70746     84016.11343  22190151.2194                   22190150.6644
        40.2504         23.5004
   -492010.36746   -347034.82845  21559690.9224                   21559691.0824
        41.5004         30.0004
   -682630.82546   -491592.56343  20516965.3594                   20516964.1764
        40.5004         22.7504
   -432658.004 5                  22201073.227
        33.250
    -65340.22346    -43810.91044  22492551.9454                   22492550.9694
        38.7504         24.5004
 19  3  4 20 59 50.0000000  0  7G05G07G09G08G30G28G27
   1386109.84815                  23641866.398
        30.250
   1231498.91847    980946.73445  20577271.9224                   20577268.1024
        47.2504         34.5004
   1701280.27046   1315564.94143  22490908.2034                   22490907.4924
        39.7504         22.5004
   1069788.44146    869951.24644  21856892.5554                   21856891.3444
        40.7504         29.5004
    873896.36346    721285.79343  20813162.7814                   20813161.0514
        39.5004         21.7504
   1117397.73446   1069809.39853  22496039.1644                   22496036.9654
        37.7504         20.5004
   1507004.43046   1181392.70344  22791760.1644                   22791757.8134
        39.5004         28.0004
 19  3  4 20 59 55.0000000  0  7G05G07G09G08G30G28G27
   1381545.359 5                  23640996.969
        35.000
   1222561.85947    973982.76645  20575571.4614                   20575566.6454
        47.2504         34.5004
   1706374.65246   1319534.57043  22491878.0084                   22491876.6374
        39.0004         22.0004
   1056199.66846    859362.66444  21854305.2814                   21854305.5634
        38.0004         24.7504
    855027.23446    706582.51643  20809572.0704                   20809570.3954
        39.2504         21.2504
   1092054.05146   1050060.96143  22491216.5554                   22491214.0594
        37.7504         19.7504
   1503962.27846   1179022.17944  22791180.6174                   22791178.7344
        39.0004         28.7504
 19  3  4 21  0  0.0000000  0  7G05G07G09G08G30G28G27
   1377012.488 5                  23640133.680
        35.000
   1213652.85548    967040.70345  20573875.4384                   20573871.4024
        48.0004         35.5004
   1711494.46146   1323524.02343  22492851.6564                   22492851.1414
        40.0004         22.5004
   1042645.85146    848801.18144  21851727.2664                   21851725.8054
        41.2504         28.2504
    836185.07847    691900.28945  20805986.5084                   20805984.8164
        45.7504         32.2504
   1066735.82845   1030332.58643  22486398.1564                   22486396.0354
        32.0004         19.5004
   1500953.39846   1176677.63744  22790607.6174                   22790606.2774
        37.7504         25.5004
 19  3  4 21  0  5.0000000  0  7G05G07G09G08G30G28G27
   1372511.098 6                  23639277.648
        37.000
   1204771.66047    960120.28545  20572185.4694                   20572180.9924
        47.5004         34.7504
   1716639.47246   1327533.11743  22493830.9774                   22493829.6524
        38.5004         22.7504
   1029126.66446    838266.75444  21849153.2504                   21849153.2464
        40.5004         27.5004
    817369.93847    677239.15244  20802406.1414                   20802403.8324
        44.7504         28.5004
   1041442.81346   1010623.67242  22481584.6724                   22481583.1484
        36.2504         17.7504
   1497977.80146   1174358.96144  22790041.6884                   22790039.8914
        38.2504         26.2504
 19  3  4 21  0 10.0000000  0  7G05G07G09G08G30G28G27
   1368041.570 6                  23638427.367
        40.500
   1195918.93447    953222.05145  20570501.4064                   20570497.1024
        47.7504         35.5004
   1721810.46146   1331562.44143  22494814.9384                   22494813.5004
        39.0004         22.7504
   1015642.83246    827759.89144  21846587.3054                   21846587.3984
        40.5004         28.7504
    798582.37647    662599.49545  20798831.0474                   20798829.1524
        45.5004         32.2504
   1016175.63345    990935.10242  22476777.4694                   22476774.8714
        33.7504         16.7504
   1495036.03546   1172066.68444  22789481.7504                   22789479.9694
        38.2504         26.2504
 19  3  4 21  0 15.0000000  0  7G05G07G09G08G30G28G27
   1363604.297 5                  23637582.828
        35.500
   1187094.78148    946346.05145  20568822.0234                   20568817.2114
        48.2504         35.5004
   1727007.37146   1335611.96543  22495804.1884                   22495802.1684
        40.0004         22.7504
   1002194.37547    817280.56844  21844030.1724                   21844027.9884
        42.0004         29.2504
    779822.46147    647981.36744  20795260.6414                   20795259.1994
        44.5004         29.2504
    990934.68845    971266.81342  22471974.2734                   22471971.7664
        33.2504         17.7504
   1492128.19546   1169800.78144  22788929.2274                   22788926.5274
        37.5004         24.0004
 19  3  4 21  0 20.0000000  0  7G05G07G09G08G30G28G27
   1359199.27046   1114329.73853  23636744.6954                   23636741.0234
        40.0004         19.0004
   1178299.11947    939492.32045  20567148.1094                   20567143.8834
        47.2504         35.2504
   1732230.06346   1339681.64143  22496797.5004                   22496796.7974
        39.2504         22.7504
    988781.33347    806828.84344  21841476.3834                   21841475.8444
        42.5004         28.5004
    761090.29047    633384.90545  20791696.6174                   20791694.5474
        45.0004         31.0004
    965719.66445    951618.71142  22467174.8674                   22467173.7384
        33.2504         16.7504
   1489254.69545   1167561.70344  22788381.1484                   22788379.9344
        32.5004         25.5004
 19  3  4 21  0 25.0000000  0  6G05G07G09G08G30G28
                                  23635912.711
        41.500
   1169532.66247    934572.34155  20565479.6724                   20565468.0204
        46.7504         31.5004
                                  22497796.2274                   22497796.7114
        40.2504         26.5004
    975404.45746    796405.28543  21838930.9304                   21838930.8014
        40.0004         21.7504
    742386.17647    618810.30945  20788136.1254                   20788135.6724
        46.7504         30.7504
    940532.05957    931992.38353  22462383.8054                   22462381.9064
        45.2504         19.2504
