     2.11           OBSERVATION DATA    G (GPS)             RINEX VERSION / TYPE
teqc  2019Feb25     Martin Truffer      20190308 01:05:55UTCPGM / RUN BY / DATE
Linux 2.6.32-573.12.1.x86_64|x86_64|gcc|Linux 64|=+         COMMENT
BIT 2 OF LLI FLAGS DATA COLLECTED UNDER A/S CONDITION       COMMENT
51890660                                                    MARKER NAME
5189                                                        MARKER NUMBER
-Unknown-           -Unknown-                               OBSERVER / AGENCY
0220315189          TRIMBLE 5700        2.30                REC # / TYPE / VERS
-Unknown-           TRM41249.00     NONE                    ANT # / TYPE
 -1794246.2707 -3484120.7656  5017913.8116                  APPROX POSITION XYZ
        0.0530        0.0000        0.0000                  ANTENNA: DELTA H/E/N
     1     1                                                WAVELENGTH FACT L1/2
     7    L1    L2    C1    P1    P2    S1    S2            # / TYPES OF OBSERV
    18                                                      LEAP SECONDS
 SNR is mapped to RINEX snr flag value [0-9]                COMMENT
  L1 & L2: min(max(int(snr_dBHz/6), 0), 9)                  COMMENT
  2019     3     7     0     0   25.0000000     GPS         TIME OF FIRST OBS
                                                            END OF HEADER
 19  3  7  0  0 25.0000000  0  3G01G17G13
    -50944.50057  -2338318.91055  22472007.2194                   22472006.9614
        46.7504         30.2504
   -431473.81658  -4646474.99655  20725948.3914                   20725945.1884
        48.2504         33.0004
    116223.75956    466881.75853  22628011.9614                   22628011.4264
        40.0004         18.2504
 19  3  7  0  0 30.0000000  0  3G01G17G13
    -59054.61347  -2344638.51644  22470463.8674                   22470464.3484
        46.0004         29.2504
   -446197.34848  -4657947.93045  20723146.6644                   20723143.9384
        48.7504         34.0004
    120649.17246    470330.16442  22628853.9064                   22628853.5204
        41.5004         17.2504
 19  3  7  0  0 35.0000000  0  3G01G17G13
    -67155.80947  -2350951.12145  22468921.6484                   22468923.0944
        46.0004         30.5004
   -460914.54348  -4669415.85945  20720345.9224                   20720343.7734
        48.5004         34.0004
    125080.03546    473782.72742  22629697.0634                   22629695.8484
        40.5004         17.2504
 19  3  7  0  0 40.0000000  0  3G01G17G13
    -75247.35947  -2357256.22745  22467382.2274                   22467384.5164
        46.0004         31.5004
   -475628.44148  -4680881.24245  20717546.0704                   20717544.5664
        48.7504         35.5004
    129509.72346    477234.48443  22630540.0784                   22630538.9774
        40.2504         18.2504
 19  3  7  0  0 45.0000000  0  3G01G17G13
    -83325.15647  -2363550.62144  22465844.8834                   22465847.6954
        46.2504         29.5004
   -490333.38748  -4692339.64845  20714747.6884                   20714747.4694
        49.0004         34.7504
    133944.91046    480690.43443  22631384.0084                   22631383.0864
        41.7504         18.5004
 19  3  7  0  0 50.0000000  0  3G01G17G13
    -91387.81247  -2369833.19145  22464308.8284                   22464314.2704
        44.7504         30.7504
   -505026.49247  -4703788.80545  20711951.0164                   20711951.7624
        47.0004         34.0004
    138389.71546    484153.92242  22632229.9384                   22632229.5664
        38.5004         17.7504
 19  3  7  0  0 55.0000000  0  3G01G17G13
    -99432.14847  -2376101.51644  22462779.8674                   22462782.7304
        45.2504         29.5004
   -519706.96148  -4715228.13745  20709157.9534                   20709156.9964
        48.5004         34.0004
    142844.10546    487624.91042  22633077.5394                   22633077.1414
        41.0004         17.2504
 19  3  7  0  1  0.0000000  0  3G01G17G13
   -107462.84047  -2382359.18445  22461251.8674                   22461253.3524
        46.2504         31.0004
   -534378.97347  -4726660.85945  20706366.4224                   20706364.8444
        47.7504         34.2504
    147302.87146    491099.20342  22633926.3134                   22633924.9384
        40.2504         17.2504
 19  3  7  0  1  5.0000000  0  3G01G17G13
   -115477.50447  -2388604.37145  22459726.2584                   22459728.2854
        46.2504         30.0004
   -549038.88748  -4738084.16445  20703576.4224                   20703575.6334
        48.5004         34.5004
    151771.68046    494581.45743  22634775.9694                   22634775.2194
        41.2504         18.5004
 19  3  7  0  1 10.0000000  0  3G01G17G13
   -123481.13747  -2394840.98044  22458203.4224                   22458205.5394
        45.7504         28.5004
   -563692.04348  -4749502.22345  20700787.6724                   20700786.4774
        48.5004         34.0004
    156244.40646    498066.68042  22635627.7114                   22635626.3594
        40.7504         17.7504
 19  3  7  0  1 15.0000000  0  3G01G17G13
   -131475.93747  -2401070.69945  22456682.0704                   22456684.0824
        46.0004         30.5004
   -578340.05148  -4760916.26646  20698000.7894                   20697999.2234
        49.0004         36.0004
    160719.76246    501553.93443  22636479.1334                   22636478.1174
        40.5004         18.2504
 19  3  7  0  1 20.0000000  0  3G01G17G13
                                  22455163.5004                   22455165.6484
        44.5004         30.5004
                                  20695215.9064                   20695213.8914
        48.0004         35.5004
                                  22637333.0864                   22637330.9734
        41.2504         19.7504
 19  3  7  0  1 25.0000000  0  3G01G17G13
   -147413.10557  -2413489.27054  22453648.8914                   22453651.3914
        45.2504         29.5004
   -607599.71948  -4783715.99645  20692432.4064                   20692431.4534
        48.7504         34.5004
    169696.22757    508548.59853  22638186.9614                   22638186.4304
        42.0004         19.2504
 19  3  7  0  1 30.0000000  0  3G01G17G13
   -155348.60247  -2419672.77345  22452139.2034                   22452142.2544
        46.5004         30.5004
   -622200.52748  -4795093.25845  20689654.3364                   20689653.5234
        48.7504         35.0004
    174210.92646    512066.52043  22639046.4304                   22639045.9344
        40.7504         20.0004
 19  3  7  0  1 35.0000000  0  3G01G17G13
   -163272.03547  -2425846.87144  22450631.1334                   22450634.3754
        45.2504         29.0004
   -636793.39148  -4806464.31245  20686877.2344                   20686875.8284
        48.0004         34.5004
                                  22639905.9454                   22639905.1684
        40.7504         19.2504
 19  3  7  0  1 40.0000000  0  3G01G17G13
   -171169.99257  -2431262.19955  22449126.9384                   22449129.0664
        45.7504         31.5004
   -651370.48458  -4816458.77056  20684102.2504                   20684101.0124
        48.2504         39.2504
    183260.05957    519117.96153  22640767.2504                   22640767.4774
        42.2504         18.5004
 19  3  7  0  1 45.0000000  0  3G01G17G13
   -179062.89247  -2437412.43345  22447625.1484                   22447628.2544
        45.7504         32.2504
   -665944.39358  -4827815.00956  20681329.1254                   20681327.6134
        49.5004         38.7504
    187790.78957    522648.32053  22641629.9304                   22641629.7194
        42.2504         19.2504
 19  3  7  0  1 50.0000000  0  3G01G17G13
   -186940.41447  -2443550.76245  22446125.2814                   22446128.1414
        46.2504         33.0004
   -680505.34858  -4839160.99656  20678557.6484                   20678557.6254
        48.5004         36.5004
    192330.84856    526186.03553  22642493.5084                   22642493.2624
        41.0004         19.2504
 19  3  7  0  1 55.0000000  0  3G01G17G13
   -194797.16047  -2449672.91444  22444630.5314                   22444632.4454
        44.7504         28.5004
   -695051.75047  -4850495.88745  20675789.6334                   20675787.6724
        47.7504         34.2504
    196882.98846    529733.12943  22643359.2114                   22643359.1134
        40.5004         18.5004
 19  3  7  0  2  0.0000000  0  2G17G13
                                  20673024.2974                   20673023.2114
        46.7504         33.5004
                                  22644228.8524                   22644226.9064
        41.0004         18.5004
 19  3  7  0  2 10.0000000  0  1G01
                                  22440159.5004                   22440164.4304
        44.5004         29.2504
 19  3  7  0  2 15.0000000  0  1G01
    -22786.47757  -2470069.02956  22438675.2114                   22438677.5204
        47.0004         36.0004
 19  3  7  0  2 20.0000000  0  3G01G17G13
    -30571.05447  -2476134.85755  22437193.2894                   22437197.5164
        45.7504         30.5004
    -17076.48458  -4879530.43056  20661975.6804                   20661974.2344
        48.7504         36.0004
      5138.24616                  22647709.578
        41.000
 19  3  7  0  2 25.0000000  0  1G17
                                  20659222.2814                   20659216.2774
        30.5004         32.0004
 19  3  7  0  2 30.0000000  0  1G01
                                  22434239.727
        41.750
 19  3  7  0  2 35.0000000  0  3G01G17G13
                                  22432763.984
        44.250
                                  20653708.4924                   20653702.9964
        47.7504         38.7504
                                  22650335.0944                   22650331.1764
        43.0004         31.5004
 19  3  7  0  2 45.0000000  0  1G17
                                  20648201.2584                   20648200.5634
        48.7504         32.7504
 19  3  7  0  2 50.0000000  0  3G01G17G13
    -16448.91457  -2504682.78155  22428348.6564                   22428347.9144
        46.0004         31.5004
    -50338.45758  -4930974.08956  20645450.8674                   20645444.5354
        48.5004         36.7504
      5349.59817                  22652960.273
        43.000
 19  3  7  0  2 55.0000000  0  3G01G17G13
    -24151.37547  -2510684.75445  22426883.6484                   22426884.2424
        45.0004         30.0004
    -64784.12948  -4942230.50446  20642701.9614                   20642698.9344
        48.2504         37.5004
      9964.551 7                  22653838.398
        42.250
 19  3  7  0  3  0.0000000  0  3G01G17G13
    -31842.99847  -2516678.18545  22425420.2664                   22425420.1334
        45.5004         30.2504
    -79223.42248  -4953481.89546  20639954.3834                   20639950.9574
        48.2504         36.7504
     14582.971 6                  22654717.961
        40.750
 19  3  7  0  3  5.0000000  0  3G01G17G13
                                  22423960.4064                   22423959.2624
        45.5004         32.2504
    -93644.06658  -4963820.31656  20637209.5554                   20637204.6764
        48.5004         39.0004
                                  22655599.0394                   22655595.0904
        43.0004         32.2504
 19  3  7  0  3 10.0000000  0  3G01G17G13
    -14097.51647  -2526229.60944  22422505.0634                   22422504.9344
        44.2504         28.0004
                                  20634468.8524                   20634465.4144
        48.0004         34.5004
     23853.83646    548346.23853  22656483.9774                   22656482.3634
        41.2504         22.0004
 19  3  7  0  3 15.0000000  0  3G01G17G13
    -21733.88357  -2532180.00855  22421050.6564                   22421051.1174
        45.0004         30.5004
   -122449.78148  -4986266.32846  20631728.1644                   20631724.8324
        48.2504         36.7504
     28504.59857    551970.23053  22657366.6414                   22657365.7074
        42.0004         21.5004
 19  3  7  0  3 20.0000000  0  3G01G17G13
    -29354.91047  -2538118.53944  22419600.3834                   22419601.0634
        44.5004         29.0004
   -136833.13317                  20628990.313
        47.500
     33164.30916                  22658253.922
        40.750
 19  3  7  0  3 25.0000000  0  3G01G17G13
     -3952.37957  -2541201.02555  22418153.2034                   22418151.4064
        45.2504         35.5004
   -150460.84418                  20626255.438
        48.750
     37828.13717                  22659142.883
        43.000
 19  3  7  0  3 30.0000000  0  3G01G17G13
    -11540.09847  -2547113.53145  22416710.4144                   22416710.4454
        47.0004         33.2504
   -164822.64548  -5013910.42155  20623522.9614                   20623520.3794
        48.2504         34.7504
     42503.988 6                  22660032.820
        40.500
 19  3  7  0  3 35.0000000  0  3G01G17G13
                                  22415270.1724                   22415267.1374
        43.2504         30.2504
                                  20620795.1414                   20620787.5314
        44.5004         34.2504
                                  22660925.148
        37.250
 19  3  7  0  3 40.0000000  0  3G01G17G13
    -26685.17257  -2558443.25955  22413827.2424                   22413825.7274
        46.2504         33.5004
    -12075.67658  -5030947.29356  20618059.8594                   20618056.3634
        48.5004         38.0004
     51862.19517                  22661813.344
        42.000
 19  3  7  0  3 45.0000000  0  3G01G17G13
    -34253.21557  -2564340.17255  22412387.4534                   22412385.8014
        45.0004         30.5004
    -26433.15648  -5042134.98845  20615328.7194                   20615323.3954
        48.7504         35.7504
     56532.809 7                  22662703.422
        42.500
 19  3  7  0  3 50.0000000  0  3G01G17G13
    -41813.28957  -2570231.12155  22410947.7504                   22410949.7504
        45.7504         32.2504
                                  20612610.336
        47.000
     61203.73857    560115.70353  22663590.2114                   22663587.1024
        42.5004         21.2504
 19  3  7  0  3 55.0000000  0  3G01G17G13
    -49352.46947  -2576105.83245  22409513.0634                   22409514.8714
        45.7504         30.2504
                                  20609922.328
        45.500
     65888.91446    563766.52043  22664482.2894                   22664480.5434
        41.5004         22.5004
 19  3  7  0  4  0.0000000  0  3G01G17G13
    -56878.48047  -2581970.25444  22408081.1254                   22408083.0864
        45.2504         29.5004
                                  20607238.805
        45.000
     70580.15647    567422.02343  22665375.6564                   22665373.3754
        42.2504         23.5004
 19  3  7  0  4  5.0000000  0  3G01G17G13
    -64392.82047  -2587825.56244  22406650.6414                   22406652.9734
        44.5004         29.0004
                                  20604559.477
        44.000
     75281.70347    571085.55943  22666269.9224                   22666268.0204
        43.0004         23.0004
 19  3  7  0  4 10.0000000  0  3G01G17G13
    -71885.98847  -2593664.41445  22405225.3054                   22405227.0784
        44.5004         30.2504
                                  20601880.523
        41.750
     79997.94147    574760.53543  22667167.1724                   22667165.8364
        42.7504         23.0004
 19  3  7  0  4 15.0000000  0  2G01G13
    -79357.93447  -2599486.71144  22403803.4844                   22403804.8204
        44.7504         29.5004
     84727.16447    578445.63343  22668067.7734                   22668065.6604
        42.7504         22.5004
 19  3  7  0  4 20.0000000  0  2G01G13
    -86805.86347  -2605290.28545  22402385.9064                   22402387.4264
        46.0004         31.5004
     89467.22346    582139.16843  22668969.1094                   22668967.7544
        40.0004         22.5004
 19  3  7  0  4 25.0000000  0  3G01G17G13
    -94231.51647  -2611076.49645  22400973.3524                   22400974.5084
        46.0004         33.5004
   -139390.93458  -5059920.57455  20593551.8444                   20593549.6914
        48.0004         35.2504
     94220.85946    585843.28143  22669873.8364                   22669872.6254
        40.2504         21.2504
 19  3  7  0  4 30.0000000  0  3G01G17G13
   -101637.27747  -2616847.20745  22399563.3444                   22399564.7114
        45.0004         31.0004
   -153625.55948  -5071012.49245  20590843.1024                   20590841.5514
        48.5004         35.0004
     98982.69546    589553.89143  22670779.7664                   22670778.3204
        41.2504         19.7504
 19  3  7  0  4 35.0000000  0  3G01G17G13
   -109037.59847  -2622613.70745  22398155.7034                   22398156.5594
        45.5004         30.0004
   -167856.83648  -5082101.79545  20588135.2584                   20588133.4384
        49.5004         35.5004
    103743.87047    593263.82343  22671686.3594                   22671684.8484
        42.2504         20.5004
 19  3  7  0  4 40.0000000  0  3G01G17G13
   -116436.44547  -2628379.06244  22396746.8834                   22396750.5124
        43.5004         29.2504
   -182091.19948  -5093193.53146  20585425.7114                   20585426.0904
        49.7504         38.0004
    108499.65646    596969.62543  22672589.7974                   22672590.1374
        41.7504         23.0004
 19  3  7  0  4 45.0000000  0  3G01G17G13
   -123834.77747  -2634143.92644  22395339.2974                   22395342.4384
        43.5004         25.0004
   -196323.41048  -5104283.51246  20582717.9534                   20582717.2304
        50.0004         36.5004
    113256.70747    600676.48043  22673495.6414                   22673495.5474
        42.2504         22.5004
 19  3  7  0  4 50.0000000  0  3G01G17G13
   -131225.87147  -2639903.21544  22393933.6414                   22393935.7034
        43.5004         27.0004
   -210542.58248  -5115363.38346  20580012.5784                   20580010.8054
        50.0004         36.2504
    118029.39146    604395.44543  22674405.2814                   22674403.9734
        41.7504         22.7504
 19  3  7  0  4 55.0000000  0  3G01G17G13
   -138602.05947  -2645650.87544  22392529.8364                   22392529.6954
        43.7504         27.0004
   -224746.71148  -5126431.50446  20577309.9614                   20577305.7894
        50.2504         36.7504
    122817.60947    608126.53143  22675316.2894                   22675313.5744
        42.5004         22.5004
 19  3  7  0  5  0.0000000  0  3G01G17G13
   -145969.51646  -2651391.75843  22391128.5474                   22391128.2034
        41.2504         22.7504
   -238941.89548  -5137492.68746  20574608.6954                   20574605.5204
        50.5004         37.0004
    127615.75847    611865.34044  22676229.4454                   22676225.8984
        44.5004         26.5004
 19  3  7  0  5  5.0000000  0  3G01G17G13
   -153324.25847  -2657122.74243  22389728.2584                   22389728.7974
        42.0004         23.0004
   -253127.03548  -5148546.02346  20571909.5004                   20571906.1214
        50.5004         36.5004
    132422.52747    615610.89544  22677143.1884                   22677140.6334
        43.2504         25.2504
 19  3  7  0  5 10.0000000  0  3G01G17G13
   -160667.93746  -2662845.07044  22388330.9144                   22388332.0514
        41.5004         27.0004
   -267304.17248  -5159593.14146  20569211.4384                   20569210.1994
        50.0004         36.0004
    137234.62147    619360.60243  22678059.6564                   22678056.9144
        44.0004         22.5004
 19  3  7  0  5 15.0000000  0  3G01G17G13
   -168004.76647  -2668562.08643  22386934.7894                   22386937.0824
        42.0004         22.5004
   -281475.11448  -5170635.43845  20566514.5784                   20566515.0274
        49.7504         35.5004
    142052.96147    623115.14543  22678976.0234                   22678974.9184
        43.0004         23.2504
 19  3  7  0  5 20.0000000  0  3G01G17G13
   -175326.64546  -2674267.46543  22385541.3524                   22385544.5744
        40.2504         22.5004
   -295638.91848  -5181672.17645  20563819.3134                   20563820.5124
        49.7504         35.0004
    146872.54747    626870.64843  22679893.5084                   22679892.9184
        44.5004         22.5004
 19  3  7  0  5 25.0000000  0  3G01G17G13
   1392780.42247  -1452365.84444  22683941.8524                   22683945.6994
        43.5004         24.5004
   1265623.52048  -3965104.04746  20860917.2664                   20860918.4694
        50.0004         36.0004
   1727112.55947   1858226.49243  22980602.9924                   22980602.6254
        43.5004         22.7504
 19  3  7  0  5 30.0000000  0  3G01G17G13
   1385472.47747  -1458060.38344  22682551.0004                   22682555.6764
        44.2504         26.0004
   1251470.60948  -3976132.31645  20858224.3674                   20858225.2544
        50.0004         35.2504
   1731941.24647   1861989.09043  22981521.5784                   22981521.9534
        43.5004         22.7504
 19  3  7  0  5 35.0000000  0  3G01G17G13
   1378181.41447  -1463741.69544  22681164.0234                   22681167.8284
        44.2504         26.0004
   1237333.52348  -3987148.19545  20855533.9304                   20855534.9774
        50.0004         35.2504
   1736784.30947   1865762.91843  22982443.6024                   22982443.7504
        43.5004         22.7504
 19  3  7  0  5 40.0000000  0  3G01G17G13
   1370911.38756  -1469406.66853  22679783.0004                   22679785.5704
        41.5004         23.0004
   1223201.94557  -3998159.81255  20852849.4144                   20852847.5984
        47.7504         33.7504
   1741622.10956   1869532.64153  22983365.6724                   22983364.4304
        41.5004         22.5004
 19  3  7  0  5 45.0000000  0  3G01G17G13
   1363652.57047  -1475062.84844  22678399.2734                   22678405.3554
        43.5004         24.7504
   1209076.20348  -4009166.88345  20850156.5234                   20850159.6024
        50.0004         35.5004
   1746461.59047   1873303.66443  22984285.2504                   22984286.3594
        44.0004         22.5004
 19  3  7  0  5 50.0000000  0  3G01G17G13
   1356398.05547  -1480715.78544  22677018.2274                   22677025.3954
        42.2504         24.0004
   1194952.57448  -4020172.35545  20847468.7894                   20847473.5864
        49.5004         34.0004
   1751299.86747   1877073.69143  22985205.4224                   22985207.9304
        44.7504         23.0004
 19  3  7  0  5 55.0000000  0  3G01G17G13
   1349155.09447  -1486359.61343  22675640.5084                   22675647.1954
        42.7504         22.7504
   1180828.94548  -4031177.76645  20844781.6484                   20844784.9304
        50.0004         35.0004
   1756131.11747   1880838.30944  22986124.8594                   22986127.2114
        43.5004         24.0004
 19  3  7  0  6  0.0000000  0  3G01G17G13
   1341925.81547  -1491992.83543  22674264.5164                   22674270.7344
        43.0004         23.7504
   1166714.11748  -4042176.33246  20842095.0004                   20842096.5434
        49.5004         36.0004
   1760966.98047   1884606.50844  22987044.1414                   22987046.6724
        43.0004         26.2504
 19  3  7  0  6  5.0000000  0  3G01G17G13
   1334698.13347  -1497624.77044  22672889.8284                   22672894.7234
        43.0004         24.7504
   1152604.05148  -4053171.16046  20839410.8834                   20839411.2074
        51.2504         36.5004
   1765808.81347   1888379.37943  22987966.6564                   22987967.9144
        44.5004         23.7504
 19  3  7  0  6 10.0000000  0  3G01G17G13
   1327490.79746  -1503240.84843  22671517.8204                   22671523.6174
        39.0004         22.5004
   1138496.90247  -4064163.73845  20836726.1644                   20836730.4614
        46.5004         35.0004
   1770641.84846   1892145.39843  22988886.5634                   22988888.7154
        39.5004         23.2504
 19  3  7  0  6 15.0000000  0  3G01G17G13
   1320275.83247  -1508862.92243  22670144.4694                   22670151.7274
        43.0004         22.7504
   1124391.13348  -4075155.25045  20834041.4304                   20834046.1764
        49.7504         34.5004
   1775482.12147   1895917.02743  22989807.0554                   22989810.8954
        43.5004         22.7504
 19  3  7  0  6 20.0000000  0  3G01G17G13
   1313066.28546  -1514480.74643  22668772.8984                   22668779.5784
        41.2504         23.5004
   1110280.36848  -4086150.64845  20831355.9694                   20831359.2384
        48.0004         34.7504
   1780310.51347   1899679.35644  22990726.0944                   22990729.1454
        42.5004         24.5004
 19  3  7  0  6 25.0000000  0  3G01G17G13
   1305867.12556  -1520090.23053  22667402.2974                   22667408.8284
        41.7504         21.7504
   1096177.39858  -4097139.94155  20828672.3914                   20828673.0704
        49.2504         35.5004
   1785144.65657   1903446.03554  22991645.7194                   22991648.6914
        45.0004         25.5004
 19  3  7  0  6 30.0000000  0  3G01G17G13
   1298690.03047  -1525682.74943  22666036.9534                   22666042.0084
        43.0004         22.7504
   1082086.25448  -4108120.03546  20825991.1954                   20825992.7504
        49.5004         36.7504
   1789983.23447   1907216.35545  22992567.2424                   22992569.3014
        45.0004         30.5004
 19  3  7  0  6 35.0000000  0  3G01G17G13
   1291533.32047  -1531259.39143  22664674.3284                   22664679.3204
        42.0004         23.7504
   1068005.45348  -4119092.07845  20823311.6414                   20823312.2504
        49.0004         35.0004
   1794827.21946   1910990.86743  22993488.4924                   22993489.9884
        41.0004         22.7504
 19  3  7  0  6 40.0000000  0  3G01G17G13
   1284389.89347  -1536825.69544  22663315.8914                   22663319.3054
        45.0004         27.7504
   1053929.19548  -4130060.58645  20820635.0004                   20820633.5554
        49.7504         35.5004
   1799670.37546   1914764.76243  22994410.7194                   22994411.1484
        41.2504         22.5004
 19  3  7  0  6 45.0000000  0  3G01G17G13
   1277278.37147  -1542367.14544  22661962.3134                   22661965.5044
        44.2504         26.7504
   1039872.21948  -4141014.05945  20817957.9144                   20817957.7384
        49.0004         34.0004
   1804520.25846   1918543.94543  22995333.2034                   22995334.1914
        41.7504         20.7504
 19  3  7  0  6 50.0000000  0  3G01G17G13
   1270197.50447  -1547884.69944  22660615.2114                   22660617.6334
        44.2504         26.7504
   1025839.50048  -4151948.65245  20815287.8364                   20815286.6884
        49.0004         34.5004
   1809385.31347   1922334.86743  22996258.8914                   22996259.3204
        42.0004         19.7504
 19  3  7  0  6 55.0000000  0  3G01G17G13
   1263142.18847  -1553382.34444  22659272.1804                   22659274.6214
        44.5004         27.0004
   1011827.82448  -4162866.84045  20812621.5394                   20812620.5984
        48.7504         34.5004
   1814267.31347   1926139.03143  22997188.7584                   22997187.7624
        42.0004         19.7504
 19  3  7  0  7  0.0000000  0  3G01G17G13
   1256114.46947  -1558858.49244  22657934.9454                   22657937.4184
        44.5004         28.5004
    997839.26648  -4173767.01245  20809959.4924                   20809958.7894
        49.0004         34.5004
   1819168.39847   1929958.05543  22998120.6804                   22998120.2234
        42.2504         20.0004
 19  3  7  0  7  5.0000000  0  3G01G17G13
   1249113.22347  -1564314.00044  22656602.7274                   22656604.8874
        44.2504         26.7504
    983872.68048  -4184650.06645  20807301.6414                   20807300.8754
        49.0004         34.7504
   1824087.35247   1933790.98443  22999056.9774                   22999056.1844
        42.0004         19.7504
 19  3  7  0  7 10.0000000  0  3G01G17G13
   1242136.54347  -1569750.37944  22655275.1414                   22655277.4064
        44.2504         28.5004
    969926.18048  -4195517.47345  20804647.9384                   20804646.7194
        49.0004         34.2504
   1829022.24646   1937636.38743  22999995.9774                   22999994.6954
        41.7504         19.0004
 19  3  7  0  7 15.0000000  0  3G01G17G13
   1235182.43847  -1575169.16444  22653951.3754                   22653954.2664
        44.2504         27.7504
    955997.86748  -4206370.69545  20801997.3364                   20801996.1374
        49.0004         34.2504
   1833971.16447   1941492.66443  23000937.3204                   23000936.3984
        42.5004         18.2504
 19  3  7  0  7 20.0000000  0  3G01G17G13
   1228249.82047  -1580571.19944  22652632.6564                   22652635.0984
        44.0004         27.7504
    942086.48448  -4217210.73045  20799350.1024                   20799349.1804
        48.7504         34.5004
   1838932.92647   1945358.96543  23001881.4924                   23001880.7074
        42.0004         18.2504
 19  3  7  0  7 25.0000000  0  3G01G17G13
   1221337.50447  -1585957.42244  22651317.4844                   22651319.4574
        44.2504         27.2504
    928190.94948  -4228038.42245  20796705.9614                   20796704.9184
        48.7504         34.2504
   1843906.39147   1949234.39143  23002827.8594                   23002827.0944
        42.0004         19.0004
 19  3  7  0  7 30.0000000  0  3G01G17G13
   1214444.32447  -1591328.72744  22650005.7034                   22650007.8794
        42.2504         26.7504
    914310.17248  -4238854.61745  20794064.5234                   20794063.3524
        48.7504         34.5004
   1848890.39846   1953118.03543  23003776.7814                   23003775.6254
        41.7504         19.2504
 19  3  7  0  7 35.0000000  0  3G01G17G13
   1207569.99246  -1596685.34843  22648695.9924                   22648700.6844
        37.0004         21.5004
    900443.63348  -4249659.76646  20791425.0944                   20791425.1024
        49.2504         36.7504
   1853884.49646   1957009.48043  23004725.8444                   23004726.0864
        40.7504         21.5004
 19  3  7  0  7 40.0000000  0  3G01G17G13
   1200714.21946  -1602027.62943  22647392.4534                   22647396.5084
        40.7504         21.7504
    886591.17648  -4260453.86745  20788789.2274                   20788789.0164
        48.2504         35.2504
   1858888.61746   1960908.81343  23005678.0784                   23005678.6454
        41.2504         20.2504
 19  3  7  0  7 45.0000000  0  3G01G17G13
   1193874.72747  -1607357.11343  22646090.3524                   22646094.8634
        42.2504         19.7504
    872750.52048  -4271238.76245  20786155.5864                   20786154.3324
        48.0004         34.2504
   1863900.35246   1964814.08243  23006632.1804                   23006631.6564
        41.5004         19.7504
 19  3  7  0  7 50.0000000  0  3G01G17G13
   1187052.69146  -1612672.93443  22644792.7584                   22644796.4614
        39.7504         18.5004
    858922.74647  -4282013.64545  20783524.4224                   20783524.1914
        47.2504         33.2504
   1868920.80947   1968726.15643  23007587.6564                   23007587.5044
        43.0004         19.5004
 19  3  7  0  7 55.0000000  0  3G01G17G13
   1180247.97346  -1617975.25043  22643497.2894                   22643501.2704
        41.0004         19.2504
    845107.84048  -4292778.51245  20780895.4694                   20780894.4804
        49.5004         35.5004
   1873950.07046   1972645.01643  23008544.6254                   23008543.9024
        40.5004         20.5004
 19  3  7  0  8  0.0000000  0  3G01G17G13
   1173460.96546  -1623263.90643  22642206.3674                   22642209.7934
        39.7504         20.5004
    831306.21948  -4303533.03946  20778269.4774                   20778269.2384
        49.0004         37.0004
   1878988.25046   1976570.92643  23009503.9534                   23009503.2814
        41.0004         20.5004
 19  3  7  0  8  5.0000000  0  3G01G17G13
                                  22640917.406
        36.500
    817517.51647  -4314277.46145  20775644.7344                   20775644.6174
        46.0004         30.7504
   1884035.15246   1980503.52343  23010463.5634                   23010463.8204
        40.0004         20.5004
 19  3  7  0  8 10.0000000  0  3G01G17G13
   1159937.336 6                  22639633.008
        40.000
    803739.93048  -4325013.26645  20773023.6804                   20773022.8594
        48.0004         33.0004
   1889088.80546   1984441.49243  23011425.9614                   23011424.7704
        41.5004         21.0004
 19  3  7  0  8 15.0000000  0  3G01G17G13
   1153198.152 6                  22638350.422
        38.750
    789972.74648  -4335740.93045  20770403.4534                   20770402.2774
        48.5004         35.0004
   1894148.67247   1988384.15643  23012388.5474                   23012387.8674
        43.0004         19.5004
 19  3  7  0  8 20.0000000  0  3G01G17G13
   1146474.047 7                  22637071.109
        42.500
    776216.08648  -4346460.39545  20767785.7504                   20767784.6994
        49.5004         35.2504
   1899214.79346   1992331.82843  23013352.1724                   23013352.0944
        41.0004         19.2504
 19  3  7  0  8 25.0000000  0  3G01G17G13
   1139766.438 7                  22635794.648
        43.750
    762471.59048  -4357170.41045  20765170.4924                   20765169.2894
        49.0004         35.5004
   1904288.73046   1996285.43843  23014317.7584                   23014317.5784
        40.7504         19.2504
 19  3  7  0  8 30.0000000  0  3G01G17G13
   1133073.33247  -1635009.74255  22634521.0474                   22634519.8914
        44.0004         30.0004
    748737.20348  -4367872.52345  20762557.0084                   20762555.6134
        49.0004         34.5004
   1909368.40646   2000243.71143  23015284.9694                   23015284.5314
        40.0004         18.5004
 19  3  7  0  8 35.0000000  0  3G01G17G13
   1126394.87547  -1640213.73444  22633250.5784                   22633251.9534
        44.2504         28.0004
    735012.95748  -4378566.74245  20759944.9454                   20759943.9184
        48.7504         34.0004
   1914453.96946   2004206.42642  23016252.2664                   23016252.0664
        39.5004         17.7504
 19  3  7  0  8 40.0000000  0  3G01G17G13
   1119731.46547  -1645406.00444  22631982.2664                   22631984.1844
        43.2504         28.0004
    721299.18448  -4389252.79745  20757335.2584                   20757334.2344
        48.2504         34.0004
   1919545.65646   2008174.03142  23017221.1254                   23017221.2194
        40.2504         17.2504
 19  3  7  0  8 45.0000000  0  3G01G17G13
   1113084.53947  -1650585.41844  22630717.1954                   22630719.8794
        44.5004         29.2504
    707597.63348  -4399929.33245  20754727.9614                   20754727.2344
        48.0004         34.0004
   1924645.23846   2012147.67242  23018191.8204                   23018191.3524
        40.7504         17.7504
 19  3  7  0  8 50.0000000  0  3G01G17G13
   1106452.93447  -1655752.90244  22629455.3134                   22629457.8874
        44.7504         27.7504
    693906.87548  -4410597.43745  20752123.2114                   20752121.8164
        48.0004         33.7504
   1929751.25846   2016126.41443  23019163.4384                   23019163.0984
        41.0004         18.2504
 19  3  7  0  8 55.0000000  0  3G01G17G13
   1099835.07447  -1660909.69544  22628196.0004                   22628198.3954
        45.0004         28.5004
    680225.43048  -4421258.32045  20749519.5004                   20749518.2154
        48.5004         34.5004
   1934862.19546   2020108.94943  23020136.5004                   23020135.6094
        41.2504         18.2504
 19  3  7  0  9  0.0000000  0  3G01G17G13
   1093232.30547  -1666054.73044  22626939.3134                   22626942.1804
        45.5004         28.5004
    666554.62148  -4431910.89845  20746918.1644                   20746917.2074
        48.2504         33.7504
   1939979.39846   2024096.36742  23021109.0704                   23021109.3794
        41.2504         17.7504
 19  3  7  0  9  5.0000000  0  3G01G17G13
   1086645.06647  -1671187.63744  22625685.8284                   22625688.4654
        45.2504         28.2504
    652894.89548  -4442554.83645  20744318.8834                   20744317.8014
        48.7504         34.0004
   1945103.32847   2028089.07042  23022085.1334                   23022084.5594
        42.0004         17.7504
 19  3  7  0  9 10.0000000  0  3G01G17G13
   1080073.98447  -1676307.96144  22624435.1024                   22624438.1804
        45.2504         28.5004
    639246.85248  -4453189.67645  20741721.4534                   20741720.3554
        48.5004         35.0004
   1950234.52046   2032087.33242  23023061.0864                   23023061.0434
        41.5004         16.7504
 19  3  7  0  9 15.0000000  0  3G01G17G13
   1073519.30547  -1681415.49244  22623187.9614                   22623190.6804
        44.7504         27.5004
    625610.81348  -4463815.14145  20739126.6334                   20739125.0044
        48.7504         34.7504
   1955373.23846   2036091.55942  23024039.1724                   23024039.2704
        40.7504         17.2504
 19  3  7  0  9 20.0000000  0  3G01G17G13
   1066981.59447  -1686509.79344  22621943.6174                   22621946.2384
        42.5004         26.2504
    611987.35548  -4474430.84045  20736534.2734                   20736532.4144
        49.2504         34.5004
   1960520.08246   2040102.10542  23025017.8204                   23025018.4414
        40.0004         16.7504
 19  3  7  0  9 25.0000000  0  3G01G17G13
   1060459.71147  -1691591.78144  22620702.8674                   22620705.3444
        42.0004         27.5004
    598375.30948  -4485037.62945  20733943.8594                   20733942.2074
        48.7504         35.0004
   1965673.87946   2044118.00842  23025999.2664                   23025998.9494
        40.0004         16.2504
 19  3  7  0  9 30.0000000  0  3G01G17G13
   1053954.34047  -1696660.89844  22619464.9534                   22619467.0594
        44.0004         28.5004
    584775.32848  -4495635.00045  20731355.6094                   20731354.6174
        48.5004         35.0004
   1970835.28946   2048139.91042  23026982.0004                   23026981.7154
        40.5004         16.2504
 19  3  7  0  9 35.0000000  0  3G01G17G13
   1047465.53147  -1701717.12944  22618230.3444                   22618232.3094
        44.0004         28.7504
    571187.47348  -4506222.93745  20728770.4304                   20728768.6684
        48.5004         35.2504
   1976004.34446   2052167.70342  23027965.2894                   23027965.3954
        39.5004         16.7504
 19  3  7  0  9 40.0000000  0  3G01G17G13
   1040993.18447  -1706760.52044  22616998.5864                   22617000.8134
        43.7504         28.5004
    557611.64148  -4516801.50445  20726187.1094                   20726185.4304
        49.0004         35.0004
   1981180.94146   2056201.48042  23028951.1094                   23028950.2464
        41.0004         16.7504
 19  3  7  0  9 45.0000000  0  3G01G17G13
   1034537.14847  -1711791.18744  22615770.0704                   22615772.1414
        43.7504         28.5004
    544047.94548  -4527370.61745  20723605.7664                   20723604.5204
        48.7504         35.5004
   1986364.91846   2060240.92642  23029935.9614                   23029936.2114
        39.7504         16.2504
 19  3  7  0  9 50.0000000  0  3G01G17G13
   1028097.43047  -1716809.15244  22614544.5864                   22614546.6254
        44.0004         28.2504
    530496.14548  -4537930.46545  20721026.8444                   20721025.6764
        48.5004         34.5004
   1991556.29346   2064286.12942  23030924.4694                   23030923.9614
        40.0004         16.7504
 19  3  7  0  9 55.0000000  0  3G01G17G13
   1021674.73447  -1721813.86345  22613322.4144                   22613324.7234
        43.7504         30.0004
    516956.87948  -4548480.54746  20718450.4224                   20718449.4064
        48.7504         36.2504
   1996755.77046   2068337.65643  23031913.9614                   23031913.7894
        41.7504         18.2504
 19  3  7  0 10  0.0000000  0  3G01G17G13
   1015269.07047  -1726805.28945  22612102.9774                   22612105.8984
        43.5004         30.2504
    503430.35548  -4559020.69946  20715876.3524                   20715875.2934
        49.2504         36.5004
   2001963.29747   2072395.44543  23032905.3444                   23032904.7274
        42.5004         18.2504
 19  3  7  0 10  5.0000000  0  3G01G17G13
   1008877.18047  -1731785.98044  22610887.1254                   22610889.2704
        43.5004         29.7504
    489913.19148  -4569553.56246  20713304.3364                   20713303.0984
        48.7504         36.5004
   2007175.68047   2076457.02343  23033897.1174                   23033896.3554
        42.0004         18.2504
 19  3  7  0 10 10.0000000  0  3G01G17G13
   1002500.43847  -1736754.82444  22609673.7504                   22609675.9304
        43.2504         29.5004
    476406.71148  -4580078.07846  20710734.2974                   20710732.8554
        48.7504         37.0004
   2012394.23046   2080523.40243  23034889.9774                   23034889.5514
        41.0004         18.2504
 19  3  7  0 10 15.0000000  0  3G01G17G13
    996140.17647  -1741710.90244  22608463.3204                   22608465.7384
        43.0004         28.5004
    462912.24648  -4590593.24245  20708166.1024                   20708165.3914
        48.7504         35.5004
   2017620.19547   2084595.59042  23035884.2114                   23035883.7854
        42.0004         17.7504
 19  3  7  0 10 20.0000000  0  3G01G17G13
    989796.99247  -1746653.62944  22607256.2274                   22607259.0164
        43.0004         27.0004
    449430.52348  -4601098.48446  20705600.6804                   20705599.5274
        49.0004         36.2504
   2022854.25046   2088674.12143  23036880.7114                   23036879.8484
        41.7504         18.2504
 19  3  7  0 10 25.0000000  0  3G01G17G13
    983469.32047  -1751584.28144  22606051.9454                   22606054.5314
        44.2504         26.5004
    435959.94548  -4611595.04345  20703037.3444                   20703036.3874
        48.5004         35.7504
   2028094.90647   2092757.72342  23037877.6564                   23037876.8634
        42.0004         17.7504
 19  3  7  0 10 30.0000000  0  3G01G17G13
    977155.25847  -1756504.35944  22604851.0784                   22604852.7424
        42.7504         25.2504
    422498.51248  -4622084.46945  20700475.6094                   20700474.9494
        48.7504         35.7504
   2033340.04746   2096844.84043  23038875.8674                   23038875.2424
        41.2504         18.2504
 19  3  7  0 10 35.0000000  0  3G01G17G13
    970857.05147  -1761412.02344  22603652.2894                   22603654.4964
        43.7504         25.0004
    409048.55148  -4632564.94945  20697916.2814                   20697915.1684
        49.2504         34.2504
   2038592.03947   2100937.32843  23039875.5554                   23039874.9654
        42.2504         18.5004
 19  3  7  0 10 40.0000000  0  3G01G17G13
    964575.47347  -1766306.75443  22602456.8444                   22602459.5864
        43.2504         23.0004
    395610.84048  -4643035.89845  20695359.0474                   20695358.2584
        48.5004         33.7504
   2043851.63746   2105035.71542  23040875.5394                   23040875.3714
        41.5004         17.7504
 19  3  7  0 10 45.0000000  0  3G01G17G13
    958308.56347  -1771190.09044  22601263.9924                   22601266.5354
        43.0004         26.5004
    382183.43048  -4653498.82046  20692803.6954                   20692803.0944
        48.7504         36.5004
   2049116.88746   2109138.44943  23041878.6174                   23041877.3914
        41.2504         18.5004
 19  3  7  0 10 50.0000000  0  3G01G17G13
    952057.26647  -1776061.22743  22600075.5944                   22600077.6024
        42.5004         23.7504
    368767.26647  -4663952.95345  20690251.1414                   20690249.5554
        47.5004         31.0004
   2054388.71146   2113246.45742  23042882.1254                   23042880.9064
        41.5004         17.7504
 19  3  7  0 10 55.0000000  0  3G01G17G13
    945821.80946  -1780920.03943  22598888.6254                   22598890.7664
        38.0004         21.7504
    355362.38748  -4674398.30545  20687699.6484                   20687698.1604
        48.2504         32.0004
   2059667.11747   2117359.39542  23043885.6414                   23043885.1644
        42.0004         17.7504
 19  3  7  0 11  0.0000000  0  3G01G17G13
    939602.56345  -1785766.09443  22597704.5784                   22597707.1214
        35.2504         21.0004
    341969.64148  -4684834.23445  20685151.8914                   20685149.9884
        49.7504         35.5004
   2064952.78146   2121478.12142  23044891.9384                   23044890.7934
        41.5004         17.2504
 19  3  7  0 11  5.0000000  0  3G01G17G13
    933401.85946  -1790597.86743  22596524.4304                   22596527.3754
        41.2504         20.0004
    328591.01248  -4695259.12545  20682605.7814                   20682603.9734
        48.7504         34.5004
   2070247.86747   2125604.17643  23045899.6334                   23045898.8094
        43.5004         19.2504
 19  3  7  0 11 10.0000000  0  3G01G17G13
    927220.063 5                  22595348.383
        34.000
    315226.77748  -4705672.82446  20680062.7114                   20680060.9384
        49.2504         36.0004
   2075552.56347   2129737.71543  23046909.0394                   23046908.0474
        42.2504         19.2504
 19  3  7  0 11 15.0000000  0  3G01G17G13
    921056.695 7                  22594175.477
        43.750
    301876.99647  -4716075.21945  20677522.0314                   20677521.0124
        47.7504         33.5004
   2080866.94546   2133878.75843  23047919.9384                   23047919.2304
        41.2504         18.2504
 19  3  7  0 11 20.0000000  0  3G01G17G13
    914911.992 6                  22593006.695
        40.750
    288541.10247  -4726466.83645  20674984.4454                   20674983.2704
        47.0004         32.2504
   2086190.53946   2138027.04343  23048933.7814                   23048932.1844
        41.2504         19.0004
 19  3  7  0 11 25.0000000  0  3G01G17G13
    908785.15646  -1800186.65653  22591839.5944                   22591840.5704
        41.5004         22.0004
    275218.86748  -4736847.81245  20672449.2424                   20672447.8204
        48.5004         32.2504
   2091522.87947   2142182.09443  23049947.8204                   23049947.0784
        42.0004         19.2504
 19  3  7  0 11 30.0000000  0  3G01G17G13
    902675.98047  -1804947.09843  22590678.3834                   22590678.7734
        42.5004         23.7504
    261909.96948  -4747218.39545  20669917.0164                   20669915.0514
        50.2504         35.5004
   2096863.78147   2146343.78543  23050964.9224                   23050963.5434
        43.2504         18.5004
 19  3  7  0 11 35.0000000  0  3G01G17G13
    896584.44946  -1809693.71943  22589519.1954                   22589520.1174
        38.7504         21.2504
    248614.44148  -4757578.52345  20667386.7894                   20667385.5634
        49.5004         35.0004
   2102213.16847   2150512.18043  23051982.6024                   23051981.5004
        43.0004         20.2504
 19  3  7  0 11 40.0000000  0  3G01G17G13
    890510.37547  -1814426.77343  22588362.5864                   22588363.9774
        43.5004         22.0004
    235332.06648  -4767928.44545  20664858.5864                   20664857.2464
        49.2504         33.0004
   2107571.00046   2154687.03943  23053001.7274                   23053001.1884
        41.5004         19.2504
 19  3  7  0 11 45.0000000  0  3G01G17G13
    884453.10546  -1819146.66843  22587210.0164                   22587211.6804
        37.7504         21.5004
    222061.98848  -4778268.73845  20662334.0084                   20662332.6214
        48.5004         32.2504
   2112936.14546   2158867.74242  23054022.6564                   23054021.8444
        41.2504         17.7504
 19  3  7  0 11 50.0000000  0  3G01G17G13
    878412.86746  -1823853.41843  22586060.7894                   22586062.3954
        40.7504         19.2504
    208804.82448  -4788599.00045  20659811.0784                   20659809.1294
        49.2504         33.0004
   2118309.30946   2163054.58642  23055045.8284                   23055044.7034
        41.2504         17.2504
 19  3  7  0 11 55.0000000  0  3G01G17G13
    872389.55947  -1828546.89844  22584914.2814                   22584916.0274
        44.7504         29.5004
    195560.26248  -4798919.45345  20657290.9454                   20657288.8484
        49.0004         33.7504
   2123690.30546   2167247.55142  23056068.3674                   23056068.2234
        41.2504         15.5004
 19  3  7  0 12  0.0000000  0  3G01G17G13
    866383.41447  -1833226.98845  22583771.3524                   22583772.8674
        45.0004         31.0004
    182328.45348  -4809229.94545  20654772.9144                   20654771.1844
        49.2504         34.0004
   2129079.12546   2171446.63742  23057094.7894                   23057093.7704
        41.0004         16.2504
 19  3  7  0 12  5.0000000  0  3G01G17G13
    860394.30547  -1837893.83245  22582632.0944                   22582633.4304
        45.2504         31.0004
    169109.34848  -4819530.54745  20652257.2584                   20652255.3484
        49.5004         34.0004
   2134475.73846   2175651.77743  23058121.9064                   23058120.5944
        41.5004         18.2504
 19  3  7  0 12 10.0000000  0  3G01G17G13
    854422.22747  -1842547.39545  22581495.4304                   22581496.9304
        45.2504         30.7504
    155903.00848  -4829821.20745  20649744.0944                   20649742.2114
        49.5004         34.0004
   2139880.18446   2179863.02742  23059149.7034                   23059149.0434
        41.5004         17.7504
 19  3  7  0 12 15.0000000  0  3G01G17G13
    848467.46547  -1847187.47745  22580362.5554                   22580364.1484
        45.0004         30.0004
    142709.70348  -4840101.69545  20647233.6334                   20647231.9184
        49.5004         34.2504
   2145292.72346   2184080.61343  23060180.0554                   23060178.9184
        41.2504         18.2504
 19  3  7  0 12 20.0000000  0  3G01G17G13
    842529.54347  -1851814.42645  22579232.5944                   22579233.7464
        45.2504         31.0004
    129528.88348  -4850372.46945  20644725.3674                   20644723.2854
        49.5004         34.2504
   2150712.76246   2188303.99242  23061211.1564                   23061210.1914
        41.2504         17.2504
 19  3  7  0 12 25.0000000  0  3G01G17G13
    836608.72747  -1856428.05145  22578105.7584                   22578107.1764
        45.2504         31.2504
    116360.84448  -4860633.27345  20642219.7504                   20642217.6484
        49.5004         33.7504
   2156140.64546   2192533.52343  23062244.6024                   23062242.9694
        41.5004         18.5004
 19  3  7  0 12 30.0000000  0  3G01G17G13
    830704.95747  -1861028.39545  22576982.0164                   22576983.7894
        45.0004         31.0004
    103205.56348  -4870884.14145  20639716.1954                   20639714.3634
        49.5004         33.7504
   2161576.29746   2196769.05542  23063278.4224                   23063277.5234
        40.7504         17.7504
 19  3  7  0 12 35.0000000  0  3G01G17G13
    824817.73047  -1865615.84045  22575862.2274                   22575863.2344
        45.5004         30.7504
     90062.48848  -4881125.50045  20637215.1884                   20637213.1804
        49.5004         34.0004
   2167019.18446   2201010.30142  23064314.3444                   23064313.6954
        40.5004         17.2504
 19  3  7  0 12 40.0000000  0  3G01G17G13
    818947.35947  -1870190.15645  22574744.3444                   22574746.0824
        45.0004         31.2504
     76931.97348  -4891357.07045  20634716.6884                   20634714.8324
        49.5004         33.5004
   2172469.69547   2205257.41443  23065351.6804                   23065350.4224
        42.0004         18.5004
 19  3  7  0 12 45.0000000  0  3G01G17G13
    813093.98047  -1874751.21544  22573630.9844                   22573632.6844
        45.0004         29.5004
     63814.16048  -4901578.73445  20632220.2194                   20632218.5084
        49.5004         34.0004
   2177927.85546   2209510.53143  23066390.4694                   23066389.2424
        41.7504         18.5004
 19  3  7  0 12 50.0000000  0  3G01G17G13
    807257.43447  -1879299.18445  22572520.3524                   22572521.7074
        45.0004         30.5004
     50708.86348  -4911790.65645  20629726.5634                   20629724.6094
        49.2504         34.0004
   2183393.51646   2213769.51242  23067430.1414                   23067429.1524
        40.7504         17.7504
 19  3  7  0 12 55.0000000  0  3G01G17G13
    801437.57047  -1883834.14145  22571412.7034                   22571414.3594
        45.2504         30.2504
     37615.94948  -4921992.93045  20627235.0474                   20627233.1294
        49.5004         34.0004
   2188866.49646   2218034.18042  23068472.1334                   23068470.3834
        40.7504         17.7504
 19  3  7  0 13  0.0000000  0  3G01G17G13
    795634.65247  -1888355.89845  22570309.3054                   22570309.8914
        45.5004         30.2504
     24535.72348  -4932185.31645  20624745.9384                   20624744.2114
        49.5004         33.7504
   2194347.12146   2222304.72742  23069514.3984                   23069513.6214
        41.2504         17.2504
 19  3  7  0 13  5.0000000  0  3G01G17G13
    789848.94147  -1892864.24245  22569207.6644                   22569208.6174
        45.2504         30.0004
     11468.46948  -4942367.58645  20622259.2894                   20622257.5664
        49.5004         34.2504
   2199835.62546   2226581.55942  23070559.0314                   23070557.8054
        40.7504         17.2504
 19  3  7  0 13 10.0000000  0  3G01G17G13
    784080.10547  -1897359.43744  22568109.9534                   22568111.2814
        45.2504         29.2504
     -1586.19148  -4952540.05145  20619775.0394                   20619773.3244
        49.5004         33.5004
   2205331.61346   2230864.08642  23071604.5394                   23071603.8094
        40.5004         16.7504
 19  3  7  0 13 15.0000000  0  3G01G17G13
    778327.93847  -1901841.63344  22567014.6564                   22567016.9104
        44.7504         29.7504
    -14628.34448  -4962702.76245  20617293.1484                   20617291.4454
        49.5004         34.2504
   2210835.23846   2235152.68042  23072651.9694                   23072650.8404
        41.0004         17.7504
 19  3  7  0 13 20.0000000  0  3G01G17G13
    772593.32447  -1906310.21144  22565923.9774                   22565925.3594
        44.5004         29.0004
    -27657.16048  -4972855.10246  20614814.0394                   20614812.2854
        50.5004         36.0004
   2216347.29746   2239447.79343  23073701.3134                   23073699.8634
        40.7504         18.5004
 19  3  7  0 13 25.0000000  0  3G01G17G13
    766878.28947  -1910763.48844  22564836.2344                   22564837.6844
        45.0004         28.5004
    -40670.81648  -4982995.60245  20612337.5634                   20612335.6804
        50.0004         35.5004
   2221868.96146   2243750.35243  23074751.9614                   23074750.8324
        41.0004         18.2504
 19  3  7  0 13 30.0000000  0  3G01G17G13
    761177.87547  -1915205.36344  22563751.1804                   22563752.9264
        45.2504         29.0004
    -53674.09448  -4993128.02345  20609863.2584                   20609861.2504
        50.0004         35.5004
   2227395.84046   2248057.03543  23075803.9534                   23075802.5864
        41.7504         18.5004
 19  3  7  0 13 35.0000000  0  3G01G17G13
    755489.31647  -1919637.93745  22562669.3984                   22562671.7274
        46.5004         31.0004
    -66672.21948  -5003256.38745  20607389.8524                   20607388.6884
        50.5004         34.7504
   2232923.77746   2252364.46942  23076856.1564                   23076854.4804
        39.0004         17.7504
 19  3  7  0 13 40.0000000  0  3G01G17G13
    749810.93447  -1924062.68044  22561589.0634                   22561590.9224
        45.5004         28.5004
    -79666.70348  -5013381.97345  20604917.6804                   20604915.9614
        51.0004         34.7504
   2238450.66846   2256671.17643  23077908.1174                   23077906.6764
        41.7504         18.2504
 19  3  7  0 13 45.0000000  0  3G01G17G13
    744143.80947  -1928478.59844  22560511.0554                   22560512.8954
        46.5004         28.5004
    -92649.64148  -5023498.55145  20602447.2974                   20602445.3284
        50.7504         33.7504
   2243987.48846   2260985.57843  23078962.0784                   23078960.0784
        41.5004         18.2504
 19  3  7  0 13 50.0000000  0  3G01G17G13
    738493.07947  -1932881.78344  22559435.2504                   22559437.9414
        46.7504         28.5004
   -105620.28148  -5033605.55145  20599978.9454                   20599977.7234
        50.2504         33.5004
   2249531.75446   2265305.75043  23080017.1174                   23080015.7034
        39.7504         18.2504
 19  3  7  0 13 55.0000000  0  3G01G17G13
    732859.53947  -1937271.54443  22558363.4774                   22558365.2074
        43.7504         22.5004
   -118577.91248  -5043702.37545  20597513.3754                   20597511.8874
        49.5004         31.7504
   2255083.93446   2269632.13343  23081073.7814                   23081072.6374
        40.0004         18.2504
 19  3  7  0 14  0.0000000  0  3G01G17G13
    727244.06847  -1941647.17044  22557294.5704                   22557296.6414
        44.5004         27.5004
   -131519.40248  -5053786.64145  20595050.5234                   20595048.9574
        50.0004         33.2504
   2260648.63046   2273968.31542  23082132.9064                   23082131.9344
        41.7504         16.7504
 19  3  7  0 14  5.0000000  0  3G01G17G13
    721647.86247  -1946007.92544  22556230.0314                   22556231.8834
        45.2504         26.5004
   -144450.43748  -5063862.78945  20592589.5554                   20592588.3914
        51.0004         33.5004
   2266216.43846   2278306.79342  23083192.0704                   23083191.4184
        41.5004         16.7504
 19  3  7  0 14 10.0000000  0  3G01G17G13
                                  22555170.9694                   22555172.1684
        45.2504         22.0004
                                  20590134.3754                   20590132.5904
        49.7504         29.7504
                                  23084255.9144                   23084253.7344
        41.0004         17.2504
 19  3  7  0 14 15.0000000  0  3G01G17G13
    710512.94147  -1954684.51244  22554110.7504                   22554113.5664
        45.0004         25.5004
   -170263.42548  -5083976.86145  20587677.7974                   20587677.4844
        50.0004         31.5004
   2277388.35947   2287012.19142  23085318.2814                   23085317.8054
        42.0004         16.2504
 19  3  7  0 14 20.0000000  0  3G01G17G13
    704972.84747  -1959001.45243  22553056.8754                   22553060.8484
        44.7504         22.2504
   -183148.03158  -5094016.80154  20585225.8594                   20585226.7154
        50.5004         29.7504
   2282986.67656   2291374.13352  23086382.7894                   23086384.3674
        41.5004         15.5004
 19  3  7  0 14 25.0000000  0  3G01G17G13
    699451.93847  -1963303.44544  22552006.2274                   22552010.1094
        44.5004         24.0004
   -196018.20348  -5104045.49645  20582776.6334                   20582776.4414
        50.0004         32.0004
   2288595.22347   2295744.59042  23087450.6024                   23087451.6414
        42.7504         16.7504
 19  3  7  0 14 30.0000000  0  3G01G17G13
    693939.27047  -1967599.02344  22550956.7664                   22550959.7074
        44.7504         26.2504
   -208880.67648  -5114068.18745  20580328.6254                   20580327.5314
        50.5004         32.7504
   2294209.70747   2300119.45742  23088517.9614                   23088520.0514
        42.0004         16.2504
 19  3  7  0 14 35.0000000  0  3G01G17G13
    688444.79347  -1971880.43044  22549911.5314                   22549913.7934
        43.7504         24.2504
   -221730.58248  -5124081.10545  20577883.2424                   20577881.6374
        50.5004         33.5004
   2299829.35947   2304498.45342  23089587.9774                   23089588.9144
        42.0004         16.2504
 19  3  7  0 14 40.0000000  0  3G01G17G13
    682967.50057  -1976148.44154  22548868.8054                   22548870.7934
        45.0004         27.0004
   -234565.25048  -5134081.99645  20575440.8204                   20575439.9454
        50.2504         33.0004
   2305460.09056   2308885.98852  23090659.0554                   23090660.3754
        40.5004         15.5004
 19  3  7  0 14 45.0000000  0  3G01G17G13
    677506.50047  -1980403.79344  22547829.5784                   22547831.4924
        45.0004         25.2504
   -247392.04358  -5144077.06255  20573000.3524                   20572998.5474
        50.5004         34.2504
   2311092.48846   2313274.92242  23091731.1884                   23091732.0744
        41.0004         14.7504
 19  3  7  0 14 50.0000000  0  4G01G17G13G24
    672061.64547  -1984646.52044  22546793.3984                   22546796.3984
        44.5004         27.7504
   -260203.85548  -5154060.28945  20570562.0234                   20570561.6374
        50.0004         33.0004
   2316735.18846   2317671.75842  23092804.5234                   23092805.9104
        41.2504         15.5004
   1381034.28157   1017313.34054  22640776.1724                   22640778.5944
        43.0004         29.0004
 19  3  7  0 14 55.0000000  0  4G01G17G13G24
    666632.36347  -1988877.12544  22545760.5554                   22545763.5474
        45.0004         28.5004
   -273004.02048  -5164034.43745  20568126.5554                   20568125.8794
        50.2504         33.5004
   2322384.69146   2322074.05142  23093880.4694                   23093881.6414
        41.0004         15.5004
   1357005.73047    998589.84444  22636204.4384                   22636206.2274
        42.0004         26.5004
 19  3  7  0 15  0.0000000  0  4G01G17G13G24
    661220.17647  -1993094.42644  22544730.5634                   22544733.7974
        45.0004         28.5004
   -285792.71148  -5173999.65645  20565692.8054                   20565692.0554
        50.0004         34.5004
   2328038.41046   2326479.46542  23094956.1644                   23094957.6954
        39.7504         16.2504
   1332981.43447    979869.58644  22631632.4534                   22631634.4104
        43.7504         25.2504
 19  3  7  0 15  5.0000000  0  4G01G17G13G24
    655827.19147  -1997296.70744  22543704.4144                   22543707.0904
        43.5004         25.5004
   -298566.03148  -5183952.86345  20563262.3834                   20563261.1174
        50.7504         35.2504
   2333702.07447   2330892.74642  23096033.6884                   23096035.1414
        43.0004         17.7504
   1308967.21147    961157.19545  22627062.6334                   22627064.4844
        44.5004         31.0004
 19  3  7  0 15 10.0000000  0  4G01G17G13G24
    650452.90947  -2001484.48444  22542681.0474                   22542683.9104
        43.7504         27.0004
   -311323.83048  -5193894.01445  20560834.0944                   20560832.5434
        50.0004         35.5004
   2339377.31646   2335314.98043  23097113.3674                   23097114.8444
        39.5004         19.2504
   1284967.13347    942455.84045  22622495.5634                   22622497.1174
        42.7504         32.0004
 19  3  7  0 15 15.0000000  0  4G01G17G13G24
    645094.07847  -2005660.17644  22541661.4144                   22541664.2114
        45.0004         29.0004
   -324070.07548  -5203826.14445  20558408.5004                   20558407.7424
        48.7504         34.0004
   2345059.10246   2339742.38343  23098194.9844                   23098196.0984
        38.5004         18.5004
   1260975.21247    923760.89945  22617929.7344                   22617931.9614
        44.5004         30.5004
 19  3  7  0 15 20.0000000  0  4G01G17G13G24
    639745.28147  -2009828.06644  22540643.6334                   22540645.9414
        44.5004         28.0004
   -336809.72348  -5213753.13745  20555984.2274                   20555982.9964
        50.0004         34.0004
   2350742.82846   2344171.26242  23099276.1094                   23099277.5514
        40.7504         17.2504
   1236988.34447    905069.76644  22613365.5084                   22613366.9694
        43.0004         27.7504
 19  3  7  0 15 25.0000000  0  4G01G17G13G24
    634413.30547  -2013982.85344  22539629.4224                   22539631.0594
        45.5004         27.7504
   -349537.24248  -5223670.69145  20553562.3984                   20553560.5474
        49.7504         35.5004
   2356432.54346   2348604.73843  23100358.8524                   23100359.7424
        39.5004         18.2504
   1213008.98447    886384.60545  22608802.3284                   22608803.5904
        43.0004         30.0004
 19  3  7  0 15 30.0000000  0  4G01G17G13G24
    629101.83647  -2018121.69144  22538617.9224                   22538620.1484
        45.5004         29.0004
   -362248.37948  -5233575.48445  20551143.4384                   20551142.5314
        50.5004         34.5004
   2362132.67646   2353046.41342  23101443.8594                   23101444.7034
        40.5004         17.7504
   1189039.90646    867707.34844  22604240.8524                   22604242.5784
        41.0004         27.7504
 19  3  7  0 15 35.0000000  0  4G01G17G13G24
    623804.05447  -2022249.81744  22537610.2344                   22537612.8054
        43.2504         28.0004
   -374950.02748  -5243472.87145  20548726.8674                   20548724.6764
        49.7504         35.2504
   2367837.75846   2357491.93442  23102529.5864                   23102530.0234
        41.0004         17.7504
   1165078.06347    849035.80945  22599681.5554                   22599682.5514
        43.2504         30.0004
 19  3  7  0 15 40.0000000  0  4G01G17G13G24
    618523.15647  -2026364.82844  22536605.8204                   22536607.9844
        42.7504         26.0004
   -387639.13348  -5253360.50045  20546312.3054                   20546311.0234
        50.0004         34.2504
   2373549.30947   2361942.48043  23103616.0864                   23103616.6844
        42.2504         19.2504
   1141124.85947    830370.96544  22595123.5554                   22595124.5274
        44.5004         28.2504
 19  3  7  0 15 45.0000000  0  4G01G17G13G24
    613259.63747  -2030466.25444  22535603.2974                   22535606.6374
        43.5004         28.5004
   -400314.91048  -5263237.71945  20543899.6484                   20543898.3404
        49.2504         34.2504
   2379269.45746   2366399.73443  23104705.0234                   23104705.1954
        39.5004         19.0004
   1117182.30947    811714.43044  22590567.2274                   22590567.8134
        43.2504         29.2504
 19  3  7  0 15 50.0000000  0  4G01G17G13G24
    608007.90647  -2034558.48844  22534605.1484                   22534606.0084
        46.0004         29.7504
   -412983.88748  -5273109.61745  20541489.2734                   20541487.6054
        50.0004         35.2504
   2384990.57446   2370857.82843  23105793.9774                   23105793.6644
        41.2504         18.5004
   1093241.73047    793059.48044  22586011.5944                   22586012.3954
        43.0004         28.5004
 19  3  7  0 15 55.0000000  0  4G01G17G13G24
    602770.12947  -2038639.88744  22533607.9924                   22533609.6294
        45.0004         29.0004
   -425643.60948  -5282974.36345  20539079.9534                   20539078.4344
        50.7504         35.7504
   2390713.99246   2375317.56342  23106882.8594                   23106883.0204
        41.2504         17.2504
   1069307.46147    774409.39144  22581457.2734                   22581458.3554
        42.5004         28.7504
 19  3  7  0 16  0.0000000  0  4G01G17G13G24
    597549.33247  -2042708.03144  22532614.5474                   22532617.1374
        43.5004         25.2504
   -438289.28748  -5292828.12245  20536674.0944                   20536672.9534
        50.5004         33.0004
   2396448.69946   2379786.20342  23107974.2814                   23107974.6374
        41.2504         16.7504
   1045386.43947    755769.63644  22576905.3674                   22576906.3984
        42.0004         27.0004
 19  3  7  0 16  5.0000000  0  4G01G17G13G24
    592348.85947  -2046760.34444  22531625.1484                   22531627.4574
        45.0004         28.2504
   -450918.06248  -5302668.72745  20534270.7344                   20534268.9304
        49.7504         34.0004
   2402193.77146   2384262.84242  23109067.5784                   23109067.8524
        40.2504         17.2504
   1021478.30347    737139.91144  22572355.7344                   22572357.1374
        43.5004         29.0004
 19  3  7  0 16 10.0000000  0  4G01G17G13G24
    587167.23447  -2050797.99244  22530638.0944                   22530641.0554
        42.7504         25.2504
   -463532.49248  -5312498.16045  20531869.5554                   20531868.9534
        49.7504         34.5004
   2407947.66847   2388746.36342  23110161.6724                   23110162.3204
        42.0004         17.7504
    997578.79347    718516.89844  22567807.0474                   22567809.1524
        43.5004         29.0004
 19  3  7  0 16 15.0000000  0  4G01G17G13G24
    582000.59447  -2054823.90644  22529655.7664                   22529657.2424
        44.5004         27.0004
   -476134.65248  -5322317.98445  20529472.0784                   20529470.1484
        51.2504         34.7504
   2413709.34447   2393236.06643  23111259.5314                   23111259.2584
        42.5004         18.5004
    973687.61347    699900.46144  22563261.7424                   22563262.2504
        42.5004         28.2504
 19  3  7  0 16 20.0000000  0  4G01G17G13G24
    576853.05147  -2058835.00044  22528675.0634                   22528676.8634
        43.5004         28.5004
   -488725.18048  -5332128.81245  20527075.0084                   20527072.2934
        49.0004         33.5004
   2419475.10246   2397728.84042  23112354.4384                   23112355.8094
        39.2504         16.7504
    949805.37147    681290.86744  22558715.3834                   22558716.7344
        43.0004         29.5004
 19  3  7  0 16 25.0000000  0  4G01G17G13G24
    571715.50847  -2062838.28944  22527698.0704                   22527699.1134
        43.5004         25.0004
   -501307.57048  -5341933.27045  20524681.3364                   20524678.5314
        49.5004         34.2504
   2425245.40247   2402225.10242  23113453.9224                   23113454.0354
        42.2504         16.7504
    925928.46147    662685.51644  22554172.5004                   22554172.6214
        42.5004         26.5004
 19  3  7  0 16 30.0000000  0  4G01G17G13G24
    566596.82847  -2066826.87944  22526723.7664                   22526724.3794
        42.2504         26.5004
   -513876.31248  -5351727.09445  20522289.3444                   20522285.4654
        49.5004         34.5004
   2431021.88747   2406726.34042  23114553.0084                   23114552.7424
        42.7504         17.2504
    902059.16447    644086.05944  22549630.3594                   22549629.4104
        44.0004         29.5004
 19  3  7  0 16 35.0000000  0  4G01G17G13G24
    561500.12147  -2070798.30144  22525754.3674                   22525754.4414
        43.7504         28.0004
   -526427.27048  -5361507.05946  20519901.2114                   20519898.3164
        50.5004         36.5004
   2436810.11746   2411236.62142  23115654.2034                   23115653.5434
        41.7504         17.7504
    878200.71147    625495.05945  22545090.3134                   22545090.3014
        42.7504         31.7504
 19  3  7  0 16 40.0000000  0  4G01G17G13G24
    556418.96547  -2074757.63344  22524787.4534                   22524789.0164
        44.0004         27.7504
   -538967.37148  -5371278.55545  20517515.7734                   20517515.2814
        50.2504         35.2504
   2442603.21546   2415750.71543  23116757.3284                   23116755.3954
        40.2504         19.2504
    854349.19547    606909.49245  22540552.2504                   22540552.3714
        43.5004         30.5004
 19  3  7  0 16 45.0000000  0  4G01G17G13G24
    551348.07447  -2078708.97744  22523823.4384                   22523825.7194
        44.2504         26.2504
   -551500.48848  -5381044.62545  20515130.3674                   20515130.6844
        50.5004         34.2504
   2448397.95346   2420266.06643  23117861.1334                   23117858.8834
        39.5004         19.7504
    830501.21147    588326.64144  22536015.1094                   22536015.8594
        43.5004         26.7504
 19  3  7  0 16 50.0000000  0  4G01G17G13G24
    546289.01647  -2082651.14144  22522861.9384                   22522863.3164
        45.5004         28.0004
   -564024.68048  -5390803.77045  20512748.7584                   20512748.3524
        51.0004         34.0004
   2454196.53146   2424784.48443  23118964.6724                   23118962.7894
        39.7504         18.2504
    806657.72747    569747.26644  22531478.7274                   22531478.8054
        43.5004         29.0004
 19  3  7  0 16 55.0000000  0  4G01G17G13G24
    541244.21147  -2086582.18444  22521899.1954                   22521902.4104
        43.7504         28.5004
   -576540.66048  -5400556.49645  20510364.3984                   20510363.2114
        49.5004         34.5004
   2459996.90646   2429304.20342  23120066.8674                   23120066.9224
        39.7504         16.7504
    782820.05146    551172.42244  22526939.1174                   22526942.4064
        41.7504         27.7504
 19  3  7  0 17  0.0000000  0  4G01G17G13G24
    536212.95747  -2090502.64144  22520942.2114                   22520945.0394
        43.2504         28.5004
   -589045.69948  -5410300.67645  20507985.0704                   20507984.2114
        49.7504         35.2504
   2465803.80146   2433828.87142  23121171.5634                   23121172.0044
        41.5004         17.2504
    758992.38347    532605.43844  22522405.7734                   22522407.2704
        43.7504         29.0004
 19  3  7  0 17  5.0000000  0  4G01G17G13G24
    531203.96547  -2094405.73844  22519989.7584                   22519991.7304
        43.2504         27.2504
   -601535.76248  -5420033.18445  20505609.4454                   20505608.0984
        50.5004         35.0004
   2471617.60257   2438359.07053  23122277.9924                   23122278.3204
        42.5004         18.2504
    735175.95747    514047.19944  22517874.5084                   22517875.4884
        42.5004         26.2504
 19  3  7  0 17 10.0000000  0  4G01G17G13G24
    526215.56647  -2098292.80144  22519039.6954                   22519042.3444
        43.7504         26.0004
   -614007.49648  -5429751.43445  20503235.3594                   20503234.3954
        50.5004         34.0004
   2477445.71146   2442900.41043  23123387.7194                   23123387.3754
        41.7504         18.5004
    711372.39847    495498.96544  22513344.1174                   22513345.4104
        43.0004         26.7504
 19  3  7  0 17 15.0000000  0  4G01G17G13G24
    521240.33047  -2102169.60344  22518093.2114                   22518095.3714
        43.7504         26.5004
   -626468.93748  -5439461.61345  20500863.5704                   20500862.3014
        50.0004         33.5004
   2483279.48046   2447446.25443  23124497.8134                   23124497.6374
        40.7504         18.5004
    687577.54747    476957.57044  22508815.7664                   22508817.1804
        42.2504         25.7504
 19  3  7  0 17 20.0000000  0  4G01G17G13G24
    516283.58247  -2106031.96144  22517150.0164                   22517153.0664
        43.7504         27.0004
   -638916.87548  -5449161.28945  20498495.5704                   20498494.8524
        50.7504         33.7504
   2489118.75947   2451996.30842  23125608.8444                   23125609.5204
        43.0004         17.7504
    663785.98447    458418.66844  22504288.7974                   22504290.6174
        43.5004         26.7504
 19  3  7  0 17 25.0000000  0  4G01G17G13G24
    511338.43457  -2109885.44954  22516208.6334                   22516210.9264
        43.0004         26.7504
   -651354.36758  -5458852.64555  20496128.2894                   20496126.0904
        50.5004         34.5004
   2494963.61357   2456550.66852  23126720.8364                   23126721.4614
        43.0004         17.7504
                                  22499762.9224                   22499764.0904
        42.5004         26.7504
 19  3  7  0 17 30.0000000  0  4G01G17G13G24
    506410.42647  -2113725.39144  22515271.0004                   22515273.9804
        43.0004         26.2504
   -663778.93448  -5468534.15245  20493763.5474                   20493762.1174
        50.0004         34.5004
   2500817.02047   2461111.77742  23127833.9454                   23127834.7504
        42.0004         17.7504
    616228.56347    421360.90244  22495238.9144                   22495240.4224
        44.0004         29.5004
 19  3  7  0 17 35.0000000  0  4G01G17G13G24
    501498.91447  -2117552.51244  22514336.2974                   22514339.0044
        44.5004         26.7504
   -676192.48048  -5478206.99645  20491401.5314                   20491400.8634
        50.5004         33.2504
   2506675.42246   2465676.80942  23128949.5394                   23128950.3364
        41.0004         16.7504
    592461.51247    402841.17244  22490715.5784                   22490717.8134
        43.5004         28.5004
 19  3  7  0 17 40.0000000  0  4G01G17G13G24
    496602.87147  -2121367.60544  22513404.9614                   22513406.8444
        45.5004         28.0004
   -688594.27348  -5487870.73845  20489041.6644                   20489039.6054
        49.2504         33.0004
   2512539.31346   2470246.07842  23130065.1254                   23130066.0474
        39.7504         17.2504
    568706.62147    384330.87944  22486195.6484                   22486196.5984
        43.7504         27.7504
 19  3  7  0 17 45.0000000  0  4G01G17G13G24
    491726.44547  -2125167.41444  22512476.9224                   22512478.2274
        43.7504         24.5004
   -700980.18748  -5497522.09445  20486685.1564                   20486682.7274
        50.7504         33.5004
   2518414.81347   2474824.35243  23131183.3524                   23131183.7854
        42.0004         18.2504
    544962.07047    365828.60244  22481677.9064                   22481678.1334
        43.2504         26.7504
 19  3  7  0 17 50.0000000  0  4G01G17G13G24
    486870.45747  -2128951.32044  22511552.3054                   22511554.4494
        43.5004         25.5004
   -713349.44548  -5507160.48445  20484331.2114                   20484329.4224
        50.5004         34.5004
   2524300.23447   2479410.40242  23132303.6254                   23132303.6644
        42.5004         17.7504
    521227.97447    347334.53544  22477160.9774                   22477161.2774
        43.7504         28.0004
 19  3  7  0 17 55.0000000  0  4G01G17G13G24
    482032.04747  -2132721.44544  22510632.7274                   22510634.1484
        43.5004         25.7504
   -725704.82848  -5516788.02745  20481980.2424                   20481978.6374
        50.0004         32.7504
   2530193.48846   2484002.55142  23133426.1094                   23133425.5204
        41.2504         16.2504
    497503.16847    328847.66844  22472646.6414                   22472647.3134
        45.0004         27.0004
 19  3  7  0 18  0.0000000  0  4G01G17G13G24
    477207.24247  -2136481.05544  22509714.1954                   22509715.6454
        43.7504         25.0004
   -738050.86348  -5526408.30945  20479630.4694                   20479628.6604
        50.0004         33.2504
   2536090.97746   2488598.00442  23134546.8914                   23134547.1454
        41.2504         16.2504
    473782.52047    310364.04344  22468132.2194                   22468133.4024
        44.5004         29.0004
 19  3  7  0 18  5.0000000  0  4G01G17G13G24
    472396.57847  -2140229.67243  22508798.4534                   22508800.5434
        42.7504         22.5004
   -750387.66048  -5536021.44945  20477283.0164                   20477282.2384
        50.7504         34.0004
   2541990.65247   2493195.09443  23135670.2034                   23135670.1804
        44.0004         18.5004
    450066.49247    291884.01644  22463619.4454                   22463620.8324
        43.2504         24.7504
 19  3  7  0 18 10.0000000  0  4G01G17G13G24
    467607.37547  -2143961.53943  22507886.9844                   22507889.5864
        42.2504         22.5004
   -762707.60548  -5545621.39545  20474938.3444                   20474938.0004
        50.5004         34.0004
   2547900.91847   2497800.53543  23136794.6094                   23136794.9654
        43.2504         19.0004
    426364.28547    273414.79344  22459108.7894                   22459110.5004
        43.0004         26.2504
 19  3  7  0 18 15.0000000  0  4G01G17G13G24
    462835.31347  -2147679.98043  22506979.3444                   22506981.7304
        43.7504         22.2504
   -775013.11248  -5555210.07945  20472597.1884                   20472595.5314
        50.7504         32.2504
   2553821.25847   2502413.80143  23137921.5084                   23137921.3674
        43.5004         19.0004
    402675.81347    254956.24644  22454601.2114                   22454602.4224
        43.5004         26.0004
 19  3  7  0 18 20.0000000  0  4G01G17G13G24
    458077.73047  -2151387.18743  22506074.1254                   22506076.4414
        44.5004         23.0004
   -787308.64148  -5564791.00645  20470257.2894                   20470255.8284
        49.7504         31.7504
   2559744.77746   2507029.51642  23139048.2194                   23139048.7664
        40.5004         17.2504
    378991.95947    236501.31744  22450094.3284                   22450095.9184
        43.2504         25.5004
 19  3  7  0 18 25.0000000  0  4G01G17G13G24
    453331.88347  -2155085.25043  22505171.2734                   22505172.7034
        43.5004         23.2504
   -799599.90248  -5574368.62545  20467918.1484                   20467916.8554
        50.0004         33.0004
   2565664.42247   2511642.16042  23140174.9924                   23140174.8554
        43.5004         16.7504
    355303.19947    218042.51644  22445586.1024                   22445587.6054
        42.5004         27.0004
 19  3  7  0 18 30.0000000  0  4G01G17G13G24
    448595.97347  -2158775.56244  22504268.9144                   22504271.8794
        44.0004         27.7504
   -811879.02348  -5583936.75445  20465581.1804                   20465580.5204
        50.2504         33.2504
   2571593.56647   2516262.32842  23141303.2274                   23141303.3954
        42.5004         16.2504
    331628.72347    199594.90644  22441081.5704                   22441082.9924
        44.0004         26.0004
 19  3  7  0 18 35.0000000  0  4G01G17G13G24
   2019306.26747   -934845.47144  22803165.3444                   22803167.7344
        44.5004         25.2504
    751279.55648  -4365891.12145  20763040.7894                   20763039.2504
        49.2504         32.5004
   4152947.26646   3748485.94542  23442224.9774                   23442225.1764
        39.0004         17.2504
   1883387.16646   1408757.30144  22736370.9064                   22736371.8714
        41.7504         27.5004
 19  3  7  0 18 40.0000000  0  4G01G17G13G24
   2014616.37547   -938499.96543  22802272.2584                   22802274.8204
        44.2504         22.5004
    739033.90648  -4375433.19945  20760710.2734                   20760708.7034
        50.5004         32.5004
   4158896.43447   3753121.68442  23443356.8284                   23443356.8444
        43.5004         17.2504
   1859737.02047   1390328.61744  22731870.2504                   22731871.6214
        43.0004         26.7504
 19  3  7  0 18 45.0000000  0  4G01G17G13G24
   2009945.42647   -942139.62543  22801384.3444                   22801386.4494
        45.0004         22.2504
    726803.67248  -4384963.22345  20758383.3364                   20758382.2114
        50.5004         32.0004
   4164855.44147   3757765.08243  23444490.4304                   23444490.3134
        43.2504         18.5004
   1836100.08247   1371910.22744  22727372.9064                   22727373.6564
        43.2504         26.7504
 19  3  7  0 18 50.0000000  0  4G01G17G13G24
   2005292.79747   -945765.07844  22800498.7734                   22800501.4454
        44.0004         24.7504
    714587.11748  -4394482.64545  20756058.2504                   20756056.9414
        50.0004         32.5004
   4170821.41047   3762413.85542  23445626.4774                   23445626.1024
        42.7504         17.7504
   1812473.53547   1353499.93044  22722876.2974                   22722877.5514
        43.5004         26.5004
 19  3  7  0 18 55.0000000  0  4G01G17G13G24
   2000656.89147   -949377.45743  22799616.4844                   22799619.1174
        44.0004         22.7504
    702382.50448  -4403992.72345  20753736.1564                   20753735.2774
        49.7504         33.0004
   4176791.73047   3767066.03542  23446762.5554                   23446762.5124
        44.0004         17.7504
   1788850.00047   1335092.00044  22718381.2894                   22718382.4884
        43.5004         26.5004
 19  3  7  0 19  0.0000000  0  4G01G17G13G24
   1996034.50447   -952979.30543  22798737.2114                   22798739.6764
        44.2504         22.5004
    690188.58648  -4413494.46945  20751415.5944                   20751414.6684
        49.2504         31.5004
   4182769.71147   3771724.23442  23447900.3524                   23447900.5044
        43.2504         17.2504
   1765236.82047   1316692.09044  22713888.0784                   22713889.2344
        44.5004         26.5004
 19  3  7  0 19  5.0000000  0  4G01G17G13G24
   1991426.72747   -956569.77045  22797859.7424                   22797862.8754
        45.7504         30.0004
    678007.39148  -4422986.29345  20749097.0164                   20749096.3444
        48.0004         31.5004
                                  23449038.9224                   23449038.8794
        32.5004         16.7504
   1741637.54647   1298303.09544  22709396.7894                   22709398.1884
        44.2504         26.7504
 19  3  7  0 19 10.0000000  0  4G01G17G13G24
   1986838.02347   -960145.44944  22796986.5394                   22796990.3674
        44.2504         28.5004
    665836.98448  -4432469.79745  20746781.0164                   20746780.8754
        49.0004         33.2504
   4194741.691 7                  23450177.539
        42.000
   1718042.08647   1279916.93844  22704906.6254                   22704908.9494
        42.5004         26.5004
 19  3  7  0 19 15.0000000  0  4G01G17G13G24
   1982271.00447   -963704.16844  22796117.9064                   22796122.0474
        44.5004         25.5004
    653686.62948  -4441937.58645  20744469.3204                   20744469.9184
        50.0004         34.0004
   4200743.89547   3779008.04353  23451320.0084                   23451318.8054
        43.2504         21.2504
   1694463.35247   1261543.93444  22700419.9454                   22700422.1994
        42.2504         28.5004
 19  3  7  0 19 20.0000000  0  4G01G17G13G24
   1977736.16447   -967237.78544  22795255.6804                   22795258.8324
        45.2504         26.2504
    641561.07448  -4451386.06645  20742162.1484                   20742161.9614
        50.2504         35.0004
   4206758.69947   3783694.87943  23452464.7424                   23452464.0904
        43.5004         19.7504
   1670890.27047   1243175.31344  22695934.2584                   22695936.1214
        42.2504         26.5004
 19  3  7  0 19 25.0000000  0  4G01G17G13G24
   1973215.05147   -970760.74244  22794394.4454                   22794398.1564
        45.0004         27.0004
    629448.01648  -4460824.82045  20739857.0474                   20739856.8204
        50.0004         34.0004
   4212783.18047   3788389.29343  23453611.8834                   23453610.6524
        42.5004         19.2504
   1647333.26647   1224819.20344  22691451.9774                   22691453.7934
        43.0004         25.5004
 19  3  7  0 19 30.0000000  0  4G01G17G13G24
   1968704.65247   -974275.30144  22793535.8204                   22793539.9804
        43.2504         25.5004
    617340.24648  -4470259.41045  20737552.4924                   20737553.2504
        50.2504         33.2504
   4218807.64547   3793083.70343  23454758.2034                   23454757.2274
        45.0004         19.2504
   1623784.10247   1206469.23044  22686970.2114                   22686972.2274
        42.7504         26.0004
 19  3  7  0 19 35.0000000  0  4G01G17G13G24
   1964204.96547   -977781.57043  22792680.3984                   22792684.1724
        43.7504         23.5004
    605239.64548  -4479688.46145  20735250.4694                   20735250.3134
        50.0004         33.2504
   4224834.82847   3797780.19143  23455904.6724                   23455903.8794
        43.0004         19.5004
   1600241.55547   1188124.38344  22682490.4224                   22682492.5084
        44.2504         26.0004
 19  3  7  0 19 40.0000000  0  4G01G17G13G24
   1959717.33547   -981278.43144  22791826.3204                   22791830.4574
        44.7504         24.0004
    593148.02048  -4489110.52745  20732949.3914                   20732950.6134
        50.0004         32.7504
   4230866.26647   3802479.95743  23457052.4384                   23457052.0824
        43.0004         19.5004
   1576706.65647   1169785.49644  22678011.4064                   22678014.7814
        42.7504         25.7504
 19  3  7  0 19 45.0000000  0  4G01G17G13G24
   1955243.46547   -984764.55944  22790974.1334                   22790979.3524
        45.2504         24.7504
    581065.89848  -4498525.16445  20730649.8754                   20730650.2734
        49.0004         32.0004
   4236900.85546   3807182.23842  23458200.1094                   23458201.0474
        41.2504         17.7504
   1553178.87947   1151452.16444  22673534.0944                   22673537.0664
        42.7504         26.0004
 19  3  7  0 19 50.0000000  0  4G01G17G13G24
   1950785.73446   -988238.03743  22790126.2034                   22790132.0824
        41.0004         22.2504
    568996.75047  -4507929.68744  20728353.0084                   20728355.1294
        47.0004         26.7504
   4242941.66846   3811889.56642  23459350.0314                   23459351.7384
        40.0004         17.2504
   1529658.87956   1133124.88754  22669058.1334                   22669062.2894
        39.2504         24.0004
 19  3  7  0 19 55.0000000  0  4G01G17G13G24
   1946343.97347   -991699.24643  22789280.7664                   22789285.8094
        43.7504         22.7504
    556944.61747  -4517320.98045  20726059.1564                   20726061.0824
        47.7504         30.0004
   4248996.008 6                  23460501.734
        37.750
   1506150.85547   1114806.94544  22664585.1254                   22664588.3754
        42.2504         26.7504
 19  3  7  0 20  0.0000000  0  4G01G17G13G24
   1941922.61746   -995144.42244  22788439.2504                   22788444.5824
        41.0004         26.0004
    544904.05947  -4526703.21545  20723768.4694                   20723768.9264
        46.5004         32.5004
   4255053.54345   3816233.27353  23461654.0394                   23461652.5434
        35.7504         19.5004
   1482655.24546   1096498.70544  22660114.3134                   22660117.2424
        40.0004         29.0004
 19  3  7  0 20  5.0000000  0  4G01G17G13G24
   1937515.72747   -998578.32844  22787601.2734                   22787605.2584
        44.5004         26.7504
    532875.37148  -4536076.18045  20721479.6484                   20721479.6214
        49.2504         33.0004
   4261118.52746   3820959.21543  23462809.5394                   23462807.3014
        40.5004         18.5004
   1459167.62946   1078196.67244  22655644.6804                   22655647.2154
        41.5004         29.7504
 19  3  7  0 20 10.0000000  0  4G01G17G13G24
   1933123.66046  -1002000.82043  22786764.1174                   22786769.6134
        39.5004         22.5004
    520858.40247  -4545440.07844  20719191.5084                   20719192.1954
        46.5004         27.7504
   4267187.71746   3825688.41042  23463962.5314                   23463962.5904
        38.0004         17.7504
   1435686.70346   1059899.86343  22651174.8984                   22651179.2074
        40.5004         22.7504
 19  3  7  0 20 15.0000000  0  4G01G17G13G24
   1928752.09047  -1005407.10944  22785933.2034                   22785937.6524
        43.2504         24.0004
    508852.71147  -4554795.12145  20716908.3754                   20716908.3794
        47.2504         31.0004
   4273258.73846   3830419.11343  23465119.2274                   23465118.3094
        40.7504         18.2504
   1412204.09447   1041601.72345  22646707.8054                   22646710.5864
        43.0004         31.0004
 19  3  7  0 20 20.0000000  0  4G01G17G13G24
   1924388.43047  -1008807.37545  22785103.6024                   22785105.4734
        45.0004         30.5004
    496854.94548  -4564144.03145  20714625.6954                   20714622.3674
        49.5004         33.2504
   4279331.89546   3835151.40642  23466275.6564                   23466274.2814
        40.5004         16.7504
   1388732.16847   1023311.93444  22642242.0314                   22642242.6524
        44.0004         29.2504
 19  3  7  0 20 25.0000000  0  4G01G17G13G24
   1920042.73447  -1012193.62544  22784276.7974                   22784276.7464
        45.2504         29.7504
    484871.62148  -4573481.67245  20712345.3364                   20712341.2624
        49.5004         34.7504
   4285414.45346   3839891.10242  23467433.2194                   23467431.3364
        37.0004         16.7504
   1365270.30147   1005029.95745  22637777.1334                   22637776.0004
        43.7504         31.5004
 19  3  7  0 20 30.0000000  0  4G01G17G13G24
   1915723.73047  -1015559.10544  22783453.8834                   22783454.7544
        43.5004         28.7504
    472905.76648  -4582805.75446  20710067.7424                   20710064.5274
        48.5004         36.0004
   4291504.02346   3844636.19143  23468591.0864                   23468590.4884
        40.7504         18.5004
   1341820.55947    986757.40645  22633313.5554                   22633313.6844
        43.0004         32.2504
 19  3  7  0 20 35.0000000  0  4G01G17G13G24
   1911418.66847  -1018913.68744  22782634.4304                   22782635.2704
        44.0004         29.5004
    460951.73848  -4592120.54345  20707792.5634                   20707789.9024
        49.0004         35.0004
   4297601.92246   3849387.80143  23469751.4454                   23469750.5274
        37.5004         18.5004
   1318381.25447    968493.05945  22628853.5474                   22628853.1134
        42.0004         30.0004
 19  3  7  0 20 40.0000000  0  4G01G17G13G24
   1907128.82047  -1022256.42645  22781818.5944                   22781819.3054
        43.5004         30.2504
    449005.55948  -4601429.26245  20705519.2504                   20705516.7194
        48.5004         35.5004
   4303694.21946   3854135.10542  23470910.9304                   23470909.7974
        40.0004         17.2504
   1294927.49247    950217.41445  22624390.1564                   22624390.3134
        42.0004         30.0004
 19  3  7  0 20 45.0000000  0  4G01G17G13G24
   1902851.83647  -1025589.14145  22781004.7194                   22781005.5434
        44.0004         30.2504
    437067.84048  -4610731.37145  20703247.9844                   20703245.2504
        48.7504         35.0004
   4309787.84046   3858883.30543  23472070.5704                   23472070.0784
        41.2504         18.2504
   1271476.46946    931943.90245  22619928.0234                   22619928.1334
        41.2504         30.7504
 19  3  7  0 20 50.0000000  0  4G01G17G13G24
   1898590.52747  -1028909.65645  22780193.8054                   22780194.4534
        44.2504         31.2504
    425141.83648  -4620024.36745  20700978.1804                   20700975.7384
        48.5004         35.0004
   4315886.84046   3863635.78943  23473231.1024                   23473230.2734
        39.2504         18.2504
   1248033.91046    913676.96945  22615467.1334                   22615466.8954
        41.5004         30.5004
 19  3  7  0 20 55.0000000  0  4G01G17G13G24
   1894346.41847  -1032216.73045  22779386.4924                   22779387.2584
        44.5004         31.0004
    413229.17648  -4629306.95745  20698711.1484                   20698708.5314
        48.2504         35.0004
   4321992.85546   3868393.70742  23474393.4534                   23474391.6214
        38.7504         17.2504
   1224601.30946    895417.80144  22611007.9064                   22611008.2664
        41.5004         29.5004
 19  3  7  0 21  0.0000000  0  4G01G17G13G24
   1890119.66047  -1035510.31645  22778581.7894                   22778582.4344
        43.7504         30.5004
    401329.83248  -4638579.17645  20696447.1954                   20696444.6564
        48.5004         35.2504
   4328105.83246   3873157.10242  23475556.7274                   23475554.8404
        39.5004         17.7504
   1201179.52046    877167.06644  22606550.9144                   22606551.1484
        41.7504         29.7504
 19  3  7  0 21  5.0000000  0  4G01G17G13G24
   1885905.64847  -1038793.97344  22777779.8594                   22777780.6094
        43.2504         28.7504
    389440.72348  -4647843.44145  20694184.4614                   20694181.2114
        48.7504         34.7504
   4334227.01246   3877926.79743  23476721.1804                   23476719.7974
        40.5004         18.5004
   1177781.62147    858934.88345  22602098.0864                   22602098.0004
        43.5004         31.5004
 19  3  7  0 21 10.0000000  0  4G01G17G13G24
   1881707.12147  -1042065.55544  22776981.2664                   22776981.3404
        43.0004         28.7504
    377565.73848  -4657096.66845  20691925.1644                   20691921.5634
        48.5004         35.0004
   4340358.96146   3882704.92643  23477888.2114                   23477886.6374
        40.0004         18.5004
   1154398.53547    840714.31645  22597648.8204                   22597648.0314
        43.7504         32.2504
 19  3  7  0 21 15.0000000  0  4G01G17G13G24
   1877522.71147  -1045326.14844  22776184.0864                   22776184.1604
        42.5004         26.7504
    365702.00048  -4666341.14145  20689666.0394                   20689662.9414
        48.7504         35.0004
   4346497.89146   3887488.52043  23479055.1094                   23479054.1134
        40.0004         19.0004
   1131027.25647    822502.92345  22593200.7894                   22593200.1684
        43.2504         32.0004
 19  3  7  0 21 20.0000000  0  4G01G17G13G24
   1873351.35947  -1048576.55144  22775390.4144                   22775392.2704
        42.5004         27.7504
    353851.81348  -4675575.06245  20687411.3754                   20687409.7704
        49.0004         35.2504
   4352647.63746   3892280.44943  23480226.5394                   23480224.6914
        39.7504         19.2504
   1107671.14847    804303.35545  22588756.4844                   22588756.9804
        43.2504         31.0004
 19  3  7  0 21 25.0000000  0  4G01G17G13G24
   1869197.35946  -1051813.40643  22774598.9924                   22774602.1764
        41.0004         22.7504
    342008.17248  -4684803.85245  20685157.5864                   20685158.6764
        48.5004         31.5004
   4358791.23846   3897067.69143  23481395.1414                   23481394.2464
        39.5004         19.5004
   1084312.28146    786101.67644  22584311.1094                   22584312.8404
        39.0004         26.2504
 19  3  7  0 21 30.0000000  0  4G01G17G13G24
   1865047.07447  -1055047.42044  22773810.1884                   22773812.9574
        42.5004         27.2504
    330170.22547  -4694028.26845  20682905.2664                   20682907.2854
        47.0004         32.2504
   4364939.78946   3901858.78943  23482565.4844                   23482564.8054
        37.5004         18.5004
   1060961.03147    767905.86345  22579867.5944                   22579869.8444
        43.0004         30.0004
 19  3  7  0 21 35.0000000  0  4G01G17G13G24
   1860911.50046  -1058269.98444  22773023.3204                   22773025.9614
        41.7504         26.5004
    318336.78948  -4703249.13345  20680653.9454                   20680652.6484
        48.5004         35.2504
   4371081.21546   3906644.24643  23483734.3444                   23483733.7304
        41.5004         18.5004
   1037606.36347    749707.39145  22575423.5164                   22575425.6294
        42.5004         31.5004
 19  3  7  0 21 40.0000000  0  4G01G17G13G24
   1856787.93047  -1061483.11744  22772239.3834                   22772241.0634
        42.5004         27.0004
    306514.15648  -4712461.55545  20678404.1954                   20678402.1294
        48.0004         33.2504
   4377228.26646   3911434.21143  23484903.2274                   23484903.4654
        38.5004         19.0004
   1014262.72747    731517.55945  22570981.5394                   22570982.0904
        44.0004         34.5004
 19  3  7  0 21 45.0000000  0  4G01G17G13G24
   1852686.21547  -1064679.24643  22771458.3674                   22771459.8834
        43.0004         22.7504
    294706.31648  -4721662.43445  20676157.0634                   20676154.4614
        48.2504         32.2504
   4383379.35546   3916227.30543  23486073.5944                   23486073.5984
        40.7504         19.0004
    990913.02047    713323.05545  22566538.0004                   22566538.5124
        42.5004         31.2504
 19  3  7  0 21 50.0000000  0  4G01G17G13G24
   1848602.25447  -1067861.55944  22770681.2504                   22770682.5634
        43.2504         24.0004
    282911.34048  -4730853.34045  20673912.6334                   20673910.0434
        48.0004         31.7504
   4389534.06346   3921023.17643  23487245.1484                   23487244.8204
        40.2504         18.5004
    967566.80947    695131.17644  22562095.6884                   22562095.9224
        42.5004         29.7504
 19  3  7  0 21 55.0000000  0  4G01G17G13G24
   1844534.84047  -1071030.94944  22769907.3834                   22769908.7584
        43.2504         27.5004
    271127.36348  -4740035.63345  20671670.0474                   20671668.7624
        48.2504         34.7504
   4395694.93046   3925823.85242  23488417.4774                   23488417.2194
        39.5004         17.7504
    944241.40246    676955.60244  22557656.7584                   22557658.0084
        40.5004         28.7504
 19  3  7  0 22  0.0000000  0  4G01G17G13G24
   1840486.52347  -1074185.52044  22769136.6174                   22769137.6094
        43.2504         27.0004
    259362.99248  -4749202.70745  20669431.4064                   20669428.3164
        48.0004         34.7504
   4401870.86346   3930636.22343  23489592.7734                   23489592.0634
        41.2504         19.2504
    920936.43047    658795.83645  22553222.1334                   22553222.2704
        42.0004         31.7504
 19  3  7  0 22  5.0000000  0  4G01G17G13G24
   1836454.58547  -1077327.26944  22768369.3134                   22768371.3284
        42.5004         28.2504
    247612.39148  -4758359.02345  20667195.3364                   20667194.7384
        48.5004         35.2504
   4408058.52346   3935457.72343  23490770.6564                   23490769.9024
        41.2504         21.5004
    897641.11746    640643.58245  22548789.6954                   22548790.3674
        41.2504         31.2504
 19  3  7  0 22 10.0000000  0  4G01G17G13G24
   1832425.42047  -1080466.91445  22767602.8594                   22767604.0234
        42.5004         31.7504
    235867.51248  -4767510.92145  20664960.3054                   20664959.4804
        48.7504         35.0004
   4414249.77246   3940282.08843  23491948.1644                   23491948.4574
        40.2504         20.0004
    874368.71146    622509.25345  22544360.6094                   22544361.8914
        41.5004         30.7504
 19  3  7  0 22 15.0000000  0  4G01G17G13G24
   1828422.10947  -1083586.25345  22766841.2814                   22766842.1604
        43.7504         32.2504
    224133.66448  -4776654.04346  20662727.7894                   20662725.7894
        49.0004         37.0004
   4420436.07146   3945102.69343  23493126.2114                   23493125.5824
        39.5004         18.5004
    851087.65446    604368.27145  22539930.6484                   22539931.1914
        41.5004         33.2504
 19  3  7  0 22 20.0000000  0  4G01G17G13G24
   1824416.59457  -1086707.23454  22766078.5704                   22766079.7774
        42.7504         29.0004
    212414.03158  -4785786.28556  20660497.5784                   20660494.7344
        49.0004         36.0004
   4426649.24657   3949943.95754  23494308.8754                   23494307.4734
        42.7504         27.2504
    827829.11256    586244.65055  22535504.5474                   22535505.5434
        41.2504         32.7504
 19  3  7  0 22 25.0000000  0  4G01G17G13G24
   1820426.53056  -1089816.39754  22765320.8364                   22765321.5004
        41.5004         26.2504
    200710.95758  -4794905.30556  20658270.7974                   20658268.5744
        48.2504         36.2504
   4432870.78557   3954791.99254  23495492.7664                   23495491.3284
        43.5004         28.7504
    804570.73847    568121.37546  22531078.6804                   22531079.5474
        44.5004         36.2504
 19  3  7  0 22 30.0000000  0  4G01G17G13G24
   1816444.82447  -1092919.07043  22764561.6954                   22764563.6294
        42.0004         23.0004
    189008.52348  -4804024.16045  20656043.6334                   20656041.4734
        48.7504         35.5004
   4439087.70746   3959636.36344  23496675.5234                   23496674.4734
        41.2504         24.2504
    781306.36757    549993.42255  22526651.4454                   22526651.9574
        42.2504         32.0004
 19  3  7  0 22 35.0000000  0  4G01G17G13G24
   1812462.93046  -1096021.83244  22763803.9534                   22763805.5394
        41.5004         28.0004
    177312.66048  -4813137.81246  20653818.1724                   20653815.6524
        48.7504         37.0004
   4445310.32447   3964485.13743  23497859.7974                   23497858.6644
        42.5004         22.7504
    758039.66347    531863.50245  22522223.9384                   22522224.5594
        42.2504         32.2504
 19  3  7  0 22 40.0000000  0  4G01G17G13G24
   1808504.62547  -1099106.28544  22763050.8204                   22763052.2734
        42.0004         25.5004
    165627.53548  -4822243.16845  20651594.0084                   20651591.7194
        48.5004         35.0004
   4451529.61746   3969331.27043  23499042.5784                   23499041.3834
        40.2504         22.2504
    734776.43047    513736.26645  22517796.6174                   22517798.3794
        42.2504         32.0004
 19  3  7  0 22 45.0000000  0  4G01G17G13G24
   1804556.10247  -1102183.01644  22762299.5634                   22762301.2664
        42.0004         26.7504
    153954.06848  -4831339.32446  20649372.8054                   20649371.4184
        48.0004         37.0004
   4457758.52347   3974184.99244  23500228.3204                   23500227.1254
        42.5004         24.5004
    711519.59746    495614.09645  22513371.6174                   22513372.6524
        41.5004         31.0004
 19  3  7  0 22 50.0000000  0  4G01G17G13G24
   1800624.66846  -1105246.50044  22761551.5704                   22761553.8754
        41.5004         29.5004
    142295.78548  -4840423.71146  20647154.3754                   20647152.8874
        48.7504         37.5004
   4463996.55147   3979045.76243  23501415.4224                   23501414.2274
        43.0004         22.7504
    688273.93046    477500.57445  22508947.7194                   22508949.3714
        40.2504         31.0004
 19  3  7  0 22 55.0000000  0  4G01G17G13G24
   1796711.24647  -1108295.89544  22760806.2114                   22760808.8554
        42.7504         26.2504
    130651.40047  -4849497.25046  20644937.9064                   20644936.5824
        47.7504         36.5004
   4470241.93047   3983912.30943  23502604.3984                   23502602.4384
        42.7504         23.7504
    665037.43346    459394.23445  22504526.2194                   22504527.3674
        40.5004         32.2504
 19  3  7  0 23  0.0000000  0  4G01G17G13G24
   1792813.10946  -1111333.42644  22760064.6804                   22760066.6174
        40.2504         27.0004
    119018.30548  -4858562.00446  20642724.8284                   20642723.3834
        48.2504         37.2504
   4476491.22347   3988781.87144  23503793.7664                   23503791.4494
        44.5004         25.5004
    641809.39146    441294.43845  22500106.2894                   22500107.6054
        41.7504         32.5004
 19  3  7  0 23  5.0000000  0  4G01G17G13G24
   1788928.53146  -1114360.36344  22759325.9144                   22759327.3554
        41.2504         26.7504
    107396.09448  -4867618.27046  20640513.2424                   20640511.2074
        48.5004         37.2504
   4482744.82047   3993654.81644  23504983.1804                   23504981.6844
        42.5004         24.5004
    618586.19546    423198.45745  22495686.8984                   22495687.6884
        41.2504         32.0004
 19  3  7  0 23 10.0000000  0  4G01G17G13G24
   1785053.51646  -1117379.85244  22758588.0314                   22758590.0274
        40.5004         26.0004
     95783.67648  -4876666.91046  20638303.4144                   20638301.2114
        48.5004         37.5004
   4489005.86347   3998533.51644  23506174.8674                   23506172.8874
        43.0004         26.2504
    595372.46946    405109.84445  22491269.4064                   22491270.1094
        40.5004         31.0004
 19  3  7  0 23 15.0000000  0  4G01G17G13G24
   1781202.32446  -1120380.76644  22757855.2344                   22757857.6294
        40.7504         26.0004
     84185.75048  -4885704.24646  20636096.5394                   20636094.9734
        48.0004         36.5004
   4495269.88347   4003414.57843  23507366.7114                   23507365.0124
        43.7504         23.2504
    572168.45746    387028.80545  22486853.7584                   22486854.6994
        41.7504         32.0004
 19  3  7  0 23 20.0000000  0  4G01G17G13G24
   1777366.35946  -1123369.87544  22757124.8834                   22757127.4654
        41.2504         26.5004
     72600.63247  -4894731.65946  20633890.7424                   20633890.0274
        47.5004         36.7504
   4501540.09847   4008300.42943  23508558.9224                   23508557.6604
        43.0004         22.0004
    548972.45246    368953.93744  22482438.3834                   22482440.3754
        40.0004         29.0004
 19  3  7  0 23 25.0000000  0  4G01G17G13G24
   1773548.46346  -1126344.79844  22756399.0784                   22756400.8284
        41.0004         26.5004
     61027.10948  -4903749.93746  20631689.7194                   20631687.2154
        48.7504         37.5004
   4507813.16847   4013188.57043  23509753.6334                   23509751.8324
        44.2504         22.7504
    525785.32446    350886.11345  22478027.4614                   22478028.1804
        41.5004         31.5004
 19  3  7  0 23 30.0000000  0  4G01G17G13G24
   1769746.16846  -1129307.68044  22755675.8594                   22755677.0944
        41.5004         24.5004
     49455.16448  -4912767.05946  20629487.3984                   20629485.2664
        48.0004         36.5004
   4514073.55047   4018066.76044  23510944.6644                   23510943.3984
        43.7504         24.2504
    502598.84046    332818.70345  22473614.6644                   22473616.1254
        41.0004         31.0004
 19  3  7  0 23 35.0000000  0  4G01G17G13G24
   1765950.18446  -1132265.54744  22754952.4144                   22754954.3054
        41.0004         27.2504
     37886.06348  -4921781.93046  20627285.5474                   20627283.8364
        48.7504         37.2504
   4520330.79347   4022942.54344  23512135.6804                   23512133.8554
        42.5004         25.2504
    479413.64546    314752.33245  22469203.4774                   22469203.7774
        40.5004         31.7504
 19  3  7  0 23 40.0000000  0  4G01G17G13G24
   1762169.40646  -1135211.63344  22754233.6414                   22754234.9144
        40.7504         27.0004
     26326.12148  -4930789.67646  20625086.0634                   20625084.0434
        48.7504         37.2504
   4526588.43846   4027818.62544  23513326.4614                   23513325.1884
        41.2504         24.0004
    456235.37547    296691.35245  22464792.3524                   22464792.8554
        42.0004         33.2504
 19  3  7  0 23 45.0000000  0  4G01G17G13G24
   1758410.46546  -1138140.66443  22753518.5474                   22753519.8364
        41.5004         21.7504
     14774.32448  -4939791.07046  20622887.9844                   20622885.1804
        48.2504         36.5004
   4532839.09447   4032689.27744  23514516.0554                   23514514.3674
        44.0004         25.2504
    433062.95347    278634.92245  22460382.6804                   22460383.1884
        42.7504         33.5004
 19  3  7  0 23 50.0000000  0  4G01G17G13G24
   1754663.54746  -1141060.34843  22752805.4224                   22752806.9024
        39.5004         21.7504
      3230.60948  -4948786.17246  20620691.2114                   20620688.9614
        48.5004         37.5004
   4539091.18447   4037560.99244  23515705.8914                   23515703.7814
        43.2504         26.2504
    409895.34847    260582.23445  22455974.4224                   22455974.0394
        42.0004         33.2504
 19  3  7  0 23 55.0000000  0  4G01G17G13G24
   1750929.77346  -1143969.77343  22752094.7424                   22752096.4614
        39.5004         22.0004
     -8299.13748  -4957770.38746  20618497.1954                   20618495.2854
        48.5004         37.5004
   4545354.13347   4042441.21944  23516898.2424                   23516895.9844
        44.0004         24.0004
    386738.58646    242538.00845  22451567.4384                   22451567.9024
        41.7504         32.2504
 19  3  7  0 24  0.0000000  0  4G01G17G13G24
   1747208.73447  -1146869.30944  22751386.9064                   22751388.4774
        42.5004         27.5004
    -19812.36348  -4966741.71946  20616306.2734                   20616303.8714
        49.0004         37.7504
   4551633.18447   4047333.98844  23518092.7664                   23518090.6374
        44.0004         25.5004
    363595.09046    224504.11745  22447163.6254                   22447163.9414
        41.5004         31.7504
 19  3  7  0 24  5.0000000  0  4G01G17G13G24
   1743509.71546  -1149751.57843  22750682.7664                   22750684.3284
        38.5004         21.5004
    -31310.81248  -4975701.56646  20614118.1804                   20614116.3284
        49.0004         37.2504
   4557918.63747   4052231.78544  23519287.7194                   23519286.7934
        44.0004         25.5004
    340466.19947    206481.62945  22442762.1094                   22442763.2704
        42.2504         32.0004
 19  3  7  0 24 10.0000000  0  4G01G17G13G24
   1739827.92246  -1152620.59043  22749981.9224                   22749983.8444
        39.0004         22.5004
    -42794.28948  -4984649.75046  20611932.2974                   20611931.3164
        49.0004         38.2504
   4564212.84847   4057136.27043  23520485.3754                   23520484.4144
        42.5004         22.2504
    317348.30946    188467.63745  22438363.1174                   22438364.5274
        40.7504         30.5004
 19  3  7  0 24 15.0000000  0  4G01G17G13G24
   1736166.49646  -1155473.62943  22749284.8444                   22749287.3164
        41.0004         22.5004
    -54262.15648  -4993585.75046  20609749.8754                   20609749.1374
        48.2504         37.0004
   4570513.77347   4062046.11743  23521684.4534                   23521683.6844
        43.5004         22.5004
    294242.33646    170463.02345  22433965.5314                   22433967.7034
        41.5004         30.7504
 19  3  7  0 24 20.0000000  0  4G01G17G13G24
   1732519.35546  -1158315.55943  22748590.9694                   22748593.1484
        39.7504         22.5004
    -65719.61748  -5002513.64146  20607570.1884                   20607569.2624
        49.0004         38.5004
   4576818.50847   4066958.85543  23522884.3364                   23522884.1644
        43.0004         22.7504
    271145.64146    152465.57044  22429570.3754                   22429572.4774
        39.5004         28.0004
 19  3  7  0 24 25.0000000  0  4G01G17G13G24
   1728887.53946  -1161145.52743  22747899.5944                   22747902.6214
        39.5004         21.5004
    -77165.50448  -5011432.50446  20605391.5314                   20605390.6414
        48.7504         38.2504
   4583128.57047   4071875.82843  23524085.5704                   23524084.6524
        42.7504         22.5004
    248056.73046    134474.21944  22425177.0784                   22425178.6454
        40.0004         26.5004
 19  3  7  0 24 30.0000000  0  4G01G17G13G24
   1725255.88747  -1163975.43043  22747208.9844                   22747211.3204
        42.5004         22.0004
    -88606.00848  -5020347.17646  20603215.4774                   20603213.8914
        49.2504         38.5004
   4589443.33247   4076796.39544  23525287.5394                   23525287.0744
        42.5004         24.7504
    224962.89146    116479.03944  22420783.0634                   22420784.1914
        41.0004         29.0004
 19  3  7  0 24 35.0000000  0  4G01G17G13G24
   1721627.46146  -1166802.82044  22746518.1884                   22746520.6914
        41.5004         27.0004
   -100047.98448  -5029263.05546  20601037.6414                   20601036.4774
        49.2504         38.5004
   4595747.11747   4081708.35944  23526486.1564                   23526485.8874
        42.5004         25.2504
    201859.93046     98476.68044  22416385.8984                   22416387.5984
        39.2504         28.5004
 19  3  7  0 24 40.0000000  0  4G01G17G13G24
   1718016.12147  -1169616.83644  22745830.9774                   22745833.3164
        44.5004         29.7504
   -111484.53548  -5038174.65246  20598861.3204                   20598859.5314
        49.2504         38.0004
   4602042.55546   4086613.90943  23527684.8984                   23527684.2234
        40.0004         22.0004
    178755.41846     80473.19544  22411989.1334                   22411990.7384
        39.0004         26.2504
 19  3  7  0 24 45.0000000  0  4G01G17G13G24
   1714423.19546  -1172416.49244  22745147.4694                   22745149.3524
        41.7504         26.0004
   -122914.92248  -5047081.41846  20596686.3834                   20596684.8634
        49.0004         37.5004
   4608330.62547   4091513.70343  23528881.0784                   23528880.6724
        42.5004         22.0004
    155656.79346     62474.27344  22407593.9694                   22407595.2624
        40.2504         27.0004
 19  3  7  0 24 50.0000000  0  4G01G17G13G24
   1710837.16846  -1175210.82444  22744464.9774                   22744467.1414
        39.7504         27.7504
   -134341.68448  -5055985.40645  20594512.0004                   20594510.7734
        49.5004         35.2504
   4614615.13347   4096410.67643  23530076.9534                   23530077.1334
        45.2504         20.5004
    132556.23046     44473.83644  22403198.4534                   22403199.3484
        41.0004         25.2504
 19  3  7  0 24 55.0000000  0  4G01G17G13G24
   1707258.81347  -1177999.19144  22743785.1484                   22743786.4224
        44.2504         27.5004
   -145765.12548  -5064886.82846  20592338.8754                   20592337.9804
        50.2504         36.0004
   4620896.90646   4101305.62943  23531273.6174                   23531272.3444
        40.7504         19.0004
    109457.09846     26474.44143  22398803.4454                   22398803.8404
        36.2504         22.5004
 19  3  7  0 25  0.0000000  0  4G01G17G13G24
   1703690.04347  -1180780.07444  22743106.9534                   22743106.8204
        46.2504         29.7504
   -157190.70348  -5073789.88745  20590164.6644                   20590162.6684
        50.0004         34.7504
   4627164.82847   4106189.57842  23532466.3754                   23532465.0354
        42.0004         17.2504
     86357.91446      8475.09843  22394408.1724                   22394408.4774
        40.5004         20.5004
 19  3  7  0 25  5.0000000  0  4G01G17G13G24
   1700143.74247  -1183543.40244  22742431.3754                   22742432.7774
        46.0004         29.7504
   -168598.99248  -5082679.44146  20587993.7814                   20587991.8834
        50.2504         37.0004
   4633435.54346   4111075.95343  23533659.3674                   23533659.0164
        39.2504         19.5004
     63262.24247     -9521.50844  22390012.5704                   22390014.0204
        42.0004         26.7504
 19  3  7  0 25 10.0000000  0  4G01G17G13G24
   1696623.89547  -1186286.16445  22741761.0084                   22741762.7304
        46.2504         33.0004
   -179984.56248  -5091551.33646  20585826.6484                   20585824.9344
        50.2504         38.0004
   4639724.05946   4115976.02743  23534855.7974                   23534856.2154
        40.2504         19.0004
     40192.58246    -27497.89143  22385622.2274                   22385624.4924
        38.5004         21.5004
 19  3  7  0 25 15.0000000  0  4G01G17G13G24
   1693125.11347  -1189012.45745  22741095.4774                   22741097.6094
        44.5004         30.7504
   -191353.55948  -5100410.27046  20583663.2894                   20583662.5004
        50.2504         37.5004
   4646022.35246   4120883.80543  23536054.6484                   23536054.7074
        41.2504         19.0004
     17134.09446    -45465.51243  22381235.0164                   22381236.3164
        38.5004         20.0004
 19  3  7  0 25 20.0000000  0  4G01G17G13G24
   1689643.24647  -1191725.60544  22740433.2584                   22740434.7894
        45.7504         29.2504
   -202710.57848  -5109259.87545  20581502.7344                   20581500.8524
        50.5004         35.2504
   4652323.73447   4125793.99642  23537254.3914                   23537253.8054
        42.5004         17.2504
     -5918.75446    -63428.74243  22376848.0784                   22376849.6994
        38.0004         20.2504
 19  3  7  0 25 25.0000000  0  4G01G17G13G24
   1686173.86347  -1194429.04344  22739772.3594                   22739774.7854
        45.0004         29.2504
   -214061.64548  -5118104.88745  20579342.1954                   20579341.2704
        49.0004         34.0004
   4658624.89846   4130703.92642  23538452.6254                   23538453.0984
        41.5004         17.2504
    -28961.24245    -81383.98843  22372462.9534                   22372464.8794
        35.0004         18.5004
 19  3  7  0 25 30.0000000  0  4G01G17G13G24
   1682720.07147  -1197120.25745  22739114.6564                   22739118.3594
        44.5004         30.5004
   -225399.79748  -5126939.76645  20577184.0634                   20577184.0394
        49.5004         33.5004
   4664931.06346   4135617.80142  23539652.8594                   23539653.2154
        41.5004         16.2504
    -51997.30546    -99334.10543  22368079.0704                   22368080.9884
        39.5004         18.2504
 19  3  7  0 25 35.0000000  0  4G01G17G13G24
   1679297.63347  -1199787.02344  22738463.5704                   22738466.2544
        46.2504         29.2504
   -236709.28548  -5135752.28146  20575032.5944                   20575030.3204
        50.5004         36.0004
   4671255.85546   4140546.21542  23540856.7424                   23540856.6454
        40.5004         17.2504
    -75008.27346   -117264.66443  22363700.4534                   22363702.3634
        38.2504         19.5004
 19  3  7  0 25 40.0000000  0  4G01G17G13G24
   1675887.77757  -1202444.17655  22737815.3054                   22737817.2814
        46.2504         32.0004
   -248010.25858  -5144558.35555  20572882.3444                   20572879.2504
        49.5004         35.0004
   4677585.39846   4145478.23042  23542060.9064                   23542061.4414
        36.5004         16.2504
    -98011.00056   -135189.01253  22359323.6724                   22359325.0824
        41.0004         20.2504
 19  3  7  0 25 45.0000000  0  4G01G17G13G24
   1672489.64147  -1205092.08244  22737168.7424                   22737169.6094
        45.7504         28.7504
   -259302.44148  -5153357.46946  20570733.4924                   20570730.9774
        50.7504         36.2504
   4683918.383 6                  23543266.289
        41.500
   -120997.96946   -153100.88743  22354949.1334                   22354950.2854
        39.7504         20.7504
 19  3  7  0 25 50.0000000  0  4G01G17G13G24
   1669091.69547  -1207739.82445  22736522.3364                   22736522.8524
        46.2504         30.0004
   -270593.12148  -5162155.39146  20568585.2814                   20568582.5274
        51.0004         36.5004
   4690252.31346   4149228.64153  23544471.8204                   23544468.9924
        41.0004         20.7504
   -143973.60246   -171004.03143  22350576.9774                   22350577.9024
        37.5004         21.0004
 19  3  7  0 25 55.0000000  0  4G01G17G13G24
   1665708.35547  -1210376.19945  22735878.2034                   22735879.0744
        46.2504         30.0004
   -281872.82448  -5170944.77046  20566438.5314                   20566436.1414
        51.0004         36.0004
   4696590.16046   4154167.24643  23545677.7274                   23545674.7154
        41.5004         19.0004
   -166940.70746   -188900.40643  22346206.8834                   22346207.6844
        38.5004         19.5004
 19  3  7  0 26  0.0000000  0  4G01G17G13G24
   1662346.23047  -1212996.03945  22735238.4454                   22735239.5744
        46.0004         30.2504
   -293135.02348  -5179720.51246  20564295.2734                   20564292.8054
        51.0004         36.5004
   4702938.46547   4159113.96143  23546885.5554                   23546882.6254
        42.0004         18.2504
   -189892.80146   -206785.18743  22341839.1724                   22341840.0204
        37.7504         19.7504
 19  3  7  0 26  5.0000000  0  4G01G17G13G24
   1659006.15247  -1215598.69145  22734602.5704                   22734604.0864
        45.7504         30.5004
   -304378.80948  -5188481.91046  20562155.6484                   20562152.7544
        51.0004         36.5004
   4709298.14546   4164069.51643  23548094.8524                   23548093.4064
        41.0004         18.2504
   -212828.78546   -224657.41443  22337474.1024                   22337475.1414
        37.2504         19.0004
 19  3  7  0 26 10.0000000  0  4G01G17G13G24
   1655686.85247  -1218185.16845  22733970.9844                   22733972.4224
        46.0004         31.0004
   -315605.49248  -5197229.96146  20560019.8834                   20560016.9884
        51.0004         36.0004
   4715667.90646   4169032.97343  23549307.8204                   23549305.4924
        41.7504         19.5004
   -235749.97746   -242518.03943  22333112.4614                   22333113.4104
        39.0004         19.2504
 19  3  7  0 26 15.0000000  0  4G01G17G13G24
   1652387.14147  -1220756.36745  22733343.3914                   22733344.0004
        46.2504         30.2504
   -326816.26248  -5205965.62546  20557886.0394                   20557883.5084
        51.2504         36.5004
   4722046.44546   4174003.28543  23550521.6334                   23550519.2814
        41.0004         19.0004
   -258657.89846   -260368.35243  22328753.2894                   22328754.3014
        41.0004         21.5004
 19  3  7  0 26 20.0000000  0  4G01G17G13G24
   1649105.72347  -1223313.30545  22732719.1644                   22732719.7074
        46.7504         30.5004
   -338012.36748  -5214689.88346  20555755.3524                   20555752.8914
        50.0004         36.2504
                                  23551736.188
        31.250
   -281553.25046   -278208.91843  22324396.5634                   22324397.1254
        41.2504         21.5004
 19  3  7  0 26 25.0000000  0  4G01G17G13G24
   1645841.74647  -1225856.64844  22732097.4694                   22732099.0784
        46.2504         29.7504
   -349194.61748  -5223403.31246  20553627.2424                   20553625.5044
        50.5004         36.0004
   4734825.48414                  23552955.383
        29.500
   -304437.11746   -296040.43743  22320041.9774                   22320042.4774
        40.7504         22.0004
 19  3  7  0 26 30.0000000  0  4G01G17G13G24
   1642594.68047  -1228386.85545  22731480.3914                   22731480.8204
        46.5004         30.5004
   -360363.60248  -5232106.43046  20551502.6724                   20551500.0434
        50.5004         36.7504
   4741224.28514                  23554172.141
        27.250
   -327309.94546   -313863.44543  22315689.1414                   22315689.9264
        40.5004         22.2504
 19  3  7  0 26 35.0000000  0  4G01G17G13G24
   1639364.59847  -1230903.82844  22730865.5944                   22730865.9804
        46.2504         29.7504
   -371519.19548  -5240799.09046  20549379.6644                   20549377.2344
        50.7504         36.7504
   4747629.387 5                  23555390.633
        30.500
   -350171.71147   -331677.85243  22311339.2034                   22311339.1094
        42.2504         22.2504
 19  3  7  0 26 40.0000000  0  4G01G17G13G24
   1636150.52047  -1233408.30545  22730253.5004                   22730255.0124
        46.2504         32.2504
   -382662.41048  -5249482.12946  20547258.9064                   20547257.3984
        50.5004         37.2504
   4754039.793 4                  23556610.047
        28.250
   -373023.35546   -349484.32444  22306990.2664                   22306990.8404
        39.5004         24.5004
 19  3  7  0 26 45.0000000  0  3G01G17G24
   1632952.26647  -1235900.42245  22729644.9614                   22729647.0824
        46.5004         31.7504
   -393793.36748  -5258155.58646  20545140.4454                   20545139.3524
        50.7504         38.2504
   -395865.16046   -367283.13343  22302643.7424                   22302644.6724
        38.7504         22.5004
 19  3  7  0 26 50.0000000  0  3G01G17G24
   1629769.79347  -1238380.25845  22729039.0864                   22729042.0634
        43.7504         30.0004
   -404912.18448  -5266819.59846  20543024.5234                   20543023.6804
        51.0004         37.5004
   -418697.04746   -385074.18443  22298299.5004                   22298300.6094
        39.7504         21.5004
 19  3  7  0 26 55.0000000  0  3G01G17G24
   1626603.11347  -1240847.83244  22728437.0394                   22728439.2854
        45.5004         29.0004
   -416018.79348  -5275474.12546  20540911.5394                   20540910.0864
        52.0004         37.2504
   -441519.03946   -402857.57443  22293956.2734                   22293957.7034
        40.2504         21.0004
 19  3  7  0 27  0.0000000  0  3G01G17G24
   1623451.79747  -1243303.42244  22727837.4614                   22727839.1294
        45.7504         29.5004
   -427113.66048  -5284119.46546  20538800.2584                   20538798.7074
        52.0004         37.0004
   -464331.50846   -420633.50443  22289615.1484                   22289616.8594
        40.5004         21.2504
 19  3  7  0 27  5.0000000  0  3G01G17G24
   1620316.34447  -1245746.60244  22727240.3444                   22727242.7114
        45.7504         29.2504
   -438196.25848  -5292755.23046  20536690.9304                   20536690.0664
        51.5004         37.0004
   -487133.86346   -438401.56644  22285275.8134                   22285277.3634
        41.7504         26.2504
 19  3  7  0 27 10.0000000  0  3G01G17G24
   1617196.37947  -1248177.77345  22726646.9224                   22726649.2424
        46.2504         30.7504
   -449266.98848  -5301381.80546  20534584.6414                   20534583.1334
        51.5004         37.2504
   -509926.58646   -456162.14143  22280938.6644                   22280940.0824
        40.2504         22.5004
 19  3  7  0 27 15.0000000  0  3G01G17G24
   1614091.64847  -1250597.05545  22726055.6334                   22726058.0004
        45.5004         30.2504
   -460326.05148  -5309999.23446  20532479.2424                   20532478.8714
        50.0004         37.0004
   -532709.98046   -473915.42243  22276602.6254                   22276604.5704
        39.7504         22.0004
 19  3  7  0 27 20.0000000  0  3G01G17G24
   1611002.54347  -1253004.12945  22725468.1954                   22725470.1804
        46.0004         30.0004
   -471372.96548  -5318607.23046  20530377.8674                   20530376.1764
        51.7504         37.0004
   -555483.37946   -491660.92643  22272269.5394                   22272270.9964
        41.0004         22.0004
 19  3  7  0 27 25.0000000  0  3G01G17G24
   1607928.68847  -1255399.34444  22724883.6644                   22724885.2544
        46.0004         29.7504
   -482408.24248  -5327206.14546  20528277.7344                   20528276.9104
        52.0004         37.2504
   -578247.38346   -509399.07843  22267937.7034                   22267938.9734
        40.0004         22.5004
 19  3  7  0 27 30.0000000  0  3G01G17G24
   1604870.52047  -1257782.33644  22724300.7974                   22724303.2274
        45.5004         29.7504
   -493431.35548  -5335795.58246  20526180.1174                   20526178.8634
        52.0004         38.0004
   -601001.32446   -527129.42643  22263608.2504                   22263608.9924
        40.2504         22.5004
 19  3  7  0 27 35.0000000  0  3G01G17G24
   1601827.62947  -1260153.41845  22723722.2344                   22723723.9654
        46.0004         31.0004
   -504442.75448  -5344375.91046  20524084.8914                   20524083.3134
        52.0004         39.0004
   -623745.65646   -544852.30943  22259279.6724                   22259280.7424
        41.5004         22.7504
 19  3  7  0 27 40.0000000  0  3G01G17G24
   1598800.40247  -1262512.30144  22723145.7814                   22723147.7424
        46.0004         29.0004
   -515442.10248  -5352946.80546  20521991.4534                   20521990.5004
        52.0004         37.5004
   -646480.20346   -562567.52343  22254953.0084                   22254954.3164
        40.0004         22.5004
 19  3  7  0 27 45.0000000  0  3G01G17G24
   1595788.64847  -1264859.12545  22722572.6954                   22722575.4144
        44.7504         30.5004
   -526429.50048  -5361508.44946  20519900.5084                   20519899.3134
        51.5004         39.0004
   -669204.79346   -580275.02043  22250628.8834                   22250630.3364
        41.2504         22.5004
 19  3  7  0 27 50.0000000  0  3G01G17G24
   1592792.39847  -1267193.86344  22722002.7504                   22722004.7384
        45.0004         29.7504
   -537404.96548  -5370060.73446  20517812.6804                   20517810.9844
        52.0004         38.5004
   -691919.52346   -597974.77743  22246306.9534                   22246308.5984
        40.7504         22.7504
 19  3  7  0 27 55.0000000  0  3G01G17G24
   1589811.71947  -1269516.45744  22721435.9304                   22721437.5984
        45.2504         29.2504
   -548368.41448  -5378603.68046  20515726.3754                   20515724.7734
        52.0004         38.0004
   -714624.38346   -615666.87543  22241986.2734                   22241987.3754
        40.7504         22.5004
 19  3  7  0 28  0.0000000  0  3G01G17G24
   1586846.28147  -1271827.20345  22720871.6174                   22720873.2274
        45.2504         30.7504
   -559320.16448  -5387137.51646  20513642.3204                   20513640.3834
        52.0004         38.2504
   -737319.68446   -633351.54344  22237666.9924                   22237668.5784
        40.5004         24.5004
 19  3  7  0 28  5.0000000  0  3G01G17G24
   1583896.28147  -1274125.87944  22720310.2344                   22720311.6804
        45.5004         28.7504
   -570260.01648  -5395662.06646  20511560.4844                   20511558.5944
        52.2504         37.7504
   -760005.28146   -651028.58243  22233350.3134                   22233351.6484
        40.7504         22.7504
 19  3  7  0 28 10.0000000  0  3G01G17G24
   1580961.52047  -1276412.74645  22719751.4384                   22719753.5864
        45.5004         30.5004
   -581188.19948  -5404177.54746  20509480.8134                   20509479.4654
        51.7504         38.2504
   -782681.16446   -668698.13344  22229034.8594                   22229036.7114
        40.5004         24.2504
 19  3  7  0 28 15.0000000  0  3G01G17G24
   1578042.01247  -1278687.63744  22719196.1954                   22719198.3094
        45.7504         29.2504
   -592104.67248  -5412683.85946  20507403.0474                   20507402.3524
        51.2504         37.2504
   -805347.29346   -686360.02343  22224721.9694                   22224723.1174
        40.0004         21.7504
 19  3  7  0 28 20.0000000  0  3G01G17G24
   1575137.94147  -1280950.59445  22718643.7034                   22718645.2384
        45.5004         30.0004
   -603009.21548  -5421180.93446  20505328.5164                   20505326.6764
        52.0004         38.5004
   -828003.60246   -704014.32043  22220410.4774                   22220412.1564
        40.7504         22.5004
 19  3  7  0 28 25.0000000  0  3G01G17G24
   1572249.20347  -1283201.52744  22718093.3914                   22718096.0124
        45.2504         28.7504
   -613901.88348  -5429668.69146  20503255.3054                   20503254.0984
        51.7504         37.0004
   -850649.91446   -721660.74243  22216101.7664                   22216102.8134
        40.0004         21.5004
 19  3  7  0 28 30.0000000  0  3G01G17G24
   1569375.93847  -1285440.43444  22717547.1804                   22717549.0554
        46.0004         28.5004
   -624782.59848  -5438147.17646  20501184.8524                   20501183.7424
        51.7504         37.0004
   -873286.39546   -739299.57443  22211794.3134                   22211795.0704
        40.5004         21.2504
 19  3  7  0 28 35.0000000  0  3G01G17G24
   1566518.03947  -1287667.37944  22717003.2894                   22717005.0554
        46.2504         28.0004
   -635651.44548  -5446616.41446  20499116.5234                   20499115.5514
        51.5004         37.5004
   -895912.98446   -756930.69543  22207487.7194                   22207489.0744
        39.5004         21.0004
 19  3  7  0 28 40.0000000  0  3G01G17G24
   1563675.51247  -1289882.34044  22716462.1254                   22716464.0824
        45.2504         28.7504
   -646508.40248  -5455076.38346  20497050.5784                   20497049.1334
        52.0004         37.5004
   -918529.59446   -774553.99643  22203183.8364                   22203185.3594
        41.0004         20.2504
 19  3  7  0 28 45.0000000  0  3G01G17G24
   1560848.12947  -1292085.48444  22715923.9534                   22715926.1994
        45.5004         29.5004
   -657353.73448  -5463527.30146  20494986.4454                   20494985.9804
        51.0004         37.7504
   -941136.55946   -792169.84443  22198881.7344                   22198883.9384
        39.2504         22.0004
 19  3  7  0 28 50.0000000  0  3G01G17G24
   1558036.16447  -1294276.64144  22715389.2894                   22715391.2464
        45.5004         29.7504
   -668187.14848  -5471968.91846  20492925.4614                   20492924.1414
        52.0004         38.2504
   -963733.48846   -809777.84043  22194581.5394                   22194583.7704
        41.0004         22.5004
 19  3  7  0 28 55.0000000  0  3G01G17G24
   1555239.45347  -1296455.89544  22714856.8674                   22714858.6254
        45.0004         29.5004
   -679008.78948  -5480401.36746  20490866.3054                   20490864.8484
        52.2504         38.0004
   -986320.60546   -827378.19543  22190284.4064                   22190285.2774
        41.2504         22.5004
 19  3  7  0 29  0.0000000  0  3G01G17G24
   1552458.25847  -1298623.05145  22714327.4694                   22714329.8754
        45.0004         31.0004
   -689818.43448  -5488824.46146  20488809.1024                   20488807.6524
        51.2504         37.5004
  -1008897.56646   -844970.62544  22185987.5474                   22185989.0634
        41.2504         24.2504
 19  3  7  0 29  5.0000000  0  3G01G17G24
   1549692.25047  -1300778.39545  22713800.7664                   22713803.5434
        45.0004         31.7504
   -700616.37948  -5497238.43746  20486753.6954                   20486752.6334
        50.0004         37.7504
  -1031464.73046   -862555.41044  22181693.2274                   22181694.5904
        41.5004         25.5004
 19  3  7  0 29 10.0000000  0  3G01G17G24
   1546941.84847  -1302921.51245  22713278.0784                   22713280.2154
        46.2504         32.0004
   -711402.11748  -5505642.93046  20484701.5164                   20484701.0004
        52.0004         39.2504
  -1054021.66846   -880132.26644  22177400.7504                   22177402.2304
        41.0004         25.7504
 19  3  7  0 29 15.0000000  0  3G01G17G24
   1544206.19147  -1305053.25845  22712756.7504                   22712759.7464
        45.2504         30.2504
   -722176.63348  -5514038.62546  20482651.1414                   20482650.6174
        50.5004         37.0004
  -1076569.23446   -897701.75443  22173110.8364                   22173112.0594
        40.2504         22.0004
 19  3  7  0 29 20.0000000  0  3G01G17G24
   1541486.49647  -1307172.46945  22712240.1334                   22712241.9304
        45.5004         30.5004
   -732938.57048  -5522424.56246  20480603.6334                   20480602.1764
        51.5004         38.2504
  -1099106.16846   -915263.02743  22168821.2894                   22168822.6174
        40.7504         22.0004
 19  3  7  0 29 25.0000000  0  3G01G17G24
   1538782.70747  -1309279.32045  22711724.7504                   22711727.0044
        45.5004         30.0004
   -743688.09848  -5530800.80546  20478557.8134                   20478557.0554
        50.2504         37.2504
  -1121632.64846   -932816.11743  22164535.1954                   22164535.9654
        39.5004         23.0004
 19  3  7  0 29 30.0000000  0  4G01G17G13G24
   1536094.09047  -1311374.34445  22711213.8204                   22711217.0044
        46.0004         32.2504
   -754425.88748  -5539167.93046  20476514.3364                   20476514.4694
        50.2504         37.7504
   3160252.42215                  23598609.258
        34.250
  -1144149.20746   -950361.49243  22160249.5704                   22160251.8714
        40.0004         22.5004
 19  3  7  0 29 35.0000000  0  4G01G17G13G24
   1533421.14147  -1313457.14844  22710704.8984                   22710707.8134
        45.2504         27.2504
   -765151.48848  -5547525.52745  20474473.5164                   20474472.8364
        51.2504         35.2504
   3166821.941 4                  23599859.156
        29.250
  -1166655.33246   -967898.70743  22155966.7504                   22155969.4304
        40.5004         22.7504
 19  3  7  0 29 40.0000000  0  4G01G17G13G24
   1530763.61747  -1315527.95344  22710199.5004                   22710202.2034
        46.0004         28.5004
   -775865.13348  -5555873.80545  20472435.0704                   20472434.6374
        51.0004         35.7504
   3173395.629 5                  23601111.609
        32.000
  -1189151.31646   -985428.05943  22151686.2344                   22151688.2774
        39.2504         22.0004
 19  3  7  0 29 45.0000000  0  4G01G17G13G24
   1528121.37547  -1317586.84045  22709696.2194                   22709699.7234
        45.7504         30.0004
   -786566.88748  -5564212.83646  20470398.4534                   20470397.7624
        51.2504         36.0004
   3179973.789 4                  23602359.727
        29.500
  -1211637.19946  -1002949.48443  22147407.1254                   22147409.3094
        39.2504         21.2504
 19  3  7  0 29 50.0000000  0  4G01G17G13G24
   1525494.35247  -1319633.92245  22709196.4384                   22709199.0514
        46.5004         35.0004
   -797256.81648  -5572542.69546  20468364.3674                   20468363.6604
        50.5004         40.0004
   3186556.277 4                  23603614.133
        25.750
  -1234113.11746  -1020463.26244  22143129.8674                   22143132.1914
        38.7504         24.2504
 19  3  7  0 29 55.0000000  0  4G01G17G13G24
   1522882.72347  -1321668.93445  22708699.5394                   22708702.0744
        46.5004         35.0004
   -807934.84048  -5580863.22346  20466332.4454                   20466331.1954
        50.5004         40.5004
   3193142.87114                  23604867.609
        28.500
  -1256578.69146  -1037968.89843  22138855.6884                   22138856.8364
        38.7504         22.7504
 19  3  7  0 30  0.0000000  0  4G01G17G13G24
   1520286.22747  -1323692.18445  22708205.1024                   22708207.8834
        46.0004         35.0004
   -818601.11348  -5589174.59446  20464302.1334                   20464301.7894
        50.0004         39.7504
   3199733.53915                  23606122.047
        32.250
  -1279034.38746  -1055466.85544  22134582.8444                   22134584.2894
        39.0004         24.2504
 19  3  7  0 30  5.0000000  0  4G01G17G13G24
   1517704.85247  -1325703.64545  22707714.1804                   22707716.6844
        46.0004         34.5004
   -829255.66048  -5597476.84446  20462274.8054                   20462273.9414
        51.2504         41.0004
   3206328.219 5                  23607375.977
        30.000
  -1301480.11746  -1072956.98844  22130310.8204                   22130313.4414
        39.7504         24.7504
 19  3  7  0 30 10.0000000  0  4G01G17G13G24
   1515139.11347  -1327702.91845  22707225.6334                   22707228.2424
        46.5004         35.5004
   -839897.95748  -5605769.54746  20460249.3594                   20460248.8674
        51.0004         40.0004
   3212927.48015                  23608632.727
        33.500
  -1323915.48846  -1090439.09844  22126041.2344                   22126043.5664
        40.2504         25.7504
 19  3  7  0 30 15.0000000  0  4G01G17G13G24
   1512588.89147  -1329690.09445  22706740.9224                   22706743.6174
        46.7504         34.2504
   -850528.14548  -5614052.80546  20458226.6724                   20458226.4144
        51.0004         40.5004
   3219531.01215                  23609890.008
        31.500
  -1346340.36746  -1107913.02044  22121774.4844                   22121776.1484
        38.5004         25.7504
 19  3  7  0 30 20.0000000  0  4G01G17G13G24
   1510053.91847  -1331665.39845  22706257.8284                   22706260.6804
        46.2504         34.7504
   -861146.48848  -5622326.84446  20456206.3444                   20456205.5274
        50.7504         40.0004
   3226138.828 5                  23611145.359
        30.250
  -1368754.99246  -1125378.95744  22117508.5394                   22117510.5314
        38.2504         26.0004
 19  3  7  0 30 25.0000000  0  4G01G17G13G24
   1507534.71947  -1333628.41045  22705778.7194                   22705781.6564
        46.2504         34.5004
   -871752.47348  -5630591.25046  20454187.8594                   20454187.2344
        50.7504         40.2504
   3232751.410 5                  23612403.898
        31.000
  -1391159.07446  -1142836.67644  22113245.4534                   22113247.3164
        39.0004         24.7504
 19  3  7  0 30 30.0000000  0  4G01G17G13G24
   1505031.19547  -1335579.20745  22705302.3754                   22705304.9184
        46.5004         34.0004
   -882346.14148  -5638846.05146  20452171.8364                   20452171.0824
        51.0004         40.0004
   3239368.60915                  23613663.648
        30.750
  -1413552.55946  -1160286.14844  22108984.0474                   22108985.9884
        39.5004         25.7504
 19  3  7  0 30 35.0000000  0  4G01G17G13G24
   1502543.24647  -1337517.87545  22704828.9534                   22704831.7504
        46.0004         34.5004
   -892927.66848  -5647091.40646  20450158.2734                   20450157.7774
        50.7504         40.0004
   3245990.105 5                  23614923.438
        30.500
  -1435935.63346  -1177727.51644  22104725.2194                   22104726.6604
        39.5004         24.7504
 19  3  7  0 30 40.0000000  0  4G01G17G13G24
   1500070.64847  -1339444.56245  22704358.4384                   22704361.1684
        46.2504         34.0004
   -903497.21948  -5655327.41046  20448147.0164                   20448146.3634
        51.0004         39.7504
   3252615.938 5                  23616184.180
        31.750
  -1458308.26646  -1195160.73844  22100467.2664                   22100469.1334
        39.2504         24.5004
 19  3  7  0 30 45.0000000  0  4G01G17G13G24
   1497614.02347  -1341358.83645  22703891.0084                   22703893.8634
        46.0004         33.5004
   -914054.17248  -5663553.60246  20446138.6414                   20446136.9144
        51.2504         40.0004
   3259246.691 5                  23617446.086
        34.000
  -1480669.89846  -1212585.39544  22096212.3054                   22096214.0204
        40.2504         25.7504
 19  3  7  0 30 50.0000000  0  4G01G17G13G24
   1495172.83247  -1343261.06245  22703426.3284                   22703429.0864
        46.0004         33.7504
   -924599.05948  -5671770.39846  20444131.8834                   20444130.7584
        51.2504         40.2504
   3265881.594 5                  23618708.602
        34.500
  -1503021.16446  -1230001.95344  22091958.8204                   22091961.1724
        40.0004         25.7504
 19  3  7  0 30 55.0000000  0  4G01G17G13G24
   1492747.39147  -1345150.99645  22702965.3444                   22702967.3284
        46.5004         33.5004
   -935131.51248  -5679977.50446  20442127.5634                   20442126.4414
        51.2504         40.7504
   3272521.156 5                  23619973.258
        35.250
  -1525361.46146  -1247409.96944  22087707.7034                   22087709.5984
        40.5004         25.2504
 19  3  7  0 31  0.0000000  0  4G01G17G13G24
   1490337.38747  -1347028.93445  22702506.4774                   22702508.9964
        46.2504         34.0004
   -945651.92648  -5688175.23446  20440125.2274                   20440124.6914
        51.2504         40.7504
   3279165.020 5                  23621237.391
        35.000
  -1547691.32846  -1264809.87944  22083458.5704                   22083460.5354
        39.7504         27.0004
 19  3  7  0 31  5.0000000  0  4G01G17G13G24
   1487943.01247  -1348894.66045  22702050.4844                   22702053.1764
        46.2504         33.2504
   -956159.99248  -5696363.32446  20438125.9454                   20438124.9414
        51.2504         40.0004
   3285813.355 5                  23622501.938
        34.500
  -1570010.53146  -1282201.44943  22079211.1954                   22079213.4224
        40.0004         23.2504
 19  3  7  0 31 10.0000000  0  4G01G17G13G24
   1485564.41047  -1350748.12545  22701598.2894                   22701600.4924
        47.0004         33.2504
   -966655.69148  -5704541.80146  20436128.3524                   20436127.9734
        51.5004         40.0004
   3292466.344 5                  23623767.969
        34.500
  -1592318.94546  -1299584.64143  22074965.7194                   22074968.3594
        40.2504         23.0004
 19  3  7  0 31 15.0000000  0  4G01G17G13G24
   1483201.72747  -1352589.17245  22701148.3674                   22701150.8134
        45.7504         31.5004
   -977138.84448  -5712710.46546  20434133.3134                   20434133.3244
        50.7504         38.7504
   3299123.973 5                  23625034.805
        33.750
  -1614616.36346  -1316959.23444  22070723.2734                   22070725.6684
        39.2504         24.0004
 19  3  7  0 31 20.0000000  0  4G01G17G13G24
   1480854.77047  -1354417.94144  22700702.1564                   22700704.5234
        46.2504         28.0004
   -987609.60548  -5720869.49245  20432141.2584                   20432140.2344
        51.2504         35.0004
   3305786.336 5                  23626303.805
        35.250
  -1636902.86746  -1334325.31643  22066481.8984                   22066484.2974
        39.2504         21.7504
 19  3  7  0 31 25.0000000  0  4G01G17G13G24
   3053944.27047   -128633.93045  23000051.0164                   23000053.5904
        46.0004         30.2504
    577354.37948  -4501417.03946  20729943.6414                   20729943.2854
        51.0004         37.2504
   4887872.086 5                  23927363.305
        34.500
    -83753.95346   -124079.42643  22362036.4694                   22362039.0664
        39.5004         21.2504
 19  3  7  0 31 30.0000000  0  4G01G17G13G24
   3051628.89847   -130438.10245  22999610.3524                   22999613.0474
        46.0004         30.5004
    566908.54748  -4509556.64146  20727955.9224                   20727955.4884
        51.0004         37.7504
   4894543.617 5                  23928634.250
        35.000
   -106018.67646   -141428.54743  22357800.0164                   22357802.2194
        39.2504         21.0004
 19  3  7  0 31 35.0000000  0  4G01G17G13G24
   3049329.25847   -132230.03945  22999172.9224                   22999175.3554
        46.0004         31.0004
    556475.16048  -4517686.55946  20725970.8594                   20725970.0044
        51.0004         38.0004
   4901219.664 5                  23929903.445
        34.000
   -128272.47346   -158769.17643  22353565.0784                   22353567.5824
        39.5004         21.5004
 19  3  7  0 31 40.0000000  0  4G01G17G13G24
   3047045.43047   -134009.66045  22998737.9614                   22998740.5784
        46.0004         32.7504
    546054.23848  -4525806.77346  20723987.6174                   20723986.6454
        50.7504         38.0004
   4907900.156 5                  23931174.680
        32.750
   -150515.26646   -176101.24643  22349331.9694                   22349334.7504
        39.5004         22.5004
 19  3  7  0 31 45.0000000  0  4G01G17G13G24
   3044777.34847   -135776.98445  22998306.4844                   22998309.4304
        45.5004         30.7504
    535645.75448  -4533917.27046  20722007.2894                   20722006.8524
        51.5004         36.5004
   4914585.430 5                  23932446.930
        33.750
   -172747.14146   -193424.76643  22345102.1884                   22345104.1134
        40.5004         22.2504
 19  3  7  0 31 50.0000000  0  4G01G17G13G24
   3042524.64147   -137532.34045  22997877.6484                   22997880.4884
        46.0004         30.0004
    525249.30948  -4542018.39146  20720028.4694                   20720027.7704
        50.5004         36.2504
   4921274.797 5                  23933720.391
        33.750
   -194968.29046   -210739.94743  22340872.3984                   22340875.6174
        39.0004         21.0004
 19  3  7  0 31 55.0000000  0  4G01G17G13G24
   3040287.59447   -139275.51645  22997451.5234                   22997454.5634
        46.0004         30.7504
    514865.18048  -4550109.92245  20718052.6334                   20718051.6644
        50.2504         34.0004
   4927967.60215                  23934994.961
        34.250
   -217178.65246   -228046.75443  22336646.2584                   22336648.7114
        40.5004         21.5004
 19  3  7  0 32  0.0000000  0  4G01G17G13G24
   3038066.37947   -141006.28944  22997029.3524                   22997032.5314
        46.0004         27.7504
    504493.67248  -4558191.61745  20716078.8594                   20716078.2114
        51.5004         35.0004
   4934666.238 4                  23936269.375
        27.250
   -239377.89546   -245344.80544  22332422.1954                   22332424.4494
        41.5004         25.2504
 19  3  7  0 32  5.0000000  0  4G01G17G13G24
   3035860.93447   -142724.83645  22996609.1094                   22996612.0824
        45.5004         30.0004
    494134.57048  -4566263.63746  20714107.8134                   20714106.3204
        49.7504         36.5004
   4941369.121 4                  23937544.203
        29.750
   -261565.93046   -262634.21543  22328200.2194                   22328202.2074
        40.5004         22.7504
